[{"address": "경북 경산시 하양읍 금락리 135-174", "car_count": "1", "imaginary": "0", "is_d2d_car_exportable": "ABLE", "lat": "35.912634", "lng": "128.821347", "parking_name": "IM뱅크 하양점 뒤편", "region1": "경상북도", "region2": "경산시", "region3": "하양읍", "zone_id": "22982", "zone_name": "IM뱅크 하양점 뒤편"}, {"address": "경북 경산시 중산동 633 경산 더원빌딩", "car_count": "1", "imaginary": "0", "is_d2d_car_exportable": "ABLE", "lat": "35.829537", "lng": "128.719948", "parking_name": "경산 더원빌딩", "region1": "경상북도", "region2": "경산시", "region3": "중산동", "zone_id": "11336", "zone_name": "경산 더원빌딩"}, {"address": "경북 경산시 사동 636-5", "car_count": "1", "imaginary": "0", "is_d2d_car_exportable": "ABLE", "lat": "35.816399", "lng": "128.761384", "parking_name": "경산 법원 뒤편", "region1": "경상북도", "region2": "경산시", "region3": "사동", "zone_id": "22618", "zone_name": "경산 법원 뒤편"}, {"address": "경북 경산시 중방동 849-19", "car_count": "4", "imaginary": "0", "is_d2d_car_exportable": "ABLE", "lat": "35.826042", "lng": "128.736252", "parking_name": "아해유료주차장", "region1": "경상북도", "region2": "경산시", "region3": "중방동", "zone_id": "4159", "zone_name": "경산시외버스터미널(KB국민은행 경산지점 뒤편)"}, {"address": "경북 경산시 사정동 71-15 쏘카 전용주차장", "car_count": "8", "imaginary": "3", "is_d2d_car_exportable": "ABLE", "lat": "35.818802", "lng": "128.728763", "parking_name": "경산역 앞(KTX)", "region1": "경상북도", "region2": "경산시", "region3": "사정동", "zone_id": "8822", "zone_name": "경산역 앞(KTX)"}, {"address": "경북 경산시 중방동 880-5", "car_count": "1", "imaginary": "0", "is_d2d_car_exportable": "ABLE", "lat": "35.823344", "lng": "128.737924", "parking_name": "경산오거리", "region1": "경상북도", "region2": "경산시", "region3": "중방동", "zone_id": "22561", "zone_name": "경산오거리"}, {"address": "경북 경산시 하양읍 부호리 33 경일대학교", "car_count": "1", "imaginary": "0", "is_d2d_car_exportable": "ABLE", "lat": "35.90765", "lng": "128.800865", "parking_name": "경일대학교", "region1": "경상북도", "region2": "경산시", "region3": "하양읍", "zone_id": "23025", "zone_name": "경일대학교"}, {"address": "경북 경산시 중방동 832-1 기아오토큐 주차장", "car_count": "1", "imaginary": "0", "is_d2d_car_exportable": "ABLE", "lat": "35.829904", "lng": "128.740228", "parking_name": "남매네거리 앞", "region1": "경상북도", "region2": "경산시", "region3": "중방동", "zone_id": "15483", "zone_name": "남매네거리 앞"}, {"address": "경북 경산시 진량읍 평사리 422-1 그린하우스", "car_count": "5", "imaginary": "0", "is_d2d_car_exportable": "ABLE", "lat": "35.89557", "lng": "128.8523", "parking_name": "대구대학교 정문", "region1": "경상북도", "region2": "경산시", "region3": "진량읍", "zone_id": "22984", "zone_name": "대구대학교 정문"}, {"address": "경북 경산시 백천동 573-1", "car_count": "1", "imaginary": "0", "is_d2d_car_exportable": "ABLE", "lat": "35.803665", "lng": "128.73822", "parking_name": "백천동 먹자골목", "region1": "경상북도", "region2": "경산시", "region3": "백천동", "zone_id": "4352", "zone_name": "백천동 먹자골목"}, {"address": "경북 경산시 조영동 316", "car_count": "7", "imaginary": "0", "is_d2d_car_exportable": "ABLE", "lat": "35.837139", "lng": "128.755569", "parking_name": "영남대 박물관 앞", "region1": "경상북도", "region2": "경산시", "region3": "조영동", "zone_id": "2448", "zone_name": "영남대 박물관 앞"}, {"address": "경북 경산시 조영동 278-4", "car_count": "5", "imaginary": "0", "is_d2d_car_exportable": "ABLE", "lat": "35.839291", "lng": "128.75473", "parking_name": "영남대 원룸촌", "region1": "경상북도", "region2": "경산시", "region3": "조영동", "zone_id": "3984", "zone_name": "영남대 원룸촌"}, {"address": "경북 경산시 옥산동 725-1 지하1층", "car_count": "2", "imaginary": "0", "is_d2d_car_exportable": "ABLE", "lat": "35.828541", "lng": "128.726712", "parking_name": "옥산2지구", "region1": "경상북도", "region2": "경산시", "region3": "옥산동", "zone_id": "14693", "zone_name": "옥산2지구"}, {"address": "경북 경산시 계양동 734", "car_count": "1", "imaginary": "0", "is_d2d_car_exportable": "ABLE", "lat": "35.832945", "lng": "128.742183", "parking_name": "임당역 4번출구", "region1": "경상북도", "region2": "경산시", "region3": "계양동", "zone_id": "9309", "zone_name": "임당역 4번출구"}, {"address": "경북 경산시 중산동 27", "car_count": "1", "imaginary": "0", "is_d2d_car_exportable": "ABLE", "lat": "35.832811", "lng": "128.72588", "parking_name": "정평역 2번출구 뒤편", "region1": "경상북도", "region2": "경산시", "region3": "중산동", "zone_id": "19009", "zone_name": "정평역 2번출구 뒤편"}, {"address": "경북 경산시 하양읍 금락리 133-5", "car_count": "1", "imaginary": "0", "is_d2d_car_exportable": "ABLE", "lat": "35.913516", "lng": "128.819509", "parking_name": "하양역 대학로", "region1": "경상북도", "region2": "경산시", "region3": "하양읍", "zone_id": "23116", "zone_name": "하양역 대학로"}, {"address": "경북 경산시 하양읍 금락리 116-33 하이마트 옥상주차장", "car_count": "5", "imaginary": "0", "is_d2d_car_exportable": "ABLE", "lat": "35.910089", "lng": "128.816954", "parking_name": "하양역 맞은편", "region1": "경상북도", "region2": "경산시", "region3": "하양읍", "zone_id": "18621", "zone_name": "하양역 맞은편"}, {"address": "경북 경산시 하양읍 금락리 116-276 하양사우나 주차장", "car_count": "6", "imaginary": "0", "is_d2d_car_exportable": "ABLE", "lat": "35.91045", "lng": "128.816368", "parking_name": "하양사우나 주차장", "region1": "경상북도", "region2": "경산시", "region3": "하양읍", "zone_id": "12505", "zone_name": "하양역 앞"}, {"address": "경북 경산시 하양읍 서사리 286 경산하양 우미린 에코포레 지하주차장", "car_count": "1", "imaginary": "0", "is_d2d_car_exportable": "ABLE", "lat": "35.919119", "lng": "128.807192", "parking_name": "하양우미린에코포레", "region1": "경상북도", "region2": "경산시", "region3": "하양읍", "zone_id": "17003", "zone_name": "하양우미린에코포레"}, {"address": "경북 경주시 노동동 140-9 신한은행 천년유료주차장", "car_count": "1", "imaginary": "0", "is_d2d_car_exportable": "ABLE", "lat": "35.843948", "lng": "129.213129", "parking_name": "경주 KT삼거리 옆", "region1": "경상북도", "region2": "경주시", "region3": "노동동", "zone_id": "14991", "zone_name": "경주 KT삼거리 옆"}, {"address": "경주시 노동동 191", "car_count": "1", "imaginary": "0", "is_d2d_car_exportable": "ABLE", "lat": "35.843761", "lng": "129.210297", "parking_name": "경주 법원네거리", "region1": "경상북도", "region2": "경주시", "region3": "노동동", "zone_id": "3329", "zone_name": "경주 법원네거리"}, {"address": "경북 경주시 동천동 987-7", "car_count": "1", "imaginary": "0", "is_d2d_car_exportable": "ABLE", "lat": "35.859682", "lng": "129.224977", "parking_name": "경주 보건소 옆", "region1": "경상북도", "region2": "경주시", "region3": "동천동", "zone_id": "3163", "zone_name": "경주 보건소 옆"}, {"address": "경북 경주시 노동동 120-11", "car_count": "4", "imaginary": "0", "is_d2d_car_exportable": "ABLE", "lat": "35.842669", "lng": "129.21067", "parking_name": "경주 봉황대 앞", "region1": "경상북도", "region2": "경주시", "region3": "노동동", "zone_id": "14859", "zone_name": "경주 봉황대 앞"}, {"address": "경북 경주시 노서동 160-2", "car_count": "2", "imaginary": "0", "is_d2d_car_exportable": "ABLE", "lat": "35.839863", "lng": "129.202369", "parking_name": "경주 시외버스터미널 앞", "region1": "경상북도", "region2": "경주시", "region3": "노서동", "zone_id": "23111", "zone_name": "경주 시외버스터미널 앞"}, {"address": "경북 경주시 황오동 138-2", "car_count": "1", "imaginary": "0", "is_d2d_car_exportable": "ABLE", "lat": "35.842144", "lng": "129.217743", "parking_name": "경주역 게스트하우스 주차장", "region1": "경상북도", "region2": "경주시", "region3": "황오동", "zone_id": "4884", "zone_name": "경주 팔우정삼거리"}, {"address": "경북 경주시 황성동 550-2", "car_count": "1", "imaginary": "0", "is_d2d_car_exportable": "ABLE", "lat": "35.869094", "lng": "129.215317", "parking_name": "빅세일마트 황성점", "region1": "경상북도", "region2": "경주시", "region3": "황성동", "zone_id": "14650", "zone_name": "경주 황성성당 앞"}, {"address": "경북 경주시 동천동 733-349", "car_count": "1", "imaginary": "0", "is_d2d_car_exportable": "ABLE", "lat": "35.850521", "lng": "129.226286", "parking_name": "경주시 동천동", "region1": "경상북도", "region2": "경주시", "region3": "동천동", "zone_id": "17848", "zone_name": "경주시 동천동"}, {"address": "경북 경주시 성건동 374-40 성건동 공영주차장", "car_count": "1", "imaginary": "0", "is_d2d_car_exportable": "ABLE", "lat": "35.842409", "lng": "129.203475", "parking_name": "성건동 공영주차장", "region1": "경상북도", "region2": "경주시", "region3": "성건동", "zone_id": "11584", "zone_name": "경주시 성건동"}, {"address": "경북 경주시 노서동 171-3", "car_count": "22", "imaginary": "3", "is_d2d_car_exportable": "ABLE", "lat": "35.839486", "lng": "129.204271", "parking_name": "경주시외버스터미널", "region1": "경상북도", "region2": "경주시", "region3": "노서동", "zone_id": "15705", "zone_name": "경주시외버스터미널"}, {"address": "경북 경주시 노서동 132-41", "car_count": "7", "imaginary": "0", "is_d2d_car_exportable": "ABLE", "lat": "35.840924", "lng": "129.204976", "parking_name": "상아카페 옆 주차장", "region1": "경상북도", "region2": "경주시", "region3": "노서동", "zone_id": "10323", "zone_name": "경주시외버스터미널 옆"}, {"address": "경북 경주시 동천동 784-5", "car_count": "1", "imaginary": "0", "is_d2d_car_exportable": "ABLE", "lat": "35.856255", "lng": "129.226429", "parking_name": "서광자동차랜드 주차장", "region1": "경상북도", "region2": "경주시", "region3": "동천동", "zone_id": "7636", "zone_name": "경주시청 뒤편"}, {"address": "경북 경주시 건천읍 화천리 1033 신경주KTX역사", "car_count": "62", "imaginary": "0", "is_d2d_car_exportable": "UNABLE", "lat": "35.797316", "lng": "129.140408", "parking_name": "경주역(KTX)", "region1": "경상북도", "region2": "경주시", "region3": "건천읍", "zone_id": "9866", "zone_name": "경주역(KTX)"}, {"address": "경북 경주시 건천읍 화천리 2577-16", "car_count": "155", "imaginary": "0", "is_d2d_car_exportable": "ABLE", "lat": "35.798122", "lng": "129.137434", "parking_name": "경주역(KTX) 제일고속철", "region1": "경상북도", "region2": "경주시", "region3": "건천읍", "zone_id": "12084", "zone_name": "경주역(KTX) 제일고속철"}, {"address": "경북 경주시 황성동 475-3 도로앞주차장", "car_count": "4", "imaginary": "0", "is_d2d_car_exportable": "ABLE", "lat": "35.864507", "lng": "129.215239", "parking_name": "계림중학교 뒤편", "region1": "경상북도", "region2": "경주시", "region3": "황성동", "zone_id": "14631", "zone_name": "계림중학교 뒤편"}, {"address": "경북 경주시 서부동 4-1 허브주차장", "car_count": "1", "imaginary": "0", "is_d2d_car_exportable": "ABLE", "lat": "35.849433", "lng": "129.207377", "parking_name": "성건주민센터 네거리", "region1": "경상북도", "region2": "경주시", "region3": "서부동", "zone_id": "13295", "zone_name": "성건주민센터 네거리"}, {"address": "경북 경주시 석장동 875-1 이마트24 경주동국대", "car_count": "7", "imaginary": "0", "is_d2d_car_exportable": "ABLE", "lat": "35.86114", "lng": "129.191028", "parking_name": "이마트24 경주동국대", "region1": "경상북도", "region2": "경주시", "region3": "석장동", "zone_id": "20553", "zone_name": "이마트24 경주동국대"}, {"address": "경북 경주시 천군동 206-15 보문주유소,보문충전소", "car_count": "4", "imaginary": "5", "is_d2d_car_exportable": "ABLE", "lat": "35.835343", "lng": "129.286358", "parking_name": "케이케이 보문주유소", "region1": "경상북도", "region2": "경주시", "region3": "천군동", "zone_id": "15706", "zone_name": "케이케이 보문주유소"}, {"address": "경북 경주시 황성동 475-7 상승빌뒤편 주차장", "car_count": "2", "imaginary": "0", "is_d2d_car_exportable": "ABLE", "lat": "35.864359", "lng": "129.215808", "parking_name": "황성주공1차 뒤편", "region1": "경상북도", "region2": "경주시", "region3": "황성동", "zone_id": "14630", "zone_name": "황성주공1차 뒤편"}, {"address": "경북 구미시 진평동 20-7", "car_count": "1", "imaginary": "0", "is_d2d_car_exportable": "ABLE", "lat": "36.096111", "lng": "128.427845", "parking_name": "GS25 구미진평금강점", "region1": "경상북도", "region2": "구미시", "region3": "진평동", "zone_id": "8873", "zone_name": "GS25 구미진평금강점"}, {"address": "경북 구미시 옥계동 962 거상빌딩 옥외주차장", "car_count": "3", "imaginary": "0", "is_d2d_car_exportable": "ABLE", "lat": "36.13592", "lng": "128.416196", "parking_name": "LG베스트샵 옥계점 옆", "region1": "경상북도", "region2": "구미시", "region3": "옥계동", "zone_id": "13223", "zone_name": "LG베스트샵 옥계점 옆"}, {"address": "경상북도 구미시 황상동 305-5", "car_count": "2", "imaginary": "0", "is_d2d_car_exportable": "ABLE", "lat": "36.108784", "lng": "128.419693", "parking_name": "구미 인동 아울렛거리", "region1": "경상북도", "region2": "구미시", "region3": "황상동", "zone_id": "1534", "zone_name": "구미 인동 아울렛거리"}, {"address": "경북 구미시 인의동 840-3", "car_count": "2", "imaginary": "0", "is_d2d_car_exportable": "ABLE", "lat": "36.103832", "lng": "128.422327", "parking_name": "구미 인동 육교 옆", "region1": "경상북도", "region2": "구미시", "region3": "인의동", "zone_id": "20507", "zone_name": "구미 인동 육교 옆"}, {"address": "경북 구미시 진평동 107-1", "car_count": "13", "imaginary": "0", "is_d2d_car_exportable": "ABLE", "lat": "36.095292", "lng": "128.425921", "parking_name": "구미 진평동 원룸촌", "region1": "경상북도", "region2": "구미시", "region3": "진평동", "zone_id": "6689", "zone_name": "구미 진평동 원룸촌"}, {"address": "경북 구미시 옥계동 840", "car_count": "2", "imaginary": "0", "is_d2d_car_exportable": "ABLE", "lat": "36.137291", "lng": "128.419647", "parking_name": "경복프라자 주차장", "region1": "경상북도", "region2": "구미시", "region3": "옥계동", "zone_id": "2776", "zone_name": "구미 카페베네 옥계점"}, {"address": "경북 구미시 형곡동 187-3", "car_count": "1", "imaginary": "0", "is_d2d_car_exportable": "ABLE", "lat": "36.108456", "lng": "128.338974", "parking_name": "드래곤 정비 주차장", "region1": "경상북도", "region2": "구미시", "region3": "형곡동", "zone_id": "5602", "zone_name": "구미시 형곡동"}, {"address": "경북 구미시 원평동 1041-15 지브이주차장", "car_count": "2", "imaginary": "0", "is_d2d_car_exportable": "ABLE", "lat": "36.123574", "lng": "128.344321", "parking_name": "지브이(GV)주차장", "region1": "경상북도", "region2": "구미시", "region3": "원평동", "zone_id": "12558", "zone_name": "구미시청 건너편"}, {"address": "경북 구미시 원평동 1008-131", "car_count": "6", "imaginary": "0", "is_d2d_car_exportable": "ABLE", "lat": "36.129375", "lng": "128.32959", "parking_name": "역전 유료주차장", "region1": "경상북도", "region2": "구미시", "region3": "원평동", "zone_id": "6384", "zone_name": "구미역 옆"}, {"address": "경북 구미시 송원동로 72", "car_count": "10", "imaginary": "3", "is_d2d_car_exportable": "ABLE", "lat": "36.123037", "lng": "128.351628", "parking_name": "구미종합터미널", "region1": "경상북도", "region2": "구미시", "region3": "원평동", "zone_id": "6989", "zone_name": "구미종합터미널"}, {"address": "경북 구미시 거의동 450-7 바르샤바 바르샤바 빌라 주차장", "car_count": "2", "imaginary": "0", "is_d2d_car_exportable": "ABLE", "lat": "36.138375", "lng": "128.396989", "parking_name": "금오공대 원룸촌", "region1": "경상북도", "region2": "구미시", "region3": "거의동", "zone_id": "15449", "zone_name": "금오공대 원룸촌"}, {"address": "경북 구미시 원평동 1032-5 케이타워 주차장", "car_count": "1", "imaginary": "0", "is_d2d_car_exportable": "ABLE", "lat": "36.12564", "lng": "128.340869", "parking_name": "금오시장", "region1": "경상북도", "region2": "구미시", "region3": "원평동", "zone_id": "12739", "zone_name": "금오시장"}, {"address": "경북 구미시 인의동 847-6 하이마트", "car_count": "3", "imaginary": "0", "is_d2d_car_exportable": "ABLE", "lat": "36.101269", "lng": "128.424675", "parking_name": "롯데 하이마트 인동점", "region1": "경상북도", "region2": "구미시", "region3": "인의동", "zone_id": "16651", "zone_name": "롯데 하이마트 인동점"}, {"address": "경북 구미시 공단동 257-16", "car_count": "1", "imaginary": "0", "is_d2d_car_exportable": "ABLE", "lat": "36.103077", "lng": "128.386283", "parking_name": "롯데시네마 구미공단 건너편", "region1": "경상북도", "region2": "구미시", "region3": "공단동", "zone_id": "22810", "zone_name": "롯데시네마 구미공단 건너편"}, {"address": "경북 구미시 인의동 992-19", "car_count": "1", "imaginary": "0", "is_d2d_car_exportable": "ABLE", "lat": "36.096754", "lng": "128.432503", "parking_name": "맥도날드 구미인동점 뒤편", "region1": "경상북도", "region2": "구미시", "region3": "인의동", "zone_id": "19526", "zone_name": "맥도날드 구미인동점 뒤편"}, {"address": "경북 구미시 봉곡동 290-1 봉곡조개마당주차장", "car_count": "5", "imaginary": "0", "is_d2d_car_exportable": "ABLE", "lat": "36.150647", "lng": "128.31269", "parking_name": "봉곡테마공원 앞", "region1": "경상북도", "region2": "구미시", "region3": "봉곡동", "zone_id": "17824", "zone_name": "봉곡테마공원 앞"}, {"address": "경북 구미시 상모동 49-3 상모새마을금고", "car_count": "3", "imaginary": "0", "is_d2d_car_exportable": "ABLE", "lat": "36.089659", "lng": "128.356356", "parking_name": "상모 새마을금고 본점 주차장", "region1": "경상북도", "region2": "구미시", "region3": "상모동", "zone_id": "13125", "zone_name": "상모새마을금고"}, {"address": "경북 구미시 옥계동 823-1", "car_count": "1", "imaginary": "0", "is_d2d_car_exportable": "ABLE", "lat": "36.135689", "lng": "128.419797", "parking_name": "소낙스 구미옥계점", "region1": "경상북도", "region2": "구미시", "region3": "옥계동", "zone_id": "17243", "zone_name": "소낙스 구미옥계점"}, {"address": "경북 구미시 임수동 92-28", "car_count": "1", "imaginary": "0", "is_d2d_car_exportable": "ABLE", "lat": "36.106378", "lng": "128.405349", "parking_name": "이마트 동구미점", "region1": "경상북도", "region2": "구미시", "region3": "임수동", "zone_id": "20565", "zone_name": "이마트 동구미점"}, {"address": "경북 구미시 인의동 701-8 새천년사우나 뒤편 주차장", "car_count": "3", "imaginary": "0", "is_d2d_car_exportable": "ABLE", "lat": "36.097554", "lng": "128.42912", "parking_name": "새천년사우나스포츠", "region1": "경상북도", "region2": "구미시", "region3": "인의동", "zone_id": "13764", "zone_name": "인동 새천년사우나"}, {"address": "경북 구미시 인의동 576-1 구미지게차 주차장", "car_count": "2", "imaginary": "0", "is_d2d_car_exportable": "ABLE", "lat": "36.104676", "lng": "128.424293", "parking_name": "옥산유료주차장", "region1": "경상북도", "region2": "구미시", "region3": "인의동", "zone_id": "14005", "zone_name": "인동서한이다음아파트 옆"}, {"address": "경북 김천시 율곡동 793 지하1층", "car_count": "1", "imaginary": "0", "is_d2d_car_exportable": "ABLE", "lat": "36.116759", "lng": "128.182599", "parking_name": "김천 구미역(KTX) 드림스퀘어", "region1": "경상북도", "region2": "김천시", "region3": "율곡동", "zone_id": "20026", "zone_name": "김천 구미역(KTX) 드림스퀘어"}, {"address": "경북 김천시 율곡동 779", "car_count": "2", "imaginary": "0", "is_d2d_car_exportable": "ABLE", "lat": "36.117131", "lng": "128.180428", "parking_name": "김천 구미역(KTX) 신남라인", "region1": "경상북도", "region2": "김천시", "region3": "율곡동", "zone_id": "10416", "zone_name": "김천 구미역(KTX) 신남라인"}, {"address": "경북 김천시 율곡동 814", "car_count": "16", "imaginary": "3", "is_d2d_car_exportable": "ABLE", "lat": "36.114445", "lng": "128.181721", "parking_name": "김천 구미역(KTX) 앞", "region1": "경상북도", "region2": "김천시", "region3": "율곡동", "zone_id": "6580", "zone_name": "김천 구미역(KTX) 앞"}, {"address": "경북 김천시 율곡동 811 영무메트로 오피스텔", "car_count": "5", "imaginary": "0", "is_d2d_car_exportable": "ABLE", "lat": "36.114903", "lng": "128.180719", "parking_name": "김천영무메트로오피스텔", "region1": "경상북도", "region2": "김천시", "region3": "율곡동", "zone_id": "14862", "zone_name": "김천 구미역(KTX) 영무메트로"}, {"address": "경북 김천시 율곡동 799", "car_count": "21", "imaginary": "3", "is_d2d_car_exportable": "ABLE", "lat": "36.11478", "lng": "128.179477", "parking_name": "김천 구미역(KTX) 옆", "region1": "경상북도", "region2": "김천시", "region3": "율곡동", "zone_id": "6539", "zone_name": "김천 구미역(KTX) 옆"}, {"address": "경북 김천시 율곡동 795 (주)지석엔지니어링", "car_count": "1", "imaginary": "0", "is_d2d_car_exportable": "ABLE", "lat": "36.116392", "lng": "128.182345", "parking_name": "김천 구미역(KTX) 탑텐 옆", "region1": "경상북도", "region2": "김천시", "region3": "율곡동", "zone_id": "23106", "zone_name": "김천 구미역(KTX) 탑텐 옆"}, {"address": "경북 김천시 율곡동 652 율곡타워", "car_count": "2", "imaginary": "0", "is_d2d_car_exportable": "ABLE", "lat": "36.122277", "lng": "128.18802", "parking_name": "율곡타워 주차장", "region1": "경상북도", "region2": "김천시", "region3": "율곡동", "zone_id": "19177", "zone_name": "김천 율곡초등학교 앞"}, {"address": "경북 김천시 율곡동 816 율곡스퀘어 8", "car_count": "2", "imaginary": "0", "is_d2d_car_exportable": "ABLE", "lat": "36.114079", "lng": "128.182186", "parking_name": "김천구미역(KTX) 율곡스퀘어8", "region1": "경상북도", "region2": "김천시", "region3": "율곡동", "zone_id": "22429", "zone_name": "김천구미역(KTX) 율곡스퀘어8"}, {"address": "경북 김천시 삼락동 754-1 김천대학교", "car_count": "2", "imaginary": "0", "is_d2d_car_exportable": "ABLE", "lat": "36.137305", "lng": "128.080927", "parking_name": "김천대학교 주차장", "region1": "경상북도", "region2": "김천시", "region3": "삼락동", "zone_id": "16106", "zone_name": "김천대학교"}, {"address": "경북 김천시 평화동 300-6", "car_count": "4", "imaginary": "0", "is_d2d_car_exportable": "ABLE", "lat": "36.122663", "lng": "128.114103", "parking_name": "김천역 앞", "region1": "경상북도", "region2": "김천시", "region3": "평화동", "zone_id": "20482", "zone_name": "김천역 앞"}, {"address": "경북 김천시 남산동 50-2", "car_count": "1", "imaginary": "0", "is_d2d_car_exportable": "ABLE", "lat": "36.120802", "lng": "128.117739", "parking_name": "김천역 옆", "region1": "경상북도", "region2": "김천시", "region3": "남산동", "zone_id": "21327", "zone_name": "김천역 옆"}, {"address": "경북 김천시 신음동 470", "car_count": "1", "imaginary": "0", "is_d2d_car_exportable": "ABLE", "lat": "36.136335", "lng": "128.117489", "parking_name": "롯데마트 김천점", "region1": "경상북도", "region2": "김천시", "region3": "신음동", "zone_id": "10407", "zone_name": "롯데마트 김천점"}, {"address": "대구 남구 대명동 1803-10 대명2동공영주차장 대명2동 공영주차장", "car_count": "1", "imaginary": "0", "is_d2d_car_exportable": "ABLE", "lat": "35.854996", "lng": "128.589133", "parking_name": "경북여자상업고등학교 옆", "region1": "대구광역시", "region2": "남구", "region3": "대명동", "zone_id": "14559", "zone_name": "경북여자상업고등학교 옆"}, {"address": "대구 남구 봉덕동 544-2", "car_count": "1", "imaginary": "0", "is_d2d_car_exportable": "ABLE", "lat": "35.844492", "lng": "128.594164", "parking_name": "나이스마트 봉덕점 옆 주차장", "region1": "대구광역시", "region2": "남구", "region3": "봉덕동", "zone_id": "16022", "zone_name": "나이스마트 봉덕점 옆"}, {"address": "대구 남구 대명동 1099-3", "car_count": "1", "imaginary": "0", "is_d2d_car_exportable": "ABLE", "lat": "35.838744", "lng": "128.563819", "parking_name": "남대구세무서 건너편", "region1": "대구광역시", "region2": "남구", "region3": "대명동", "zone_id": "15991", "zone_name": "남대구세무서 건너편"}, {"address": "대구 남구 대명동 2014-62 영선시장 공영주차장", "car_count": "1", "imaginary": "0", "is_d2d_car_exportable": "ABLE", "lat": "35.852544", "lng": "128.593619", "parking_name": "대구 교대역 3번출구", "region1": "대구광역시", "region2": "남구", "region3": "대명동", "zone_id": "22988", "zone_name": "대구 교대역 3번출구"}, {"address": "대구 남구 대명동 1824-1 이랜드 PEER 대명 2단지 2단지 지하3층 주차장", "car_count": "1", "imaginary": "0", "is_d2d_car_exportable": "ABLE", "lat": "35.856295", "lng": "128.586405", "parking_name": "대구 남산역(PEER대명2단지)", "region1": "대구광역시", "region2": "남구", "region3": "대명동", "zone_id": "20399", "zone_name": "대구 남산역(PEER대명2단지)"}, {"address": "대구 남구 대명동 2247-1", "car_count": "1", "imaginary": "0", "is_d2d_car_exportable": "ABLE", "lat": "35.855383", "lng": "128.578905", "parking_name": "대구 대명동 계대", "region1": "대구광역시", "region2": "남구", "region3": "대명동", "zone_id": "22996", "zone_name": "대구 대명동 계대"}, {"address": "대구 남구 대명동 1922-13", "car_count": "1", "imaginary": "0", "is_d2d_car_exportable": "ABLE", "lat": "35.851691", "lng": "128.582641", "parking_name": "대구 삼각로터리", "region1": "대구광역시", "region2": "남구", "region3": "대명동", "zone_id": "18727", "zone_name": "대구 삼각로터리"}, {"address": "대구 남구 대명동 1720-11", "car_count": "1", "imaginary": "0", "is_d2d_car_exportable": "ABLE", "lat": "35.84563", "lng": "128.579772", "parking_name": "앞산 비즈니스호텔 건너편 주차장", "region1": "대구광역시", "region2": "남구", "region3": "대명동", "zone_id": "10339", "zone_name": "대구 앞산호텔 앞"}, {"address": "대구 남구 대명동 3042-11", "car_count": "1", "imaginary": "0", "is_d2d_car_exportable": "ABLE", "lat": "35.848428", "lng": "128.569738", "parking_name": "삼양카센터 주차장", "region1": "대구광역시", "region2": "남구", "region3": "대명동", "zone_id": "14672", "zone_name": "대구 종합복지회관 건너"}, {"address": "대구 남구 대명동 982-7", "car_count": "1", "imaginary": "0", "is_d2d_car_exportable": "UNABLE", "lat": "35.836956", "lng": "128.568436", "parking_name": "대구할인마트 옆", "region1": "대구광역시", "region2": "남구", "region3": "대명동", "zone_id": "5358", "zone_name": "대구할인마트 옆"}, {"address": "대구 남구 대명동 1822-6 골드캐슬 빌라", "car_count": "1", "imaginary": "0", "is_d2d_car_exportable": "ABLE", "lat": "35.855555", "lng": "128.587019", "parking_name": "대명2동 행정복지센터 앞", "region1": "대구광역시", "region2": "남구", "region3": "대명동", "zone_id": "17684", "zone_name": "대명2동 행정복지센터 앞"}, {"address": "대구 남구 대명동 2277-2 대명시장공영주차장 대명시장 공영주차장", "car_count": "1", "imaginary": "0", "is_d2d_car_exportable": "ABLE", "lat": "35.858293", "lng": "128.576514", "parking_name": "대명시장 공영주차장", "region1": "대구광역시", "region2": "남구", "region3": "대명동", "zone_id": "11942", "zone_name": "대명시장 공영주차장"}, {"address": "대구 남구 대명동 1054-2 천지원휘트니스&사우나 주차장", "car_count": "1", "imaginary": "0", "is_d2d_car_exportable": "ABLE", "lat": "35.838971", "lng": "128.566311", "parking_name": "대명역 3번출구", "region1": "대구광역시", "region2": "남구", "region3": "대명동", "zone_id": "14049", "zone_name": "대명역 3번출구"}, {"address": "대구 남구 봉덕동 632-22 푸푸훠궈", "car_count": "2", "imaginary": "0", "is_d2d_car_exportable": "ABLE", "lat": "35.844544", "lng": "128.597159", "parking_name": "봉덕1동우체국 건너편", "region1": "대구광역시", "region2": "남구", "region3": "봉덕동", "zone_id": "13096", "zone_name": "봉덕1동우체국 건너편"}, {"address": "대구 남구 대명동 2152-5", "car_count": "1", "imaginary": "0", "is_d2d_car_exportable": "ABLE", "lat": "35.850952", "lng": "128.578873", "parking_name": "심인고등학교 옆", "region1": "대구광역시", "region2": "남구", "region3": "대명동", "zone_id": "4270", "zone_name": "심인고등학교 옆"}, {"address": "대구 남구 대명동 1638-2", "car_count": "2", "imaginary": "0", "is_d2d_car_exportable": "ABLE", "lat": "35.839741", "lng": "128.572917", "parking_name": "안지랑역 1번출구", "region1": "대구광역시", "region2": "남구", "region3": "대명동", "zone_id": "12624", "zone_name": "안지랑역 1번출구"}, {"address": "대구 남구 대명동 501-3 앞산카페거리 공영주차장", "car_count": "1", "imaginary": "0", "is_d2d_car_exportable": "ABLE", "lat": "35.836406", "lng": "128.579499", "parking_name": "앞산카페거리 공영주차장", "region1": "대구광역시", "region2": "남구", "region3": "대명동", "zone_id": "11610", "zone_name": "앞산카페거리"}, {"address": "대구 남구 대명동 1726-26", "car_count": "1", "imaginary": "0", "is_d2d_car_exportable": "ABLE", "lat": "35.848166", "lng": "128.580033", "parking_name": "영남이공대 정문", "region1": "대구광역시", "region2": "남구", "region3": "대명동", "zone_id": "19109", "zone_name": "영남이공대 정문"}, {"address": "대구 남구 대명동 145-2", "car_count": "2", "imaginary": "0", "is_d2d_car_exportable": "ABLE", "lat": "35.84406", "lng": "128.588608", "parking_name": "영대병원역 2번출구", "region1": "대구광역시", "region2": "남구", "region3": "대명동", "zone_id": "22971", "zone_name": "영대병원역 2번출구"}, {"address": "대구 달서구 감삼동 102-8 유니클로 감삼점", "car_count": "1", "imaginary": "0", "is_d2d_car_exportable": "ABLE", "lat": "35.852856", "lng": "128.545569", "parking_name": "감삼역 2번출구", "region1": "대구광역시", "region2": "달서구", "region3": "감삼동", "zone_id": "13569", "zone_name": "감삼역 2번출구"}, {"address": "대구 달서구 호산동 168-1", "car_count": "2", "imaginary": "0", "is_d2d_car_exportable": "ABLE", "lat": "35.854143", "lng": "128.477383", "parking_name": "봄날에 주차장", "region1": "대구광역시", "region2": "달서구", "region3": "호산동", "zone_id": "3654", "zone_name": "강창역 1번출구"}, {"address": "대구 달서구 호산동 357-66", "car_count": "1", "imaginary": "0", "is_d2d_car_exportable": "ABLE", "lat": "35.848908", "lng": "128.485983", "parking_name": "도움모터스 주차장", "region1": "대구광역시", "region2": "달서구", "region3": "호산동", "zone_id": "15003", "zone_name": "계명대 호산공원 옆"}, {"address": "대구 달서구 신당동 1320-39", "car_count": "2", "imaginary": "0", "is_d2d_car_exportable": "ABLE", "lat": "35.849599", "lng": "128.489142", "parking_name": "신당동 지식산업센터", "region1": "대구광역시", "region2": "달서구", "region3": "신당동", "zone_id": "16943", "zone_name": "계명대역 2번출구"}, {"address": "대구 달서구 두류동 87-48", "car_count": "3", "imaginary": "0", "is_d2d_car_exportable": "ABLE", "lat": "35.859583", "lng": "128.565679", "parking_name": "내당역 3번출구", "region1": "대구광역시", "region2": "달서구", "region3": "두류동", "zone_id": "7458", "zone_name": "내당역 3번출구"}, {"address": "대구 달서구 도원동 1433 다이소 대곡지구점 주차장", "car_count": "2", "imaginary": "0", "is_d2d_car_exportable": "ABLE", "lat": "35.807754", "lng": "128.534058", "parking_name": "대곡지구유료주차장", "region1": "대구광역시", "region2": "달서구", "region3": "도원동", "zone_id": "8104", "zone_name": "다이소 대곡지구점"}, {"address": "대구 달서구 감삼동 69-1", "car_count": "1", "imaginary": "0", "is_d2d_car_exportable": "ABLE", "lat": "35.852306", "lng": "128.541518", "parking_name": "대구 감삼동", "region1": "대구광역시", "region2": "달서구", "region3": "감삼동", "zone_id": "22891", "zone_name": "대구 감삼동"}, {"address": "대구 달서구 두류동 617-2", "car_count": "1", "imaginary": "0", "is_d2d_car_exportable": "ABLE", "lat": "35.85335", "lng": "128.554652", "parking_name": "대구 두류공원 앞", "region1": "대구광역시", "region2": "달서구", "region3": "두류동", "zone_id": "17453", "zone_name": "대구 두류공원 앞"}, {"address": "대구 달서구 본동 747 빌리브 클라쎄", "car_count": "1", "imaginary": "0", "is_d2d_car_exportable": "ABLE", "lat": "35.836416", "lng": "128.536341", "parking_name": "대구 본리네거리", "region1": "대구광역시", "region2": "달서구", "region3": "본동", "zone_id": "22989", "zone_name": "대구 본리네거리"}, {"address": "대구 달서구 감삼동 702", "car_count": "1", "imaginary": "0", "is_d2d_car_exportable": "ABLE", "lat": "35.849436", "lng": "128.534095", "parking_name": "삼정브리티시용산몰상가 부설주차장", "region1": "대구광역시", "region2": "달서구", "region3": "감상동", "zone_id": "7744", "zone_name": "대구 삼정브리티시용산"}, {"address": "대구 달서구 이곡동 1325", "car_count": "1", "imaginary": "0", "is_d2d_car_exportable": "ABLE", "lat": "35.86079", "lng": "128.505865", "parking_name": "대구 성서이곡운동장", "region1": "대구광역시", "region2": "달서구", "region3": "이곡동", "zone_id": "22987", "zone_name": "대구 성서이곡운동장"}, {"address": "대구 달서구 장기동 157", "car_count": "1", "imaginary": "0", "is_d2d_car_exportable": "ABLE", "lat": "35.850045", "lng": "128.516356", "parking_name": "대구 이곡역 3번출구", "region1": "대구광역시", "region2": "달서구", "region3": "장기동", "zone_id": "23114", "zone_name": "대구 이곡역 3번출구"}, {"address": "대구 달서구 본리동 145-1 현대볼링장 주차장", "car_count": "3", "imaginary": "0", "is_d2d_car_exportable": "ABLE", "lat": "35.840356", "lng": "128.543539", "parking_name": "대구 제일여상 앞", "region1": "대구광역시", "region2": "달서구", "region3": "본리동", "zone_id": "19607", "zone_name": "대구 제일여상 앞"}, {"address": "대구 달서구 월성동 1380", "car_count": "1", "imaginary": "0", "is_d2d_car_exportable": "ABLE", "lat": "35.818783", "lng": "128.52512", "parking_name": "대구시 월배", "region1": "대구광역시", "region2": "달서구", "region3": "월성동", "zone_id": "22355", "zone_name": "대구시 월배"}, {"address": "대구 달서구 상인동 129-8 대구 인덕빌딩", "car_count": "1", "imaginary": "5", "is_d2d_car_exportable": "ABLE", "lat": "35.820939", "lng": "128.532401", "parking_name": "대구 인덕빌딩", "region1": "대구광역시", "region2": "달서구", "region3": "상인동", "zone_id": "12908", "zone_name": "대구월서초등학교 앞"}, {"address": "대구 달서구 진천동 42-1", "car_count": "3", "imaginary": "0", "is_d2d_car_exportable": "ABLE", "lat": "35.817033", "lng": "128.531539", "parking_name": "대박집 월배점 주차장", "region1": "대구광역시", "region2": "달서구", "region3": "진천동", "zone_id": "5653", "zone_name": "대박집 월배점"}, {"address": "대구 달서구 두류동 147-5", "car_count": "1", "imaginary": "0", "is_d2d_car_exportable": "ABLE", "lat": "35.855562", "lng": "128.559658", "parking_name": "두류네거리(호텔대구)", "region1": "대구광역시", "region2": "달서구", "region3": "두류동", "zone_id": "20217", "zone_name": "두류네거리(호텔대구)"}, {"address": "대구 달서구 두류동 135-14", "car_count": "1", "imaginary": "0", "is_d2d_car_exportable": "ABLE", "lat": "35.858796", "lng": "128.56161", "parking_name": "두류역 16번출구", "region1": "대구광역시", "region2": "달서구", "region3": "두류동", "zone_id": "22892", "zone_name": "두류역 16번출구"}, {"address": "대구 달서구 진천동 605-2", "car_count": "2", "imaginary": "0", "is_d2d_car_exportable": "ABLE", "lat": "35.813822", "lng": "128.520864", "parking_name": "롯데 하이마트 월배점", "region1": "대구광역시", "region2": "달서구", "region3": "진천동", "zone_id": "16630", "zone_name": "롯데 하이마트 월배점"}, {"address": "대구 달서구 죽전동 278-3", "car_count": "1", "imaginary": "0", "is_d2d_car_exportable": "ABLE", "lat": "35.850954", "lng": "128.538279", "parking_name": "롯데 하이마트 죽전점", "region1": "대구광역시", "region2": "달서구", "region3": "죽전동", "zone_id": "16648", "zone_name": "롯데 하이마트 죽전점"}, {"address": "대구 달서구 상인동 583-48 롯데시네마 상인점 별관주차장", "car_count": "2", "imaginary": "0", "is_d2d_car_exportable": "ABLE", "lat": "35.815283", "lng": "128.538508", "parking_name": "롯데시네마 상인 별관", "region1": "대구광역시", "region2": "달서구", "region3": "상인동", "zone_id": "19609", "zone_name": "롯데시네마 상인 별관"}, {"address": "대구 달서구 상인동 730", "car_count": "3", "imaginary": "0", "is_d2d_car_exportable": "ABLE", "lat": "35.819554", "lng": "128.538041", "parking_name": "상인역 7번출구", "region1": "대구광역시", "region2": "달서구", "region3": "상인동", "zone_id": "8713", "zone_name": "상인역 7번출구"}, {"address": "대구 달서구 이곡동 1246 -2", "car_count": "1", "imaginary": "0", "is_d2d_car_exportable": "ABLE", "lat": "35.854543", "lng": "128.509065", "parking_name": "성서 롯데시네마 뒤편", "region1": "대구광역시", "region2": "달서구", "region3": "이곡동", "zone_id": "19064", "zone_name": "성서 롯데시네마 뒤편"}, {"address": "대구 달서구 이곡동 1213 쇼핑월드청우주차빌딩", "car_count": "2", "imaginary": "0", "is_d2d_car_exportable": "ABLE", "lat": "35.853803", "lng": "128.504231", "parking_name": "성서산업단지역 1번 출구", "region1": "대구광역시", "region2": "달서구", "region3": "이곡동", "zone_id": "14851", "zone_name": "성서산업단지역 1번 출구"}, {"address": "대구 달서구 이곡동 1200-7", "car_count": "9", "imaginary": "3", "is_d2d_car_exportable": "ABLE", "lat": "35.854355", "lng": "128.505234", "parking_name": "성서쇼핑월드", "region1": "대구광역시", "region2": "달서구", "region3": "이곡동", "zone_id": "12207", "zone_name": "성서쇼핑월드"}, {"address": "대구 달서구 송현동 2001-50", "car_count": "1", "imaginary": "0", "is_d2d_car_exportable": "ABLE", "lat": "35.830847", "lng": "128.554833", "parking_name": "송현역 3번출구", "region1": "대구광역시", "region2": "달서구", "region3": "송현동", "zone_id": "16876", "zone_name": "송현역 3번출구"}, {"address": "대구 달서구 대곡동 1014-1 나성하와이제1 주차장", "car_count": "1", "imaginary": "0", "is_d2d_car_exportable": "ABLE", "lat": "35.807125", "lng": "128.519205", "parking_name": "수목원삼성레미안1차 앞", "region1": "대구광역시", "region2": "달서구", "region3": "대곡동", "zone_id": "12740", "zone_name": "수목원삼성레미안1차 앞"}, {"address": "대구 달서구 월성동 1826 신월성미소지움 미소지움주차장", "car_count": "1", "imaginary": "0", "is_d2d_car_exportable": "ABLE", "lat": "35.825306", "lng": "128.526365", "parking_name": "신월성 미소지움", "region1": "대구광역시", "region2": "달서구", "region3": "월성동", "zone_id": "12885", "zone_name": "신월성 미소지움"}, {"address": "대구 달서구 송현동 444", "car_count": "1", "imaginary": "0", "is_d2d_car_exportable": "ABLE", "lat": "35.827097", "lng": "128.552377", "parking_name": "앞산 별빛캠핑장 앞", "region1": "대구광역시", "region2": "달서구", "region3": "송현동", "zone_id": "18189", "zone_name": "앞산 별빛캠핑장 앞"}, {"address": "대구 달서구 진천동 847 월배역 디엘 라온프라이빗", "car_count": "1", "imaginary": "0", "is_d2d_car_exportable": "ABLE", "lat": "35.817618", "lng": "128.530727", "parking_name": "월배역 4번출구", "region1": "대구광역시", "region2": "달서구", "region3": "진천동", "zone_id": "23007", "zone_name": "월배역 4번출구"}, {"address": "대구 달서구 상인동 806-2", "car_count": "2", "imaginary": "0", "is_d2d_car_exportable": "ABLE", "lat": "35.822306", "lng": "128.546953", "parking_name": "월촌역 4번출구", "region1": "대구광역시", "region2": "달서구", "region3": "상인동", "zone_id": "17007", "zone_name": "월촌역 4번출구"}, {"address": "대구 달서구 대천동 499-1 유니클로 대구 대천점", "car_count": "1", "imaginary": "0", "is_d2d_car_exportable": "ABLE", "lat": "35.818381", "lng": "128.521485", "parking_name": "유니클로 대구 대천점", "region1": "대구광역시", "region2": "달서구", "region3": "대천동", "zone_id": "12162", "zone_name": "유니클로 대구 대천점"}, {"address": "대구 달서구 송현동 1036-8 이마트24 대구서부정류장점", "car_count": "1", "imaginary": "0", "is_d2d_car_exportable": "ABLE", "lat": "35.836671", "lng": "128.555489", "parking_name": "이마트24 대구서부정류장점", "region1": "대구광역시", "region2": "달서구", "region3": "송현동", "zone_id": "11658", "zone_name": "이마트24 대구서부정류장점"}, {"address": "대구 달서구 감삼동 438-7 전자랜드파워센터 주차장", "car_count": "2", "imaginary": "0", "is_d2d_car_exportable": "ABLE", "lat": "35.849311", "lng": "128.536573", "parking_name": "전자랜드파워센터 주차장", "region1": "대구광역시", "region2": "달서구", "region3": "감삼동", "zone_id": "12310", "zone_name": "전자랜드 죽전점"}, {"address": "대구 달서구 감삼동 563-7", "car_count": "1", "imaginary": "0", "is_d2d_car_exportable": "ABLE", "lat": "35.846286", "lng": "128.535543", "parking_name": "죽전역 2번출구", "region1": "대구광역시", "region2": "달서구", "region3": "감삼동", "zone_id": "17683", "zone_name": "죽전역 2번출구"}, {"address": "대구 달서구 감삼동 146-38", "car_count": "1", "imaginary": "0", "is_d2d_car_exportable": "ABLE", "lat": "35.850159", "lng": "128.539337", "parking_name": "죽전역 3번출구", "region1": "대구광역시", "region2": "달서구", "region3": "감삼동", "zone_id": "5159", "zone_name": "죽전역 3번출구"}, {"address": "대구 달서구 감삼동 146-28 3층", "car_count": "2", "imaginary": "0", "is_d2d_car_exportable": "ABLE", "lat": "35.850434", "lng": "128.539111", "parking_name": "죽전역 4번출구", "region1": "대구광역시", "region2": "달서구", "region3": "감삼동", "zone_id": "22583", "zone_name": "죽전역 4번출구"}, {"address": "대구 달서구 송현동 1931-14 송현효병원 송현효병원", "car_count": "1", "imaginary": "0", "is_d2d_car_exportable": "ABLE", "lat": "35.828744", "lng": "128.550267", "parking_name": "송현효병원 주차장", "region1": "대구광역시", "region2": "달서구", "region3": "송현동", "zone_id": "15725", "zone_name": "케이케이 송현효병원"}, {"address": "대구 달성군 다사읍 매곡리 1546-4", "car_count": "1", "imaginary": "0", "is_d2d_car_exportable": "ABLE", "lat": "35.859878", "lng": "128.463756", "parking_name": "대구 다사죽곡", "region1": "대구광역시", "region2": "달성군", "region3": "다사읍", "zone_id": "22975", "zone_name": "대구 다사죽곡"}, {"address": "대구 달성군 화원읍 구라리 1737-3", "car_count": "1", "imaginary": "0", "is_d2d_car_exportable": "ABLE", "lat": "35.810581", "lng": "128.512754", "parking_name": "대구 유천네거리", "region1": "대구광역시", "region2": "달성군", "region3": "화원읍", "zone_id": "19636", "zone_name": "대구 유천네거리"}, {"address": "대구 달성군 현풍읍 중리 497", "car_count": "1", "imaginary": "0", "is_d2d_car_exportable": "ABLE", "lat": "35.692212", "lng": "128.454285", "parking_name": "대구 테크노상업로", "region1": "대구광역시", "region2": "달성군", "region3": "현풍읍", "zone_id": "19638", "zone_name": "대구 테크노상업로"}, {"address": "대구 달성군 유가읍 쌍계리 629 공터주차장", "car_count": "2", "imaginary": "0", "is_d2d_car_exportable": "ABLE", "lat": "35.700709", "lng": "128.465506", "parking_name": "대구 테크노초등학교 앞", "region1": "대구광역시", "region2": "달성군", "region3": "유가읍", "zone_id": "22851", "zone_name": "대구 테크노초등학교 앞"}, {"address": "대구 달성군 유가면 봉리 600-3", "car_count": "2", "imaginary": "0", "is_d2d_car_exportable": "ABLE", "lat": "35.694546", "lng": "128.460388", "parking_name": "유가파출소 뒤편 공터주차장", "region1": "대구광역시", "region2": "달성군", "region3": "유가면", "zone_id": "5575", "zone_name": "대구 테크노폴리스"}, {"address": "대구 달성군 다사읍 매곡리 1546-11 동일빌딩 지하주차장", "car_count": "1", "imaginary": "0", "is_d2d_car_exportable": "ABLE", "lat": "35.858398", "lng": "128.465103", "parking_name": "대실역 1번출구", "region1": "대구광역시", "region2": "달성군", "region3": "다사읍", "zone_id": "19637", "zone_name": "대실역 1번출구"}, {"address": "대구 달성군 현풍읍 중리 492", "car_count": "3", "imaginary": "0", "is_d2d_car_exportable": "ABLE", "lat": "35.69229", "lng": "128.455177", "parking_name": "롯데슈퍼 대구현풍점", "region1": "대구광역시", "region2": "달성군", "region3": "현풍읍", "zone_id": "16085", "zone_name": "롯데슈퍼 대구현풍점"}, {"address": "대구 달성군 현풍읍 중리 496-2", "car_count": "1", "imaginary": "0", "is_d2d_car_exportable": "ABLE", "lat": "35.691939", "lng": "128.456692", "parking_name": "브라운도트호텔 현풍점", "region1": "대구광역시", "region2": "달성군", "region3": "현풍읍", "zone_id": "16956", "zone_name": "브라운도트호텔 현풍점"}, {"address": "대구 달성군 유가읍 봉리 619 엠스퀘어플러스", "car_count": "1", "imaginary": "0", "is_d2d_car_exportable": "ABLE", "lat": "35.692996", "lng": "128.462927", "parking_name": "테크노폴리스(엠스퀘어)", "region1": "대구광역시", "region2": "달성군", "region3": "유가읍", "zone_id": "19909", "zone_name": "테크노폴리스(엠스퀘어)"}, {"address": "대구 달성군 화원읍 천내리 286 포레스트 헤리티지 주차장", "car_count": "2", "imaginary": "0", "is_d2d_car_exportable": "ABLE", "lat": "35.804464", "lng": "128.494952", "parking_name": "포레스트 헤리티지 화원", "region1": "대구광역시", "region2": "달성군", "region3": "화원읍", "zone_id": "13091", "zone_name": "포레스트 헤리티지 화원"}, {"address": "대구 달성군 현풍읍 중리 507 대구테크비즈센터", "car_count": "1", "imaginary": "0", "is_d2d_car_exportable": "ABLE", "lat": "35.690592", "lng": "128.45612", "parking_name": "현풍테크비즈센터", "region1": "대구광역시", "region2": "달성군", "region3": "현풍읍", "zone_id": "13989", "zone_name": "현풍테크비즈센터"}, {"address": "대구 달성군 다사읍 죽곡리 194-5 3층 정기권 전용 주차장", "car_count": "1", "imaginary": "0", "is_d2d_car_exportable": "ABLE", "lat": "35.857632", "lng": "128.462631", "parking_name": "휴림원", "region1": "대구광역시", "region2": "달성군", "region3": "다사읍", "zone_id": "13370", "zone_name": "휴림원"}, {"address": "대구 동구 신서동 639-27 유니클로 대구혁신도시점 주차장", "car_count": "2", "imaginary": "0", "is_d2d_car_exportable": "ABLE", "lat": "35.86906", "lng": "128.723362", "parking_name": "각산역 1번출구 앞", "region1": "대구광역시", "region2": "동구", "region3": "신서동", "zone_id": "19044", "zone_name": "각산역 1번출구 앞"}, {"address": "대구 동구 동호동 371", "car_count": "1", "imaginary": "0", "is_d2d_car_exportable": "ABLE", "lat": "35.866274", "lng": "128.72384", "parking_name": "나이스마트 대구동호점", "region1": "대구광역시", "region2": "동구", "region3": "동호동", "zone_id": "11103", "zone_name": "나이스마트 대구동호점"}, {"address": "대구 동구 신천동 278-46", "car_count": "1", "imaginary": "0", "is_d2d_car_exportable": "ABLE", "lat": "35.874706", "lng": "128.618774", "parking_name": "신천 유료 주차장", "region1": "대구광역시", "region2": "동구", "region3": "신천동", "zone_id": "5169", "zone_name": "대구 신천역 6번출구"}, {"address": "대구 동구 율하동 1418 하남프라자주차장", "car_count": "1", "imaginary": "0", "is_d2d_car_exportable": "ABLE", "lat": "35.862924", "lng": "128.694519", "parking_name": "대구 율하동", "region1": "대구광역시", "region2": "동구", "region3": "율하동", "zone_id": "19608", "zone_name": "대구 율하동"}, {"address": "대구 동구 지저동 465-42 태인유료주차장", "car_count": "13", "imaginary": "0", "is_d2d_car_exportable": "ABLE", "lat": "35.897633", "lng": "128.642028", "parking_name": "대구공항", "region1": "대구광역시", "region2": "동구", "region3": "지저동", "zone_id": "10224", "zone_name": "대구공항"}, {"address": "대구 동구 지저동 771-1", "car_count": "1", "imaginary": "0", "is_d2d_car_exportable": "ABLE", "lat": "35.895348", "lng": "128.638106", "parking_name": "대구공항시장 앞", "region1": "대구광역시", "region2": "동구", "region3": "지저동", "zone_id": "14742", "zone_name": "대구공항시장 앞"}, {"address": "대구 동구 봉무동 1553-2 연세메디컬센터 병원주차장", "car_count": "1", "imaginary": "0", "is_d2d_car_exportable": "ABLE", "lat": "35.920948", "lng": "128.643124", "parking_name": "대구국제학교 옆", "region1": "대구광역시", "region2": "동구", "region3": "봉무동", "zone_id": "19052", "zone_name": "대구국제학교 옆"}, {"address": "대구 동구 신천동 89-6 대구무역회관 대구무역회관 주차장 (지하4층)", "car_count": "2", "imaginary": "0", "is_d2d_car_exportable": "ABLE", "lat": "35.874223", "lng": "128.624839", "parking_name": "대구무역회관", "region1": "대구광역시", "region2": "동구", "region3": "신천동", "zone_id": "12896", "zone_name": "대구무역회관"}, {"address": "대구 동구 신암동 278-9 대구 동구 신암동 278-9, 쏘카 전용주차장", "car_count": "8", "imaginary": "0", "is_d2d_car_exportable": "UNABLE", "lat": "35.882075", "lng": "128.62944", "parking_name": "동대구역(KTX) 건너편", "region1": "대구광역시", "region2": "동구", "region3": "신암동", "zone_id": "18182", "zone_name": "동대구역(KTX) 건너편"}, {"address": "대구 동구 효목동 278-3", "car_count": "57", "imaginary": "3", "is_d2d_car_exportable": "ABLE", "lat": "35.878279", "lng": "128.63148", "parking_name": "동대구역(KTX) 동대구터미널", "region1": "대구광역시", "region2": "동구", "region3": "효목동", "zone_id": "22856", "zone_name": "동대구역(KTX) 동대구터미널"}, {"address": "대구 동구 신암동 276-1 쏘카 전용주차장", "car_count": "14", "imaginary": "0", "is_d2d_car_exportable": "UNABLE", "lat": "35.881217", "lng": "128.628211", "parking_name": "동대구역(KTX) 뒤편", "region1": "대구광역시", "region2": "동구", "region3": "신암동", "zone_id": "15703", "zone_name": "동대구역(KTX) 뒤편"}, {"address": "대구 동구 신천동 334-2", "car_count": "2", "imaginary": "0", "is_d2d_car_exportable": "ABLE", "lat": "35.874737", "lng": "128.628695", "parking_name": "동대구역(KTX) 먹거리촌", "region1": "대구광역시", "region2": "동구", "region3": "신천동", "zone_id": "22494", "zone_name": "동대구역(KTX) 먹거리촌"}, {"address": "대구 동구 신천동 382-13 골목길 삼거리 앞 주차장", "car_count": "5", "imaginary": "0", "is_d2d_car_exportable": "ABLE", "lat": "35.875852", "lng": "128.629708", "parking_name": "동대구역(KTX) 복합터미널", "region1": "대구광역시", "region2": "동구", "region3": "신천동", "zone_id": "19859", "zone_name": "동대구역(KTX) 복합터미널"}, {"address": "대구 동구 신천동 326-6", "car_count": "11", "imaginary": "0", "is_d2d_car_exportable": "ABLE", "lat": "35.874388", "lng": "128.627672", "parking_name": "동대구역(KTX) 부띠크시티 옆", "region1": "대구광역시", "region2": "동구", "region3": "신천동", "zone_id": "9630", "zone_name": "동대구역(KTX) 부띠크시티 옆"}, {"address": "대구 동구 신천동 326-6", "car_count": "1", "imaginary": "0", "is_d2d_car_exportable": "ABLE", "lat": "35.874473", "lng": "128.627687", "parking_name": "동대구역(KTX) 부띠크시티 옆(전기차)", "region1": "대구광역시", "region2": "동구", "region3": "신천동", "zone_id": "19721", "zone_name": "동대구역(KTX) 부띠크시티 옆(전기차)"}, {"address": "대구 동구 효목동 279-5", "car_count": "13", "imaginary": "0", "is_d2d_car_exportable": "ABLE", "lat": "35.878153", "lng": "128.63194", "parking_name": "동대구역(KTX) 신세계백화점 옆", "region1": "대구광역시", "region2": "동구", "region3": "효목동", "zone_id": "14231", "zone_name": "동대구역(KTX) 신세계백화점 옆"}, {"address": "대구 동구 신천동 287-2", "car_count": "46", "imaginary": "3", "is_d2d_car_exportable": "ABLE", "lat": "35.875269", "lng": "128.626336", "parking_name": "동대구역(KTX) 앞", "region1": "대구광역시", "region2": "동구", "region3": "신천동", "zone_id": "19332", "zone_name": "동대구역(KTX) 앞"}, {"address": "대구 동구 동호동 352-2 보약산염소탕어탕해장국 주차장", "car_count": "1", "imaginary": "0", "is_d2d_car_exportable": "ABLE", "lat": "35.865764", "lng": "128.715267", "parking_name": "반야월역 3번출구 앞", "region1": "대구광역시", "region2": "동구", "region3": "동호동", "zone_id": "15341", "zone_name": "반야월역 3번출구 앞"}, {"address": "대구 동구 방촌동 1103-2 BC스테이션", "car_count": "1", "imaginary": "0", "is_d2d_car_exportable": "ABLE", "lat": "35.879416", "lng": "128.669451", "parking_name": "방촌역 2번출구", "region1": "대구광역시", "region2": "동구", "region3": "방촌동", "zone_id": "19166", "zone_name": "방촌역 2번출구"}, {"address": "대구 동구 사복동 852 서한e스테이 지하 1층 주차장", "car_count": "1", "imaginary": "0", "is_d2d_car_exportable": "ABLE", "lat": "35.873945", "lng": "128.752539", "parking_name": "지에이치파트너즈", "region1": "대구광역시", "region2": "동구", "region3": "사복동", "zone_id": "14878", "zone_name": "서한e스테이"}, {"address": "대구 동구 신천동 1518 동대구역 센트럴시티자이 상가전용주차장", "car_count": "2", "imaginary": "0", "is_d2d_car_exportable": "ABLE", "lat": "35.872481", "lng": "128.623181", "parking_name": "센트럴자이 상가", "region1": "대구광역시", "region2": "동구", "region3": "신천동", "zone_id": "17435", "zone_name": "센트럴자이 상가"}, {"address": "대구 동구 신천동 83-1 삼부유료주차장", "car_count": "1", "imaginary": "0", "is_d2d_car_exportable": "ABLE", "lat": "35.874603", "lng": "128.623917", "parking_name": "삼부유료주차장", "region1": "대구광역시", "region2": "동구", "region3": "신천동", "zone_id": "13750", "zone_name": "신천청아람 앞"}, {"address": "대구 동구 율하동 1230 와이스토리 주차장", "car_count": "2", "imaginary": "0", "is_d2d_car_exportable": "ABLE", "lat": "35.8657", "lng": "128.695673", "parking_name": "안심주공1단지 앞", "region1": "대구광역시", "region2": "동구", "region3": "율하동", "zone_id": "14188", "zone_name": "안심주공1단지 앞"}, {"address": "대구 동구 신서동 520-1 이마트 반야월점 이마트 반야월점", "car_count": "1", "imaginary": "0", "is_d2d_car_exportable": "ABLE", "lat": "35.869698", "lng": "128.727145", "parking_name": "이마트 반야월점1", "region1": "대구광역시", "region2": "동구", "region3": "신서동", "zone_id": "20559", "zone_name": "이마트 반야월점1"}, {"address": "대구 동구 신서동 1121-4", "car_count": "1", "imaginary": "0", "is_d2d_car_exportable": "ABLE", "lat": "35.869392", "lng": "128.727163", "parking_name": "이마트 반야월점2", "region1": "대구광역시", "region2": "동구", "region3": "신서동", "zone_id": "23171", "zone_name": "이마트 반야월점2"}, {"address": "대구 동구 방촌동 907-7 방촌동마트 이마트에브리데이 방촌동점 주차장", "car_count": "1", "imaginary": "0", "is_d2d_car_exportable": "ABLE", "lat": "35.882339", "lng": "128.66505", "parking_name": "이마트에브리데이방촌동점", "region1": "대구광역시", "region2": "동구", "region3": "방촌동", "zone_id": "13371", "zone_name": "이마트에브리데이 방촌동점"}, {"address": "대구 동구 신암동 604-1 평화시장공영주차장", "car_count": "1", "imaginary": "0", "is_d2d_car_exportable": "ABLE", "lat": "35.88417", "lng": "128.620039", "parking_name": "평화시장공영주차장", "region1": "대구광역시", "region2": "동구", "region3": "신암동", "zone_id": "13078", "zone_name": "평화시장 뒤편"}, {"address": "대구 동구 신암동 214-12 궁전라벤더", "car_count": "1", "imaginary": "0", "is_d2d_car_exportable": "ABLE", "lat": "35.881901", "lng": "128.619858", "parking_name": "궁전라벤더", "region1": "대구광역시", "region2": "동구", "region3": "신암동", "zone_id": "14954", "zone_name": "평화시장 앞"}, {"address": "경북 문경시 문경읍 마원리 379", "car_count": "2", "imaginary": "0", "is_d2d_car_exportable": "ABLE", "lat": "36.722915", "lng": "128.109159", "parking_name": "문경역(KTX)", "region1": "경상북도", "region2": "문경시", "region3": "문경읍", "zone_id": "22946", "zone_name": "문경역(KTX)"}, {"address": "경북 문경시 모전동 120-3", "car_count": "6", "imaginary": "0", "is_d2d_car_exportable": "ABLE", "lat": "36.585924", "lng": "128.19301", "parking_name": "점촌터미널", "region1": "경상북도", "region2": "문경시", "region3": "모전동", "zone_id": "10466", "zone_name": "점촌터미널"}, {"address": "대구 북구 복현동 409-4", "car_count": "1", "imaginary": "0", "is_d2d_car_exportable": "ABLE", "lat": "35.894276", "lng": "128.614953", "parking_name": "경북대 테크노문", "region1": "대구광역시", "region2": "북구", "region3": "복현동", "zone_id": "18848", "zone_name": "경북대 테크노문"}, {"address": "대구 북구 산격동 1291-19", "car_count": "2", "imaginary": "0", "is_d2d_car_exportable": "ABLE", "lat": "35.896833", "lng": "128.613293", "parking_name": "경북대학교 제2북문", "region1": "대구광역시", "region2": "북구", "region3": "산격동", "zone_id": "22347", "zone_name": "경북대학교 제2북문"}, {"address": "대구 북구 읍내동 771-2", "car_count": "1", "imaginary": "0", "is_d2d_car_exportable": "ABLE", "lat": "35.943978", "lng": "128.550559", "parking_name": "농협은행 칠곡지점", "region1": "대구광역시", "region2": "북구", "region3": "읍내동", "zone_id": "19066", "zone_name": "농협은행 칠곡지점"}, {"address": "대구 북구 구암동 771-2", "car_count": "2", "imaginary": "0", "is_d2d_car_exportable": "ABLE", "lat": "35.942195", "lng": "128.565426", "parking_name": "대구 강북경찰서 뒤편", "region1": "대구광역시", "region2": "북구", "region3": "구암동", "zone_id": "6778", "zone_name": "대구 강북경찰서 뒤편"}, {"address": "대구 북구 침산동 261-1", "car_count": "1", "imaginary": "0", "is_d2d_car_exportable": "ABLE", "lat": "35.887612", "lng": "128.59224", "parking_name": "대구 침산동", "region1": "대구광역시", "region2": "북구", "region3": "침산동", "zone_id": "22990", "zone_name": "대구 침산동"}, {"address": "대구 북구 태전동 159 코지하우스 태전점 주차장", "car_count": "1", "imaginary": "0", "is_d2d_car_exportable": "ABLE", "lat": "35.921077", "lng": "128.545267", "parking_name": "대구 태전삼거리", "region1": "대구광역시", "region2": "북구", "region3": "태전동", "zone_id": "20430", "zone_name": "대구 태전삼거리"}, {"address": "대구 북구 동천동 927", "car_count": "1", "imaginary": "0", "is_d2d_car_exportable": "ABLE", "lat": "35.937533", "lng": "128.558325", "parking_name": "대백마트 동천점", "region1": "대구광역시", "region2": "북구", "region3": "동천동", "zone_id": "15351", "zone_name": "대백마트 동천점"}, {"address": "대구 북구 산격동 1289-2 롯데하이마트 경북대점", "car_count": "1", "imaginary": "0", "is_d2d_car_exportable": "ABLE", "lat": "35.897258", "lng": "128.614142", "parking_name": "롯데 하이마트 경북대점", "region1": "대구광역시", "region2": "북구", "region3": "산격동", "zone_id": "16650", "zone_name": "롯데 하이마트 경북대점"}, {"address": "대구 북구 태전동 405-14", "car_count": "3", "imaginary": "0", "is_d2d_car_exportable": "ABLE", "lat": "35.925035", "lng": "128.546873", "parking_name": "롯데 하이마트 칠곡점", "region1": "대구광역시", "region2": "북구", "region3": "태전동", "zone_id": "17554", "zone_name": "롯데 하이마트 칠곡점"}, {"address": "대구 북구 복현동 539-123 롯데마트 롯데슈퍼 복현점 주차장", "car_count": "1", "imaginary": "0", "is_d2d_car_exportable": "ABLE", "lat": "35.898612", "lng": "128.616076", "parking_name": "롯데슈퍼 복현점", "region1": "대구광역시", "region2": "북구", "region3": "복현동", "zone_id": "12922", "zone_name": "롯데슈퍼 복현점"}, {"address": "대구 북구 태전동 686-10", "car_count": "1", "imaginary": "0", "is_d2d_car_exportable": "ABLE", "lat": "35.913861", "lng": "128.543", "parking_name": "매천역 환승 공영주차장", "region1": "대구광역시", "region2": "북구", "region3": "태전동", "zone_id": "22986", "zone_name": "매천역 환승 공영주차장"}, {"address": "대구 북구 복현동 200-22", "car_count": "2", "imaginary": "0", "is_d2d_car_exportable": "ABLE", "lat": "35.897369", "lng": "128.616469", "parking_name": "복현오거리 유성주차장", "region1": "대구광역시", "region2": "북구", "region3": "복현동", "zone_id": "15462", "zone_name": "복현오거리"}, {"address": "대구 북구 복현동 439-1 복현장미공원주차장", "car_count": "3", "imaginary": "0", "is_d2d_car_exportable": "ABLE", "lat": "35.893305", "lng": "128.617272", "parking_name": "복현장미공원", "region1": "대구광역시", "region2": "북구", "region3": "복현동", "zone_id": "13842", "zone_name": "복현장미공원"}, {"address": "대구 북구 산격동 1216-24", "car_count": "2", "imaginary": "0", "is_d2d_car_exportable": "ABLE", "lat": "35.898967", "lng": "128.607065", "parking_name": "산격중학교 삼거리", "region1": "대구광역시", "region2": "북구", "region3": "산격동", "zone_id": "14598", "zone_name": "산격중학교 삼거리"}, {"address": "대구 북구 산격동 167", "car_count": "1", "imaginary": "0", "is_d2d_car_exportable": "ABLE", "lat": "35.905324", "lng": "128.612967", "parking_name": "스타벅스 대구엑스코점", "region1": "대구광역시", "region2": "북구", "region3": "산격동", "zone_id": "18237", "zone_name": "스타벅스 대구엑스코점"}, {"address": "대구 북구 연경동 955 더원프라자 주차장, 4층", "car_count": "1", "imaginary": "0", "is_d2d_car_exportable": "ABLE", "lat": "35.943255", "lng": "128.617463", "parking_name": "연경JK스크린점", "region1": "대구광역시", "region2": "북구", "region3": "연경동", "zone_id": "13280", "zone_name": "연경JK스크린점"}, {"address": "대구광역시 북구 칠성동2가 45-9", "car_count": "9", "imaginary": "3", "is_d2d_car_exportable": "ABLE", "lat": "35.883903", "lng": "128.589117", "parking_name": "이마트 칠성점", "region1": "대구광역시", "region2": "북구", "region3": "칠성동", "zone_id": "9496", "zone_name": "이마트 칠성점"}, {"address": "대구 북구 복현동 609-28 이마트24 원룸주차장", "car_count": "1", "imaginary": "0", "is_d2d_car_exportable": "ABLE", "lat": "35.891859", "lng": "128.616886", "parking_name": "이마트24 경대원룸점", "region1": "대구광역시", "region2": "북구", "region3": "복현동", "zone_id": "11650", "zone_name": "이마트24 경대원룸점"}, {"address": "대구 북구 동천동 911-5 신정빌딩 주차장", "car_count": "1", "imaginary": "0", "is_d2d_car_exportable": "ABLE", "lat": "35.941895", "lng": "128.562478", "parking_name": "칠곡 3지구", "region1": "대구광역시", "region2": "북구", "region3": "동천동", "zone_id": "14729", "zone_name": "칠곡 3지구"}, {"address": "대구 북구 동천동 907-1", "car_count": "2", "imaginary": "0", "is_d2d_car_exportable": "ABLE", "lat": "35.942523", "lng": "128.558931", "parking_name": "칠곡 3지구 앞", "region1": "대구광역시", "region2": "북구", "region3": "동천동", "zone_id": "23038", "zone_name": "칠곡 3지구 앞"}, {"address": "대구 북구 관음동 1372-2", "car_count": "1", "imaginary": "0", "is_d2d_car_exportable": "ABLE", "lat": "35.933325", "lng": "128.547422", "parking_name": "칠곡 비전스퀘어", "region1": "대구광역시", "region2": "북구", "region3": "관음동", "zone_id": "15352", "zone_name": "칠곡 비전스퀘어"}, {"address": "대구 북구 구암동 781", "car_count": "1", "imaginary": "0", "is_d2d_car_exportable": "ABLE", "lat": "35.941377", "lng": "128.569356", "parking_name": "칠곡 함지공원 뒤편", "region1": "대구광역시", "region2": "북구", "region3": "구암동", "zone_id": "23065", "zone_name": "칠곡 함지공원 뒤편"}, {"address": "대구 북구 동천동 875-1", "car_count": "1", "imaginary": "0", "is_d2d_car_exportable": "ABLE", "lat": "35.932242", "lng": "128.557197", "parking_name": "백성욱왕소금구이", "region1": "대구광역시", "region2": "북구", "region3": "동천동", "zone_id": "17105", "zone_name": "칠곡운암역 건너편"}, {"address": "대구 북구 구암동 653-1", "car_count": "1", "imaginary": "0", "is_d2d_car_exportable": "ABLE", "lat": "35.931309", "lng": "128.555801", "parking_name": "칠곡운암역 옆", "region1": "대구광역시", "region2": "북구", "region3": "구암동", "zone_id": "4689", "zone_name": "칠곡운암역 옆"}, {"address": "대구 북구 태전동 206-18", "car_count": "1", "imaginary": "0", "is_d2d_car_exportable": "ABLE", "lat": "35.919434", "lng": "128.546326", "parking_name": "태전파크 주차장", "region1": "대구광역시", "region2": "북구", "region3": "태전동", "zone_id": "1945", "zone_name": "태전역 1번출구"}, {"address": "대구 북구 동천동 953-2", "car_count": "1", "imaginary": "0", "is_d2d_car_exportable": "ABLE", "lat": "35.943875", "lng": "128.557422", "parking_name": "팔거역 주차빌딩", "region1": "대구광역시", "region2": "북구", "region3": "동천동", "zone_id": "15536", "zone_name": "팔거역 3번출구"}, {"address": "대구 북구 복현동 402-4 폴리파크 복현점", "car_count": "1", "imaginary": "0", "is_d2d_car_exportable": "ABLE", "lat": "35.896245", "lng": "128.613936", "parking_name": "폴리파크 복현점", "region1": "대구광역시", "region2": "북구", "region3": "복현동", "zone_id": "14673", "zone_name": "폴리파크 복현점"}, {"address": "대구 북구 동천동 971-2", "car_count": "1", "imaginary": "0", "is_d2d_car_exportable": "ABLE", "lat": "35.943383", "lng": "128.556164", "parking_name": "전원빌딩 주차장", "region1": "대구광역시", "region2": "북구", "region3": "동천동", "zone_id": "15537", "zone_name": "홈플러스 칠곡점 뒤편"}, {"address": "경북 상주시 가장동 744 오아시스 주차장", "car_count": "1", "imaginary": "0", "is_d2d_car_exportable": "ABLE", "lat": "36.376817", "lng": "128.148878", "parking_name": "오아시스빌 주차장", "region1": "경상북도", "region2": "상주시", "region3": "가장동", "zone_id": "17391", "zone_name": "경북대 상주캠퍼스 앞"}, {"address": "경북 상주시 무양동 1-19 하이마트 주차장", "car_count": "1", "imaginary": "0", "is_d2d_car_exportable": "ABLE", "lat": "36.422602", "lng": "128.150463", "parking_name": "롯데 하이마트 상주점", "region1": "경상북도", "region2": "상주시", "region3": "무양동", "zone_id": "17556", "zone_name": "롯데 하이마트 상주점"}, {"address": "경북 상주시 무양동 286-5 (무양동)", "car_count": "2", "imaginary": "0", "is_d2d_car_exportable": "ABLE", "lat": "36.417852", "lng": "128.151454", "parking_name": "상주종합터미널 앞", "region1": "경상북도", "region2": "상주시", "region3": "무양동", "zone_id": "17503", "zone_name": "상주종합터미널 앞"}, {"address": "경북 상주시 남성동 128 이마트24시 남성중앙점", "car_count": "1", "imaginary": "0", "is_d2d_car_exportable": "ABLE", "lat": "36.412734", "lng": "128.157208", "parking_name": "이마트24 남성중앙점", "region1": "경상북도", "region2": "상주시", "region3": "남성동", "zone_id": "11442", "zone_name": "이마트24 남성중앙점"}, {"address": "대구 서구 평리동 1369-2 KFC주차장", "car_count": "1", "imaginary": "0", "is_d2d_car_exportable": "ABLE", "lat": "35.868861", "lng": "128.555504", "parking_name": "KFC 평리점", "region1": "대구광역시", "region2": "서구", "region3": "평리동", "zone_id": "20445", "zone_name": "KFC 평리점"}, {"address": "대구 서구 내당동 426-2", "car_count": "1", "imaginary": "0", "is_d2d_car_exportable": "ABLE", "lat": "35.857063", "lng": "128.545614", "parking_name": "감삼역 1번출구", "region1": "대구광역시", "region2": "서구", "region3": "내당동", "zone_id": "17104", "zone_name": "감삼역 1번출구"}, {"address": "대구 서구 비산동 185-98 보말주차장", "car_count": "1", "imaginary": "0", "is_d2d_car_exportable": "ABLE", "lat": "35.871309", "lng": "128.575555", "parking_name": "달성공원 옆", "region1": "대구광역시", "region2": "서구", "region3": "비산동", "zone_id": "17283", "zone_name": "달성공원 옆"}, {"address": "대구 서구 내당동 463-34", "car_count": "2", "imaginary": "0", "is_d2d_car_exportable": "ABLE", "lat": "35.855904", "lng": "128.551158", "parking_name": "대구 광장코아", "region1": "대구광역시", "region2": "서구", "region3": "내당동", "zone_id": "10284", "zone_name": "대구 광장코아"}, {"address": "대구 서구 평리동 1365-5", "car_count": "1", "imaginary": "0", "is_d2d_car_exportable": "ABLE", "lat": "35.865891", "lng": "128.556094", "parking_name": "대구 평리동", "region1": "대구광역시", "region2": "서구", "region3": "평리동", "zone_id": "22808", "zone_name": "대구 평리동"}, {"address": "대구 서구 내당동 62-5 롯데하이마트", "car_count": "1", "imaginary": "0", "is_d2d_car_exportable": "ABLE", "lat": "35.861047", "lng": "128.56692", "parking_name": "롯데 하이마트 내당점", "region1": "대구광역시", "region2": "서구", "region3": "내당동", "zone_id": "17555", "zone_name": "롯데 하이마트 내당점"}, {"address": "대구 서구 이현동 226-3", "car_count": "17", "imaginary": "3", "is_d2d_car_exportable": "ABLE", "lat": "35.878997", "lng": "128.541075", "parking_name": "서대구역(KTX)", "region1": "대구광역시", "region2": "서구", "region3": "이현동", "zone_id": "15552", "zone_name": "서대구역(KTX)"}, {"address": "대구 서구 이현동 263-3 서대구역 서대구역3 고객전용주차장", "car_count": "10", "imaginary": "5", "is_d2d_car_exportable": "ABLE", "lat": "35.879986", "lng": "128.539142", "parking_name": "서대구역(KTX) 3주차장", "region1": "대구광역시", "region2": "서구", "region3": "이현동", "zone_id": "22543", "zone_name": "서대구역(KTX) 3주차장"}, {"address": "대구 서구 평리동 1524-17", "car_count": "1", "imaginary": "0", "is_d2d_car_exportable": "ABLE", "lat": "35.870776", "lng": "128.55461", "parking_name": "우리은행 평리동지점", "region1": "대구광역시", "region2": "서구", "region3": "평리동", "zone_id": "19683", "zone_name": "우리은행 평리동지점"}, {"address": "대구 수성구 범어동 248-1", "car_count": "1", "imaginary": "0", "is_d2d_car_exportable": "ABLE", "lat": "35.856934", "lng": "128.633408", "parking_name": "KBS 대구방송총국 앞", "region1": "대구광역시", "region2": "수성구", "region3": "범어동", "zone_id": "5782", "zone_name": "KBS 대구방송총국 앞"}, {"address": "대구 수성구 시지동 462-37", "car_count": "1", "imaginary": "0", "is_d2d_car_exportable": "ABLE", "lat": "35.841796", "lng": "128.692214", "parking_name": "롤링핀 주차장", "region1": "대구광역시", "region2": "수성구", "region3": "시지동", "zone_id": "15391", "zone_name": "고산역 2번출구"}, {"address": "대구 수성구 범어동 94-2", "car_count": "1", "imaginary": "0", "is_d2d_car_exportable": "ABLE", "lat": "35.854442", "lng": "128.638375", "parking_name": "대구 경신고 앞", "region1": "대구광역시", "region2": "수성구", "region3": "범어동", "zone_id": "19201", "zone_name": "대구 경신고 앞"}, {"address": "대구광역시 수성구 수성동2가 245-1 대성유료주차장", "car_count": "1", "imaginary": "0", "is_d2d_car_exportable": "UNABLE", "lat": "35.855786", "lng": "128.613983", "parking_name": "대구 동성학교네거리", "region1": "대구광역시", "region2": "수성구", "region3": "수성동2가", "zone_id": "20214", "zone_name": "대구 동성학교네거리"}, {"address": "대구 수성구 상동 316-13", "car_count": "1", "imaginary": "0", "is_d2d_car_exportable": "UNABLE", "lat": "35.834829", "lng": "128.614911", "parking_name": "대구 들안길", "region1": "대구광역시", "region2": "수성구", "region3": "상동", "zone_id": "10351", "zone_name": "대구 들안길"}, {"address": "대구 수성구 두산동 22-4 블루홀", "car_count": "1", "imaginary": "0", "is_d2d_car_exportable": "UNABLE", "lat": "35.838958", "lng": "128.6196", "parking_name": "대구 들안길네거리", "region1": "대구광역시", "region2": "수성구", "region3": "두산동", "zone_id": "17295", "zone_name": "대구 들안길네거리"}, {"address": "대구 수성구 만촌동 1039-4 수성 아크로타워", "car_count": "1", "imaginary": "0", "is_d2d_car_exportable": "ABLE", "lat": "35.858316", "lng": "128.644172", "parking_name": "대구 만촌역 아크로타워", "region1": "대구광역시", "region2": "수성구", "region3": "만촌동", "zone_id": "23115", "zone_name": "대구 만촌역 아크로타워"}, {"address": "대구 수성구 매호동 866 고산옥 주차장", "car_count": "1", "imaginary": "0", "is_d2d_car_exportable": "ABLE", "lat": "35.844972", "lng": "128.705978", "parking_name": "대구 매호공원 앞", "region1": "대구광역시", "region2": "수성구", "region3": "매호동", "zone_id": "12760", "zone_name": "대구 매호공원 앞"}, {"address": "대구 수성구 만촌동 1429-21 메트로웰빙하와이 메트로웰빙하와이 주차장", "car_count": "1", "imaginary": "0", "is_d2d_car_exportable": "ABLE", "lat": "35.867677", "lng": "128.637894", "parking_name": "대구 메트로팔레스 앞", "region1": "대구광역시", "region2": "수성구", "region3": "만촌동", "zone_id": "20064", "zone_name": "대구 메트로팔레스 앞"}, {"address": "대구 수성구 범어동 2262 범어 더 리브스퀘어", "car_count": "1", "imaginary": "0", "is_d2d_car_exportable": "ABLE", "lat": "35.864189", "lng": "128.619215", "parking_name": "대구 범어천로", "region1": "대구광역시", "region2": "수성구", "region3": "범어동", "zone_id": "22970", "zone_name": "대구 범어천로"}, {"address": "대구 수성구 만촌동 413-6 만촌우방하이츠 JH빌딩 주차장", "car_count": "1", "imaginary": "0", "is_d2d_car_exportable": "ABLE", "lat": "35.868661", "lng": "128.631975", "parking_name": "대구 성원넥서스 옆", "region1": "대구광역시", "region2": "수성구", "region3": "만촌동", "zone_id": "12741", "zone_name": "대구 성원넥서스 옆"}, {"address": "대구 수성구 지산동 1182-10", "car_count": "1", "imaginary": "0", "is_d2d_car_exportable": "ABLE", "lat": "35.823556", "lng": "128.625728", "parking_name": "대구 수성못", "region1": "대구광역시", "region2": "수성구", "region3": "지산동", "zone_id": "10536", "zone_name": "대구 수성못"}, {"address": "대구 수성구 두산동 87-6", "car_count": "1", "imaginary": "0", "is_d2d_car_exportable": "UNABLE", "lat": "35.837267", "lng": "128.621422", "parking_name": "대구 수성헤센더테라스", "region1": "대구광역시", "region2": "수성구", "region3": "두산동", "zone_id": "15841", "zone_name": "대구 수성헤센더테라스"}, {"address": "대구 수성구 신매동 273 신매동SNL메디타워 지상3층", "car_count": "1", "imaginary": "0", "is_d2d_car_exportable": "ABLE", "lat": "35.840458", "lng": "128.70975", "parking_name": "대구 시지광장 건너", "region1": "대구광역시", "region2": "수성구", "region3": "신매동", "zone_id": "20283", "zone_name": "대구 시지광장 건너"}, {"address": "대구 수성구 신매동 188 세븐힐 주차장", "car_count": "1", "imaginary": "0", "is_d2d_car_exportable": "ABLE", "lat": "35.837295", "lng": "128.712144", "parking_name": "대구 신매교 앞", "region1": "대구광역시", "region2": "수성구", "region3": "신매동", "zone_id": "18841", "zone_name": "대구 신매교 앞"}, {"address": "대구 수성구 중동 662 수성푸르지오리버센트 상가 주차장", "car_count": "1", "imaginary": "0", "is_d2d_car_exportable": "UNABLE", "lat": "35.841956", "lng": "128.609788", "parking_name": "대구 중동네거리", "region1": "대구광역시", "region2": "수성구", "region3": "중동", "zone_id": "20431", "zone_name": "대구 중동네거리"}, {"address": "대구 수성구 중동 320-3 농협중앙회대구지역본부", "car_count": "1", "imaginary": "0", "is_d2d_car_exportable": "UNABLE", "lat": "35.846805", "lng": "128.611886", "parking_name": "대구 희망로", "region1": "대구광역시", "region2": "수성구", "region3": "중동", "zone_id": "20736", "zone_name": "대구 희망로"}, {"address": "대구 수성구 황금동 812-1", "car_count": "10", "imaginary": "3", "is_d2d_car_exportable": "ABLE", "lat": "35.845862", "lng": "128.61716", "parking_name": "대구 희망로네거리", "region1": "대구광역시", "region2": "수성구", "region3": "황금동", "zone_id": "22947", "zone_name": "대구 희망로네거리"}, {"address": "대구 수성구 두산동 70-9 그리다 주차장", "car_count": "1", "imaginary": "0", "is_d2d_car_exportable": "UNABLE", "lat": "35.835724", "lng": "128.618648", "parking_name": "대구시 두산동", "region1": "대구광역시", "region2": "수성구", "region3": "두산동", "zone_id": "18371", "zone_name": "대구시 두산동"}, {"address": "대구 수성구 수성동4가 1186-31", "car_count": "2", "imaginary": "0", "is_d2d_car_exportable": "UNABLE", "lat": "35.860264", "lng": "128.612411", "parking_name": "대구은행역 1번출구", "region1": "대구광역시", "region2": "수성구", "region3": "수성동4가", "zone_id": "2865", "zone_name": "대구은행역 1번출구"}, {"address": "대구 수성구 범어동 588-2", "car_count": "2", "imaginary": "0", "is_d2d_car_exportable": "UNABLE", "lat": "35.857075", "lng": "128.625251", "parking_name": "롯데 하이마트 범어네거리점", "region1": "대구광역시", "region2": "수성구", "region3": "범어동", "zone_id": "16505", "zone_name": "롯데 하이마트 범어네거리점"}, {"address": "대구 수성구 황금동 542", "car_count": "1", "imaginary": "0", "is_d2d_car_exportable": "UNABLE", "lat": "35.841231", "lng": "128.624817", "parking_name": "롯데 하이마트 황금점", "region1": "대구광역시", "region2": "수성구", "region3": "황금동", "zone_id": "16506", "zone_name": "롯데 하이마트 황금점"}, {"address": "대구 수성구 시지동 490 노변공영주차장", "car_count": "1", "imaginary": "0", "is_d2d_car_exportable": "ABLE", "lat": "35.839127", "lng": "128.694266", "parking_name": "롯데슈퍼 고산점 옆", "region1": "대구광역시", "region2": "수성구", "region3": "시지동", "zone_id": "12669", "zone_name": "롯데슈퍼 고산점 옆"}, {"address": "대구 수성구 만촌동 1040-12 만촌역 서한포레스트 만촌 서한포레스트", "car_count": "2", "imaginary": "0", "is_d2d_car_exportable": "ABLE", "lat": "35.857871", "lng": "128.647149", "parking_name": "만촌네거리", "region1": "대구광역시", "region2": "수성구", "region3": "만촌동", "zone_id": "18784", "zone_name": "만촌네거리"}, {"address": "대구 수성구 범어동 41-15 우리은행 고객주차장", "car_count": "1", "imaginary": "0", "is_d2d_car_exportable": "UNABLE", "lat": "35.859902", "lng": "128.624691", "parking_name": "범어역 1번출구 앞", "region1": "대구광역시", "region2": "수성구", "region3": "범어동", "zone_id": "11747", "zone_name": "범어역 1번출구 앞"}, {"address": "대구 수성구 범어동 588-20 한여사네청국장 옆 주차장", "car_count": "1", "imaginary": "0", "is_d2d_car_exportable": "UNABLE", "lat": "35.857176", "lng": "128.624879", "parking_name": "범어역 3번출구", "region1": "대구광역시", "region2": "수성구", "region3": "범어동", "zone_id": "12525", "zone_name": "범어역 3번출구"}, {"address": "대구 수성구 범어동 175-1 브라운스톤 범어 상가주차장 7층", "car_count": "3", "imaginary": "0", "is_d2d_car_exportable": "ABLE", "lat": "35.861698", "lng": "128.627749", "parking_name": "브라운스톤 범어", "region1": "대구광역시", "region2": "수성구", "region3": "범어동", "zone_id": "13422", "zone_name": "브라운스톤 범어"}, {"address": "대구 수성구 신매동 44-8", "car_count": "2", "imaginary": "0", "is_d2d_car_exportable": "ABLE", "lat": "35.835979", "lng": "128.715607", "parking_name": "효성유료주차장", "region1": "대구광역시", "region2": "수성구", "region3": "신매동", "zone_id": "853", "zone_name": "사월역 3번출구"}, {"address": "대구 수성구 수성동4가 1090-8 수성하이츠 수성하이츠 쇼핑몰 주차장", "car_count": "7", "imaginary": "0", "is_d2d_car_exportable": "ABLE", "lat": "35.861094", "lng": "128.613554", "parking_name": "수성하이츠 쇼핑몰", "region1": "대구광역시", "region2": "수성구", "region3": "수성동4가", "zone_id": "13254", "zone_name": "수성하이츠 쇼핑몰"}, {"address": "대구 수성구 매호동 1344-17 신정식한의원 주차장", "car_count": "1", "imaginary": "0", "is_d2d_car_exportable": "ABLE", "lat": "35.841356", "lng": "128.704047", "parking_name": "신매역 1번출구 앞", "region1": "대구광역시", "region2": "수성구", "region3": "매호동", "zone_id": "10807", "zone_name": "신매역 1번출구 앞"}, {"address": "대구 수성구 노변동 26-4", "car_count": "1", "imaginary": "0", "is_d2d_car_exportable": "ABLE", "lat": "35.840845", "lng": "128.702332", "parking_name": "신매역 2번출구", "region1": "대구광역시", "region2": "수성구", "region3": "노변동", "zone_id": "17595", "zone_name": "신매역 2번출구"}, {"address": "대구 수성구 두산동 778", "car_count": "3", "imaginary": "0", "is_d2d_car_exportable": "ABLE", "lat": "35.824447", "lng": "128.623791", "parking_name": "전원숯불 수성못점 전용주차장", "region1": "대구광역시", "region2": "수성구", "region3": "두산동", "zone_id": "9429", "zone_name": "전원숯불 수성못점"}, {"address": "대구 수성구 지산동 1204-6", "car_count": "1", "imaginary": "0", "is_d2d_car_exportable": "ABLE", "lat": "35.820324", "lng": "128.634113", "parking_name": "지산동 목련시장", "region1": "대구광역시", "region2": "수성구", "region3": "지산동", "zone_id": "19200", "zone_name": "지산동 목련시장"}, {"address": "대구 수성구 황금동 814-2", "car_count": "1", "imaginary": "0", "is_d2d_car_exportable": "ABLE", "lat": "35.844604", "lng": "128.617119", "parking_name": "티스테이션 수성점", "region1": "대구광역시", "region2": "수성구", "region3": "황금동", "zone_id": "16353", "zone_name": "티스테이션 수성점"}, {"address": "대구 수성구 황금동 838-1", "car_count": "1", "imaginary": "0", "is_d2d_car_exportable": "UNABLE", "lat": "35.842867", "lng": "128.623027", "parking_name": "황금동 코아시스 뒤편", "region1": "대구광역시", "region2": "수성구", "region3": "황금동", "zone_id": "15501", "zone_name": "황금동 코아시스 뒤편"}, {"address": "경북 안동시 옥동 784-6 대박집 안동점 주차장", "car_count": "3", "imaginary": "0", "is_d2d_car_exportable": "ABLE", "lat": "36.561228", "lng": "128.699681", "parking_name": "대박집 안동점", "region1": "경상북도", "region2": "안동시", "region3": "옥동", "zone_id": "17322", "zone_name": "대박집 안동점"}, {"address": "경북 안동시 옥동 639-7 마켓비 주차장", "car_count": "3", "imaginary": "0", "is_d2d_car_exportable": "ABLE", "lat": "36.562749", "lng": "128.703947", "parking_name": "송산기업 부설주차장", "region1": "경상북도", "region2": "안동시", "region3": "옥동", "zone_id": "14670", "zone_name": "마켓비 안동점"}, {"address": "경북 안동시 옥동 767-12 제주복어 주차장", "car_count": "1", "imaginary": "0", "is_d2d_car_exportable": "ABLE", "lat": "36.563778", "lng": "128.700347", "parking_name": "복주초등학교 옆", "region1": "경상북도", "region2": "안동시", "region3": "옥동", "zone_id": "15378", "zone_name": "복주초등학교 옆"}, {"address": "경북 안동시 송천동 366-12 안동대원룸 컨테이너 옆", "car_count": "5", "imaginary": "3", "is_d2d_car_exportable": "ABLE", "lat": "36.544805", "lng": "128.79448", "parking_name": "안동대 원룸촌", "region1": "경상북도", "region2": "안동시", "region3": "송천동", "zone_id": "18497", "zone_name": "안동대 원룸촌"}, {"address": "경북 안동시 서부동 91-11 서부주차장", "car_count": "3", "imaginary": "0", "is_d2d_car_exportable": "ABLE", "lat": "36.566237", "lng": "128.729725", "parking_name": "안동시청 앞", "region1": "경상북도", "region2": "안동시", "region3": "서부동", "zone_id": "14841", "zone_name": "안동시청 앞"}, {"address": "경북 안동시 송현동 664-11 공터주차장", "car_count": "31", "imaginary": "3", "is_d2d_car_exportable": "ABLE", "lat": "36.572105", "lng": "128.678733", "parking_name": "안동역 송현교회 뒤", "region1": "경상북도", "region2": "안동시", "region3": "송현동", "zone_id": "17242", "zone_name": "안동역 송현교회 뒤"}, {"address": "경북 안동시 태화동 189-1 안동서부공영주차장", "car_count": "2", "imaginary": "0", "is_d2d_car_exportable": "ABLE", "lat": "36.565589", "lng": "128.713462", "parking_name": "태화오거리 앞", "region1": "경상북도", "region2": "안동시", "region3": "태화동", "zone_id": "14138", "zone_name": "태화오거리 앞"}, {"address": "경북 영덕군 영덕읍 우곡리 268 영덕역", "car_count": "3", "imaginary": "0", "is_d2d_car_exportable": "ABLE", "lat": "36.411065", "lng": "129.377047", "parking_name": "영덕역 주차장", "region1": "경상북도", "region2": "영덕군", "region3": "영덕읍", "zone_id": "15010", "zone_name": "영덕역"}, {"address": "경북 영주시 풍기읍 산법리 574", "car_count": "1", "imaginary": "0", "is_d2d_car_exportable": "ABLE", "lat": "36.882963", "lng": "128.531947", "parking_name": "동양대학교", "region1": "경상북도", "region2": "영주시", "region3": "풍기읍", "zone_id": "23027", "zone_name": "동양대학교"}, {"address": "경북 영주시 휴천동 315-5", "car_count": "1", "imaginary": "0", "is_d2d_car_exportable": "ABLE", "lat": "36.809464", "lng": "128.625279", "parking_name": "영주역(KTX) 옆", "region1": "경상북도", "region2": "영주시", "region3": "휴천동", "zone_id": "13937", "zone_name": "영주역(KTX) 옆"}, {"address": "경북 영주시 휴천동 322-19 쏘카 전용주차장", "car_count": "9", "imaginary": "3", "is_d2d_car_exportable": "ABLE", "lat": "36.807195", "lng": "128.625816", "parking_name": "영주역(KTX)건너편", "region1": "경상북도", "region2": "영주시", "region3": "휴천동", "zone_id": "15199", "zone_name": "영주역(KTX)건너편"}, {"address": "경북 영주시 가흥동 2050 영주종합터미널 경북 영주시 가흥동 671-2, 터미널 유료주차장", "car_count": "1", "imaginary": "0", "is_d2d_car_exportable": "ABLE", "lat": "36.826952", "lng": "128.605238", "parking_name": "영주종합터미널 주차장", "region1": "경상북도", "region2": "영주시", "region3": "가흥동", "zone_id": "16001", "zone_name": "영주종합터미널 옆"}, {"address": "경북 영천시 완산동 1067-3", "car_count": "1", "imaginary": "0", "is_d2d_car_exportable": "ABLE", "lat": "35.963766", "lng": "128.93675", "parking_name": "영천 완산오거리", "region1": "경상북도", "region2": "영천시", "region3": "완산동", "zone_id": "23117", "zone_name": "영천 완산오거리"}, {"address": "경북 영천시 야사동 219", "car_count": "2", "imaginary": "0", "is_d2d_car_exportable": "ABLE", "lat": "35.972054", "lng": "128.947845", "parking_name": "영천고등학교 옆", "region1": "경상북도", "region2": "영천시", "region3": "야사동", "zone_id": "5803", "zone_name": "영천고등학교 옆"}, {"address": "경북 영천시 완산동 891-2 영천역 영천역 코레일주차장", "car_count": "5", "imaginary": "5", "is_d2d_car_exportable": "ABLE", "lat": "35.959494", "lng": "128.93989", "parking_name": "영천역 코레일 주차장", "region1": "경상북도", "region2": "영천시", "region3": "완산동", "zone_id": "13608", "zone_name": "영천역"}, {"address": "경북 영천시 문내동 5-1", "car_count": "1", "imaginary": "0", "is_d2d_car_exportable": "ABLE", "lat": "35.974705", "lng": "128.931034", "parking_name": "영천중학교 앞", "region1": "경상북도", "region2": "영천시", "region3": "문내동", "zone_id": "22876", "zone_name": "영천중학교 앞"}, {"address": "경북 울진군 울진읍 읍내리 510-5", "car_count": "1", "imaginary": "0", "is_d2d_car_exportable": "ABLE", "lat": "36.995167", "lng": "129.402155", "parking_name": "울진군 시내", "region1": "경상북도", "region2": "울진군", "region3": "울진읍", "zone_id": "15918", "zone_name": "울진군 시내"}, {"address": "경북 울진군 울진읍 읍내리 465 농협중앙회울진군지부 농협 울진군지부 주차장", "car_count": "1", "imaginary": "0", "is_d2d_car_exportable": "ABLE", "lat": "36.99308", "lng": "129.401523", "parking_name": "농협 울진군지부", "region1": "경상북도", "region2": "울진군", "region3": "울진읍", "zone_id": "17600", "zone_name": "울진군청 앞"}, {"address": "경북 울진군 울진읍 읍남리 458-19", "car_count": "3", "imaginary": "0", "is_d2d_car_exportable": "ABLE", "lat": "36.982978", "lng": "129.396805", "parking_name": "울진역(KTX)", "region1": "경상북도", "region2": "울진군", "region3": "울진읍", "zone_id": "22942", "zone_name": "울진역(KTX)"}, {"address": "대구 중구 삼덕동3가 364-2", "car_count": "2", "imaginary": "0", "is_d2d_car_exportable": "ABLE", "lat": "35.863035", "lng": "128.605811", "parking_name": "경대병원역 4번출구", "region1": "대구광역시", "region2": "중구", "region3": "삼덕동3가", "zone_id": "22505", "zone_name": "경대병원역 4번출구"}, {"address": "대구 중구 동인동2가 6-1", "car_count": "1", "imaginary": "0", "is_d2d_car_exportable": "ABLE", "lat": "35.869974", "lng": "128.601682", "parking_name": "국채보상운동기념관 앞", "region1": "대구광역시", "region2": "중구", "region3": "동인동2가", "zone_id": "2366", "zone_name": "국채보상운동기념관 앞"}, {"address": "대구 중구 남산동 219 대구가톨릭대학교신학대학", "car_count": "1", "imaginary": "0", "is_d2d_car_exportable": "ABLE", "lat": "35.862227", "lng": "128.587372", "parking_name": "남산동 인쇄골목", "region1": "대구광역시", "region2": "중구", "region3": "남산동", "zone_id": "14804", "zone_name": "남산동 인쇄골목"}, {"address": "대구 중구 남산동 3032", "car_count": "1", "imaginary": "0", "is_d2d_car_exportable": "ABLE", "lat": "35.859573", "lng": "128.576177", "parking_name": "남산자이하늘채 앞", "region1": "대구광역시", "region2": "중구", "region3": "남산동", "zone_id": "20652", "zone_name": "남산자이하늘채 앞"}, {"address": "대구 중구 서문로1가 57-2", "car_count": "1", "imaginary": "0", "is_d2d_car_exportable": "ABLE", "lat": "35.870921", "lng": "128.587808", "parking_name": "대구 곽병원 옆", "region1": "대구광역시", "region2": "중구", "region3": "서문로1가", "zone_id": "19370", "zone_name": "대구 곽병원 옆"}, {"address": "대구 중구 동문동 13-39", "car_count": "2", "imaginary": "0", "is_d2d_car_exportable": "ABLE", "lat": "35.871193", "lng": "128.599163", "parking_name": "대구 교동", "region1": "대구광역시", "region2": "중구", "region3": "동문동", "zone_id": "22994", "zone_name": "대구 교동"}, {"address": "대구 중구 완전동 2-1", "car_count": "2", "imaginary": "0", "is_d2d_car_exportable": "ABLE", "lat": "35.872505", "lng": "128.599602", "parking_name": "대구 교동타운", "region1": "대구광역시", "region2": "중구", "region3": "완전동", "zone_id": "19368", "zone_name": "대구 교동타운"}, {"address": "대구 중구 남산동 2175-24", "car_count": "1", "imaginary": "0", "is_d2d_car_exportable": "ABLE", "lat": "35.858757", "lng": "128.589136", "parking_name": "대구 남산자동차골목", "region1": "대구광역시", "region2": "중구", "region3": "남산동", "zone_id": "9316", "zone_name": "대구 남산자동차골목"}, {"address": "대구 중구 동산동 194 계명대학교동산의료원", "car_count": "2", "imaginary": "0", "is_d2d_car_exportable": "ABLE", "lat": "35.867938", "lng": "128.583172", "parking_name": "동산병원 주차장", "region1": "대구광역시", "region2": "중구", "region3": "동산동", "zone_id": "10558", "zone_name": "대구 동산병원"}, {"address": "대구 중구 종로1가 20", "car_count": "1", "imaginary": "0", "is_d2d_car_exportable": "ABLE", "lat": "35.871313", "lng": "128.59131", "parking_name": "대구 만경관(제2주차장)", "region1": "대구광역시", "region2": "중구", "region3": "종로1가", "zone_id": "11813", "zone_name": "대구 만경관(제2주차장)"}, {"address": "대구 중구 대봉동 13-38", "car_count": "1", "imaginary": "0", "is_d2d_car_exportable": "ABLE", "lat": "35.862391", "lng": "128.605332", "parking_name": "대구 방천시장", "region1": "대구광역시", "region2": "중구", "region3": "대봉동", "zone_id": "22664", "zone_name": "대구 방천시장"}, {"address": "대구 중구 상서동 41", "car_count": "1", "imaginary": "0", "is_d2d_car_exportable": "ABLE", "lat": "35.869654", "lng": "128.589874", "parking_name": "대구 약전골목 뒤편", "region1": "대구광역시", "region2": "중구", "region3": "상서동", "zone_id": "19164", "zone_name": "대구 약전골목 뒤편"}, {"address": "대구 중구 봉산동 169-6", "car_count": "4", "imaginary": "0", "is_d2d_car_exportable": "ABLE", "lat": "35.863369", "lng": "128.598633", "parking_name": "대구 유신학원 옆", "region1": "대구광역시", "region2": "중구", "region3": "봉산동", "zone_id": "2694", "zone_name": "대구 유신학원 옆"}, {"address": "대구 중구 삼덕동2가 29-5 경일유료주차장", "car_count": "2", "imaginary": "0", "is_d2d_car_exportable": "ABLE", "lat": "35.867561", "lng": "128.601742", "parking_name": "대구삼덕동", "region1": "대구광역시", "region2": "중구", "region3": "삼덕동2가", "zone_id": "12905", "zone_name": "대구 중앙도서관 앞"}, {"address": "대구 중구 남일동 101-3 대암프라이빗 주차장", "car_count": "1", "imaginary": "0", "is_d2d_car_exportable": "ABLE", "lat": "35.868855", "lng": "128.594269", "parking_name": "대구 중앙로역 2번출구", "region1": "대구광역시", "region2": "중구", "region3": "남일동", "zone_id": "13235", "zone_name": "대구 중앙로역 2번출구"}, {"address": "대구 중구 삼덕동1가 28-29 삼덕유료주차장 지하1층", "car_count": "2", "imaginary": "0", "is_d2d_car_exportable": "ABLE", "lat": "35.86695", "lng": "128.59773", "parking_name": "대구 켈빈사거리", "region1": "대구광역시", "region2": "중구", "region3": "삼덕동1가", "zone_id": "20717", "zone_name": "대구 켈빈사거리"}, {"address": "대구 중구 남산동 505", "car_count": "1", "imaginary": "0", "is_d2d_car_exportable": "ABLE", "lat": "35.865624", "lng": "128.58992", "parking_name": "와이즈빌딩 주차장", "region1": "대구광역시", "region2": "중구", "region3": "남산동", "zone_id": "7631", "zone_name": "대구 현대백화점 앞"}, {"address": "대구 중구 동인동2가 20-5", "car_count": "2", "imaginary": "0", "is_d2d_car_exportable": "ABLE", "lat": "35.8702", "lng": "128.600633", "parking_name": "대구시청 앞", "region1": "대구광역시", "region2": "중구", "region3": "동인동2가", "zone_id": "17419", "zone_name": "대구시청 앞"}, {"address": "대구 중구 동문동 9-33", "car_count": "1", "imaginary": "0", "is_d2d_car_exportable": "ABLE", "lat": "35.872134", "lng": "128.600561", "parking_name": "대구시청 옆", "region1": "대구광역시", "region2": "중구", "region3": "동문동", "zone_id": "19369", "zone_name": "대구시청 옆"}, {"address": "대구 중구 문화동 11-1 대구시티센터", "car_count": "2", "imaginary": "0", "is_d2d_car_exportable": "ABLE", "lat": "35.870963", "lng": "128.597761", "parking_name": "대구시티센터", "region1": "대구광역시", "region2": "중구", "region3": "문화동", "zone_id": "14634", "zone_name": "대구시티센터"}, {"address": "대구 중구 수창동 173 대구역센트럴자이 상가 주차장", "car_count": "1", "imaginary": "0", "is_d2d_car_exportable": "ABLE", "lat": "35.875988", "lng": "128.586559", "parking_name": "대구역 센트럴자이", "region1": "대구광역시", "region2": "중구", "region3": "수창동", "zone_id": "18442", "zone_name": "대구역 센트럴자이"}, {"address": "대구 중구 수창동 29-1 대구행복기숙사", "car_count": "1", "imaginary": "0", "is_d2d_car_exportable": "ABLE", "lat": "35.875105", "lng": "128.589497", "parking_name": "대구행복기숙사", "region1": "대구광역시", "region2": "중구", "region3": "수창동", "zone_id": "18600", "zone_name": "대구행복기숙사"}, {"address": "대구 중구 대봉동 185-7", "car_count": "1", "imaginary": "0", "is_d2d_car_exportable": "ABLE", "lat": "35.856039", "lng": "128.60436", "parking_name": "대봉교역 1번출구", "region1": "대구광역시", "region2": "중구", "region3": "대봉동", "zone_id": "22384", "zone_name": "대봉교역 1번출구"}, {"address": "대구 중구 덕산동 110 삼성생명", "car_count": "1", "imaginary": "0", "is_d2d_car_exportable": "ABLE", "lat": "35.866237", "lng": "128.592805", "parking_name": "반월당 삼성생명빌딩", "region1": "대구광역시", "region2": "중구", "region3": "덕산동", "zone_id": "12906", "zone_name": "반월당 삼성생명빌딩"}, {"address": "대구 중구 남산동 933-4 주차빌딩", "car_count": "1", "imaginary": "0", "is_d2d_car_exportable": "ABLE", "lat": "35.864383", "lng": "128.591861", "parking_name": "반월당 메디스퀘어 부설주차장", "region1": "대구광역시", "region2": "중구", "region3": "남산동", "zone_id": "17373", "zone_name": "반월당 삼정그린코아 뒤편"}, {"address": "대구 중구 남산동 3049 청라힐스자이 청라힐스자이 상가 주차장", "car_count": "2", "imaginary": "0", "is_d2d_car_exportable": "ABLE", "lat": "35.863397", "lng": "128.58172", "parking_name": "청라언덕역 4번출구", "region1": "대구광역시", "region2": "중구", "region3": "남산동", "zone_id": "19610", "zone_name": "청라언덕역 4번출구"}, {"address": "대구 중구 태평로2가 41 힐스테이트 대구역", "car_count": "1", "imaginary": "0", "is_d2d_car_exportable": "ABLE", "lat": "35.874814", "lng": "128.592788", "parking_name": "힐스테이트 대구역", "region1": "대구광역시", "region2": "중구", "region3": "태평로2가", "zone_id": "19507", "zone_name": "힐스테이트 대구역"}, {"address": "경북 칠곡군 석적읍 중리89-7", "car_count": "1", "imaginary": "0", "is_d2d_car_exportable": "ABLE", "lat": "36.079104", "lng": "128.410056", "parking_name": "칠곡 3공단부영 사거리", "region1": "경상북도", "region2": "칠곡군", "region3": "석적읍", "zone_id": "22983", "zone_name": "칠곡 3공단부영 사거리"}, {"address": "경북 칠곡군 석적읍 중리 249-12 아트리움", "car_count": "1", "imaginary": "0", "is_d2d_car_exportable": "ABLE", "lat": "36.072667", "lng": "128.412717", "parking_name": "칠곡 석적우체국 앞", "region1": "경상북도", "region2": "칠곡군", "region3": "석적읍", "zone_id": "18851", "zone_name": "칠곡 석적우체국 앞"}, {"address": "경북 칠곡군 석적읍 중리 192-4 ss마트식자재주차장", "car_count": "3", "imaginary": "0", "is_d2d_car_exportable": "ABLE", "lat": "36.075523", "lng": "128.411713", "parking_name": "칠곡군 석적읍", "region1": "경상북도", "region2": "칠곡군", "region3": "석적읍", "zone_id": "5570", "zone_name": "칠곡군 석적읍"}, {"address": "경북 포항시 남구 이동 661-2", "car_count": "1", "imaginary": "0", "is_d2d_car_exportable": "ABLE", "lat": "36.026078", "lng": "129.33991", "parking_name": "다이소 포항대잠점 건너편", "region1": "경상북도", "region2": "포항시　남구", "region3": "이동", "zone_id": "22824", "zone_name": "다이소 포항대잠점 건너편"}, {"address": "경북 포항시 남구 오천읍 원리 938 금강산돌구이 뒤편주차장", "car_count": "3", "imaginary": "0", "is_d2d_car_exportable": "ABLE", "lat": "35.967443", "lng": "129.408633", "parking_name": "금강산돌구이 주차장", "region1": "경상북도", "region2": "포항시　남구", "region3": "오천읍", "zone_id": "14858", "zone_name": "오천읍 금강산돌구이"}, {"address": "경북 포항시 남구 오천읍 원리 914-4", "car_count": "5", "imaginary": "0", "is_d2d_car_exportable": "ABLE", "lat": "35.968076", "lng": "129.403576", "parking_name": "오천읍 부영1차 앞", "region1": "경상북도", "region2": "포항시　남구", "region3": "오천읍", "zone_id": "10270", "zone_name": "오천읍 부영1차 앞"}, {"address": "경북 포항시 남구 오천읍 원리 893-20 티월드 문덕점", "car_count": "1", "imaginary": "0", "is_d2d_car_exportable": "ABLE", "lat": "35.967858", "lng": "129.40242", "parking_name": "오천읍 티월드 문덕점", "region1": "경상북도", "region2": "포항시　남구", "region3": "오천읍", "zone_id": "18688", "zone_name": "오천읍 티월드 문덕점"}, {"address": "경북 포항시 남구 오천읍 문덕리 338-3", "car_count": "1", "imaginary": "5", "is_d2d_car_exportable": "ABLE", "lat": "35.958336", "lng": "129.40112", "parking_name": "현대골프스크린 주차장", "region1": "경상북도", "region2": "포항시　남구", "region3": "오천읍", "zone_id": "14941", "zone_name": "오천읍 현대골프스크린"}, {"address": "경북 포항시 남구 이동 646-1 이마트24 뒤편 주차장", "car_count": "1", "imaginary": "0", "is_d2d_car_exportable": "ABLE", "lat": "36.030346", "lng": "129.337969", "parking_name": "이마트24 포항이동점", "region1": "경상북도", "region2": "포항시　남구", "region3": "이동", "zone_id": "11820", "zone_name": "이마트24 포항이동점"}, {"address": "경북 포항시 남구 오천읍 원리 988-6", "car_count": "2", "imaginary": "0", "is_d2d_car_exportable": "ABLE", "lat": "35.964993", "lng": "129.40834", "parking_name": "궁물촌 주차장", "region1": "경상북도", "region2": "포항시　남구", "region3": "오천읍", "zone_id": "4883", "zone_name": "포항 오천읍"}, {"address": "경북 포항시 남구 오천읍 원리 897-1 KGM정비센터 앞 공터주차장", "car_count": "1", "imaginary": "0", "is_d2d_car_exportable": "ABLE", "lat": "35.970524", "lng": "129.406887", "parking_name": "포항 오천읍 원리", "region1": "경상북도", "region2": "포항시　남구", "region3": "오천읍", "zone_id": "19373", "zone_name": "포항 오천읍 원리"}, {"address": "경북 포항시 남구 이동 664-19", "car_count": "1", "imaginary": "0", "is_d2d_car_exportable": "ABLE", "lat": "36.026199", "lng": "129.341074", "parking_name": "포항 이동네거리", "region1": "경상북도", "region2": "포항시　남구", "region3": "이동", "zone_id": "7276", "zone_name": "포항 이동네거리"}, {"address": "경북 포항시 남구 동해면 도구리 403-3 포항공항 주차장", "car_count": "10", "imaginary": "0", "is_d2d_car_exportable": "ABLE", "lat": "35.98296", "lng": "129.434884", "parking_name": "포항경주공항", "region1": "경상북도", "region2": "포항시　남구", "region3": "동해면", "zone_id": "12595", "zone_name": "포항경주공항"}, {"address": "경북 포항시 남구 해도동 415-51", "car_count": "2", "imaginary": "0", "is_d2d_car_exportable": "ABLE", "lat": "36.025059", "lng": "129.367427", "parking_name": "로얄장", "region1": "경상북도", "region2": "포항시　남구", "region3": "해도동", "zone_id": "14083", "zone_name": "포항고속버스터미널"}, {"address": "경북 포항시 남구 이동 650-1 이동상인회 주차장 3층", "car_count": "1", "imaginary": "0", "is_d2d_car_exportable": "ABLE", "lat": "36.029083", "lng": "129.337959", "parking_name": "포항시 이동", "region1": "경상북도", "region2": "포항시　남구", "region3": "이동", "zone_id": "17758", "zone_name": "포항시 이동"}, {"address": "경북 포항시 남구 상도동 601-5 상도유료주차장", "car_count": "2", "imaginary": "0", "is_d2d_car_exportable": "ABLE", "lat": "36.015028", "lng": "129.352427", "parking_name": "포항시외버스터미널 건너", "region1": "경상북도", "region2": "포항시　남구", "region3": "상도동", "zone_id": "19929", "zone_name": "포항시외버스터미널 건너"}, {"address": "경북 포항시 남구 대잠동 930-4", "car_count": "1", "imaginary": "0", "is_d2d_car_exportable": "ABLE", "lat": "36.014916", "lng": "129.348299", "parking_name": "포항시외버스터미널 뒤편", "region1": "경상북도", "region2": "포항시　남구", "region3": "대잠동", "zone_id": "23028", "zone_name": "포항시외버스터미널 뒤편"}, {"address": "경북 포항시 남구 상도동 662-9", "car_count": "5", "imaginary": "3", "is_d2d_car_exportable": "ABLE", "lat": "36.01214", "lng": "129.35048", "parking_name": "포항시외버스터미널 앞", "region1": "경상북도", "region2": "포항시　남구", "region3": "상도동", "zone_id": "13833", "zone_name": "포항시외버스터미널 앞"}, {"address": "경북 포항시 남구 상도동 579-12", "car_count": "6", "imaginary": "0", "is_d2d_car_exportable": "ABLE", "lat": "36.01387", "lng": "129.350128", "parking_name": "신터미널 유료주차장", "region1": "경상북도", "region2": "포항시　남구", "region3": "상도동", "zone_id": "1082", "zone_name": "포항시외버스터미널(터미널 우측)"}, {"address": "경북 포항시 북구 두호동 1103-2", "car_count": "1", "imaginary": "0", "is_d2d_car_exportable": "ABLE", "lat": "36.06396", "lng": "129.371883", "parking_name": "GS더프레시 포항창포점", "region1": "경상북도", "region2": "포항시　북구", "region3": "두호동", "zone_id": "22874", "zone_name": "GS더프레시 포항창포점"}, {"address": "경북 포항시 북구 죽도동 644-5", "car_count": "1", "imaginary": "0", "is_d2d_car_exportable": "ABLE", "lat": "36.020269", "lng": "129.355042", "parking_name": "롯데 하이마트 오광장점", "region1": "경상북도", "region2": "포항시　북구", "region3": "죽도동", "zone_id": "16503", "zone_name": "롯데 하이마트 오광장점"}, {"address": "경북 포항시 북구 대흥동 714-5", "car_count": "1", "imaginary": "0", "is_d2d_car_exportable": "ABLE", "lat": "36.037829", "lng": "129.362201", "parking_name": "롯데시네마 포항점 건너편", "region1": "경상북도", "region2": "포항시　북구", "region3": "대흥동", "zone_id": "19004", "zone_name": "롯데시네마 포항점 건너편"}, {"address": "경북 포항시 북구 양덕동 1761", "car_count": "1", "imaginary": "0", "is_d2d_car_exportable": "ABLE", "lat": "36.082089", "lng": "129.403237", "parking_name": "정대감 참숯화로 주차장", "region1": "경상북도", "region2": "포항시　북구", "region3": "양덕동", "zone_id": "13875", "zone_name": "양덕체육공원 앞"}, {"address": "경북 포항시 북구 장성동 449 유니클로 포항 장성점", "car_count": "1", "imaginary": "0", "is_d2d_car_exportable": "ABLE", "lat": "36.071497", "lng": "129.378468", "parking_name": "유니클로 포항 장성점", "region1": "경상북도", "region2": "포항시　북구", "region3": "장성동", "zone_id": "12161", "zone_name": "유니클로 포항장성점"}, {"address": "경북 포항시 북구 양덕동 462-1", "car_count": "1", "imaginary": "0", "is_d2d_car_exportable": "ABLE", "lat": "36.090482", "lng": "129.387213", "parking_name": "이마트에브리데이 포항양덕점", "region1": "경상북도", "region2": "포항시　북구", "region3": "양덕동", "zone_id": "20879", "zone_name": "이마트에브리데이 포항양덕점"}, {"address": "경북 포항시 북구 죽도동 73-33", "car_count": "1", "imaginary": "0", "is_d2d_car_exportable": "ABLE", "lat": "36.031284", "lng": "129.36365", "parking_name": "죽도주차장", "region1": "경상북도", "region2": "포항시　북구", "region3": "죽도동", "zone_id": "13984", "zone_name": "죽도동 행정복지센터 앞"}, {"address": "경북 포항시 북구 죽도동 106-8", "car_count": "2", "imaginary": "0", "is_d2d_car_exportable": "ABLE", "lat": "36.027847", "lng": "129.361828", "parking_name": "죽도파출소 앞", "region1": "경상북도", "region2": "포항시　북구", "region3": "죽도동", "zone_id": "13976", "zone_name": "죽도파출소 앞"}, {"address": "경북 포항시 북구 동빈1가 68-1 노블리안 채움병원주차장", "car_count": "1", "imaginary": "0", "is_d2d_car_exportable": "ABLE", "lat": "36.046069", "lng": "129.370386", "parking_name": "포항 채움병원 주차장", "region1": "경상북도", "region2": "포항시　북구", "region3": "동빈1가", "zone_id": "11745", "zone_name": "채움병원"}, {"address": "경북 포항시 북구 두호동 1039-4", "car_count": "1", "imaginary": "0", "is_d2d_car_exportable": "ABLE", "lat": "36.057372", "lng": "129.377153", "parking_name": "티스테이션 포항두호점", "region1": "경상북도", "region2": "포항시　북구", "region3": "두호동", "zone_id": "16332", "zone_name": "티스테이션 포항두호점"}, {"address": "경북 포항시 북구 죽도동 113-32 뉴대보스파", "car_count": "1", "imaginary": "0", "is_d2d_car_exportable": "ABLE", "lat": "36.028569", "lng": "129.360633", "parking_name": "뉴대보스파주차장", "region1": "경상북도", "region2": "포항시　북구", "region3": "죽도동", "zone_id": "14856", "zone_name": "포항 뉴대보스파"}, {"address": "경북 포항시 북구 죽도동 609-3", "car_count": "1", "imaginary": "0", "is_d2d_car_exportable": "ABLE", "lat": "36.025013", "lng": "129.35862", "parking_name": "포항 동양빌딩사거리", "region1": "경상북도", "region2": "포항시　북구", "region3": "죽도동", "zone_id": "23119", "zone_name": "포항 동양빌딩사거리"}, {"address": "경북 포항시 북구 장성동 1291 로타리세차장 주차장", "car_count": "2", "imaginary": "0", "is_d2d_car_exportable": "ABLE", "lat": "36.06384", "lng": "129.37955", "parking_name": "로타리세차장", "region1": "경상북도", "region2": "포항시　북구", "region3": "장성동", "zone_id": "17546", "zone_name": "포항 두호공원 옆(로타리)"}, {"address": "경북 포항시 북구 죽도동 20-141", "car_count": "1", "imaginary": "0", "is_d2d_car_exportable": "ABLE", "lat": "36.033655", "lng": "129.369675", "parking_name": "포항 송도교사거리", "region1": "경상북도", "region2": "포항시　북구", "region3": "죽도동", "zone_id": "23118", "zone_name": "포항 송도교사거리"}, {"address": "경북 포항시 북구 양덕동 1570 대구은행 양덕주차빌딩", "car_count": "1", "imaginary": "0", "is_d2d_car_exportable": "ABLE", "lat": "36.082747", "lng": "129.399622", "parking_name": "포항 양덕동", "region1": "경상북도", "region2": "포항시　북구", "region3": "양덕동", "zone_id": "14857", "zone_name": "포항 양덕동"}, {"address": "경북 포항시 북구 두호동 1030-9", "car_count": "2", "imaginary": "0", "is_d2d_car_exportable": "ABLE", "lat": "36.060234", "lng": "129.377823", "parking_name": "퀸유료주차장", "region1": "경상북도", "region2": "포항시　북구", "region3": "두호동", "zone_id": "4166", "zone_name": "포항 영일대해수욕장"}, {"address": "경북 포항시 북구 죽도동 97-2", "car_count": "2", "imaginary": "0", "is_d2d_car_exportable": "ABLE", "lat": "36.032131", "lng": "129.366547", "parking_name": "승민 유료 주차장", "region1": "경상북도", "region2": "포항시　북구", "region3": "죽도동", "zone_id": "4726", "zone_name": "포항 오거리"}, {"address": "경북 포항시 북구 신흥동 701-7", "car_count": "1", "imaginary": "0", "is_d2d_car_exportable": "ABLE", "lat": "36.039279", "lng": "129.362919", "parking_name": "용인주차장", "region1": "경상북도", "region2": "포항시　북구", "region3": "신흥동", "zone_id": "8871", "zone_name": "포항 전화국 사거리"}, {"address": "경북 포항시 북구 상원동 449-1 신한은행 신한은행 포항점", "car_count": "1", "imaginary": "0", "is_d2d_car_exportable": "ABLE", "lat": "36.037993", "lng": "129.3661", "parking_name": "포항 중앙상가네거리", "region1": "경상북도", "region2": "포항시　북구", "region3": "상원동", "zone_id": "17466", "zone_name": "포항 중앙상가네거리"}, {"address": "경북 포항시 북구 창포동 630-4", "car_count": "2", "imaginary": "0", "is_d2d_car_exportable": "ABLE", "lat": "36.061259", "lng": "129.370223", "parking_name": "포항 창포사거리", "region1": "경상북도", "region2": "포항시　북구", "region3": "창포동", "zone_id": "15385", "zone_name": "포항 창포사거리"}, {"address": "경상북도 포항시 북구 흥해읍 죽천리 404", "car_count": "1", "imaginary": "0", "is_d2d_car_exportable": "ABLE", "lat": "36.082897", "lng": "129.409777", "parking_name": "포항대학교 옆", "region1": "경상북도", "region2": "포항시　북구", "region3": "흥해읍", "zone_id": "23026", "zone_name": "포항대학교 옆"}, {"address": "경북 포항시 북구 흥해읍 이인리 114", "car_count": "14", "imaginary": "0", "is_d2d_car_exportable": "ABLE", "lat": "36.073254", "lng": "129.340723", "parking_name": "포항역(KTX) 앞 주유카드전용", "region1": "경상북도", "region2": "포항시　북구", "region3": "흥해읍", "zone_id": "9650", "zone_name": "포항역(KTX) 앞 주유카드전용"}, {"address": "경북 포항시 북구 흥해읍 이인리 95 포항역", "car_count": "29", "imaginary": "0", "is_d2d_car_exportable": "ABLE", "lat": "36.072812", "lng": "129.34213", "parking_name": "포항역(KTX) 주유카드전용", "region1": "경상북도", "region2": "포항시　북구", "region3": "흥해읍", "zone_id": "1977", "zone_name": "포항역(KTX) 주유카드전용"}, {"address": "경북 포항시 북구 죽도동 74-1", "car_count": "1", "imaginary": "0", "is_d2d_car_exportable": "ABLE", "lat": "36.032099", "lng": "129.364235", "parking_name": "홈플러스 죽도점 건너편", "region1": "경상북도", "region2": "포항시　북구", "region3": "죽도동", "zone_id": "22451", "zone_name": "홈플러스 죽도점 건너편"}, {"address": "경북 포항시 북구 양덕동 1714 홍익돈까스 포항양덕점", "car_count": "2", "imaginary": "0", "is_d2d_car_exportable": "ABLE", "lat": "36.079767", "lng": "129.401654", "parking_name": "홍익돈까스 포항양덕점", "region1": "경상북도", "region2": "포항시　북구", "region3": "양덕동", "zone_id": "17749", "zone_name": "홍익돈까스 포항양덕점"}]