[{"lat": "35.15392812761431", "lng": "129.06281411227226", "region2": "부산진구", "sig_name": "부산광역시 부산진구", "total_cars": "6", "zone_id": "2257", "zone_name": "전포역 7번출구(EV)"}, {"lat": "35.17638304574464", "lng": "128.95065331092076", "region2": "강서구", "sig_name": "부산광역시 강서구", "total_cars": "6", "zone_id": "10671", "zone_name": "김해공항 도보(EV)"}, {"lat": "35.114644368376986", "lng": "129.03890567543706", "region2": "동구", "sig_name": "부산광역시 동구", "total_cars": "5", "zone_id": "2326", "zone_name": "부산역 5번출구(EV)"}, {"lat": "35.1167749463235", "lng": "129.04249170050014", "region2": "동구", "sig_name": "부산광역시 동구", "total_cars": "5", "zone_id": "9962", "zone_name": "부산역KTX 6번출구(EV)"}, {"lat": "35.11699028198906", "lng": "129.04228046722076", "region2": "동구", "sig_name": "부산광역시 동구", "total_cars": "5", "zone_id": "10806", "zone_name": "아스티호텔 옆(EV)"}, {"lat": "35.17951330117115", "lng": "128.56072411383857", "region2": "창원시　마산합포구", "sig_name": "경상남도 창원시 마산합포구", "total_cars": "5", "zone_id": "7527", "zone_name": "GS더프레시 마산점"}, {"lat": "35.138188291720255", "lng": "129.10069369533016", "region2": "남구", "sig_name": "부산광역시 남구", "total_cars": "4", "zone_id": "8304", "zone_name": "경성대부경대역 2번출구"}, {"lat": "35.147740324230575", "lng": "129.05999682542495", "region2": "부산진구", "sig_name": "부산광역시 부산진구", "total_cars": "4", "zone_id": "1644", "zone_name": "범내골역 6번출구"}, {"lat": "34.8892950204941", "lng": "128.624679585174", "region2": "거제시", "sig_name": "경상남도 거제시", "total_cars": "4", "zone_id": "10206", "zone_name": "고현버스터미널"}, {"lat": "35.16033314805657", "lng": "129.11492620637583", "region2": "수영구", "sig_name": "부산광역시 수영구", "total_cars": "4", "zone_id": "12289", "zone_name": "BHS한서병원 앞"}, {"lat": "34.8904204220826", "lng": "128.619616670864", "region2": "거제시", "sig_name": "경상남도 거제시", "total_cars": "4", "zone_id": "11295", "zone_name": "거제한전 옆"}, {"lat": "35.1813516068433", "lng": "128.558201680533", "region2": "창원시　마산합포구", "sig_name": "경상남도 창원시 마산합포구", "total_cars": "4", "zone_id": "9838", "zone_name": "월영마크리움"}, {"lat": "35.221625833996114", "lng": "129.0872226207656", "region2": "금정구", "sig_name": "부산광역시 금정구", "total_cars": "4", "zone_id": "2245", "zone_name": "온천장역 4번출구(EV)"}, {"lat": "35.153609627682414", "lng": "129.02150762010362", "region2": "부산진구", "sig_name": "부산광역시 부산진구", "total_cars": "4", "zone_id": "7607", "zone_name": "개금역 2번출구"}, {"lat": "35.158184304534174", "lng": "128.10523006698347", "region2": "진주시", "sig_name": "경상남도 진주시", "total_cars": "4", "zone_id": "11421", "zone_name": "가좌길 노상공영주차장"}, {"lat": "35.111343184254515", "lng": "128.96440303930277", "region2": "사하구", "sig_name": "부산광역시 사하구", "total_cars": "4", "zone_id": "8285", "zone_name": "동아대 승학캠퍼스 맞은편"}, {"lat": "35.16938773624567", "lng": "129.17869688984197", "region2": "해운대구", "sig_name": "부산광역시 해운대구", "total_cars": "4", "zone_id": "8778", "zone_name": "장산역 1번출구"}, {"lat": "35.13694372508576", "lng": "129.0983621407986", "region2": "남구", "sig_name": "부산광역시 남구", "total_cars": "4", "zone_id": "9329", "zone_name": "경성대부경대역 6번출구(세웅빌딩)"}, {"lat": "35.21198711784636", "lng": "129.01082355583705", "region2": "북구", "sig_name": "부산광역시 북구", "total_cars": "3", "zone_id": "8948", "zone_name": "숙등역 6번출구(EV)"}, {"lat": "35.221310901230595", "lng": "128.68001696437838", "region2": "창원시　성산구", "sig_name": "경상남도 창원시 성산구", "total_cars": "3", "zone_id": "11033", "zone_name": "우리은행 창원금융센터"}, {"lat": "35.209835173958815", "lng": "129.03612158639845", "region2": "북구", "sig_name": "부산광역시 북구", "total_cars": "3", "zone_id": "9977", "zone_name": "만덕2동 주민센터 앞"}, {"lat": "35.098248235002636", "lng": "128.9932208325693", "region2": "사하구", "sig_name": "부산광역시 사하구", "total_cars": "3", "zone_id": "11909", "zone_name": "괴정역 6번출구"}, {"lat": "35.2630786871878", "lng": "128.87115012695", "region2": "김해시", "sig_name": "경상남도 김해시", "total_cars": "3", "zone_id": "12274", "zone_name": "가야아이파크4단지 앞"}, {"lat": "35.256704084019916", "lng": "128.6063581571585", "region2": "창원시　의창구", "sig_name": "경상남도 창원시 의창구", "total_cars": "3", "zone_id": "10184", "zone_name": "창원역KTX"}, {"lat": "35.152926992071", "lng": "128.107008092619", "region2": "진주시", "sig_name": "경상남도 진주시", "total_cars": "3", "zone_id": "6038", "zone_name": "경상대학교 앞"}, {"lat": "35.1542139489528", "lng": "129.05733505841", "region2": "부산진구", "sig_name": "부산광역시 부산진구", "total_cars": "3", "zone_id": "11254", "zone_name": "KT&G상상마당 부산"}, {"lat": "35.149729463493316", "lng": "129.00091159055648", "region2": "사상구", "sig_name": "부산광역시 사상구", "total_cars": "3", "zone_id": "1736", "zone_name": "주례역 7번출구"}, {"lat": "35.149260354193494", "lng": "129.0069478575938", "region2": "사상구", "sig_name": "부산광역시 사상구", "total_cars": "3", "zone_id": "10156", "zone_name": "주례여중 뒤편"}, {"lat": "35.17661084631936", "lng": "128.09262779364863", "region2": "진주시", "sig_name": "경상남도 진주시", "total_cars": "3", "zone_id": "13374", "zone_name": "코지하우스 진주경상대점"}, {"lat": "35.10940703615194", "lng": "129.01744557483403", "region2": "서구", "sig_name": "부산광역시 서구", "total_cars": "3", "zone_id": "7311", "zone_name": "동대신역 8번출구"}, {"lat": "35.25907032692668", "lng": "129.0902453730417", "region2": "금정구", "sig_name": "부산광역시 금정구", "total_cars": "3", "zone_id": "12807", "zone_name": "맥도날드 구서DT점 뒤"}, {"lat": "35.176796895408906", "lng": "129.07542934803777", "region2": "부산진구", "sig_name": "부산광역시 부산진구", "total_cars": "3", "zone_id": "2263", "zone_name": "부산시청역 2번출구"}, {"lat": "35.212259780530964", "lng": "129.07675405261702", "region2": "동래구", "sig_name": "부산광역시 동래구", "total_cars": "3", "zone_id": "7611", "zone_name": "롯데마트 동래점 뒤"}, {"lat": "35.204508887352965", "lng": "129.08157470344665", "region2": "동래구", "sig_name": "부산광역시 동래구", "total_cars": "3", "zone_id": "12364", "zone_name": "메가마트 동래점"}, {"lat": "35.2231620433276", "lng": "128.678481423593", "region2": "창원시　성산구", "sig_name": "경상남도 창원시 성산구", "total_cars": "3", "zone_id": "7568", "zone_name": "창원중앙(라큐비 오피스텔)"}, {"lat": "35.19030871635834", "lng": "129.08293734790257", "region2": "연제구", "sig_name": "부산광역시 연제구", "total_cars": "3", "zone_id": "9150", "zone_name": "연산센터빌 옆"}, {"lat": "35.2402900354291", "lng": "128.585021828394", "region2": "창원시　마산회원구", "sig_name": "경상남도 창원시 마산회원구", "total_cars": "3", "zone_id": "6063", "zone_name": "마산시외버스터미널 옆"}, {"lat": "35.13423967802431", "lng": "129.0986382355811", "region2": "남구", "sig_name": "부산광역시 남구", "total_cars": "3", "zone_id": "12493", "zone_name": "대연성당 뒤"}, {"lat": "35.5423619", "lng": "129.26086239999995", "region2": "남구", "sig_name": "울산광역시 남구", "total_cars": "2", "zone_id": "8237", "zone_name": "롯데리아 울산대학점(EV)"}, {"lat": "35.208725921517086", "lng": "128.70782967867106", "region2": "창원시　성산구", "sig_name": "경상남도 창원시 성산구", "total_cars": "2", "zone_id": "7525", "zone_name": "GS더프레시 대방점"}, {"lat": "35.20316423831594", "lng": "129.06867836271658", "region2": "동래구", "sig_name": "부산광역시 동래구", "total_cars": "2", "zone_id": "12419", "zone_name": "미남역 2번출구"}, {"lat": "35.197295458007", "lng": "128.084381457098", "region2": "진주시", "sig_name": "경상남도 진주시", "total_cars": "2", "zone_id": "11548", "zone_name": "갤러리아백화점 진주점 앞"}, {"lat": "35.213638755060806", "lng": "129.107279767838", "region2": "금정구", "sig_name": "부산광역시 금정구", "total_cars": "2", "zone_id": "13191", "zone_name": "서동역 3번출구"}, {"lat": "35.100253736363335", "lng": "129.02270632341265", "region2": "서구", "sig_name": "부산광역시 서구", "total_cars": "2", "zone_id": "11864", "zone_name": "부산자동차직업학교 옆"}, {"lat": "35.229624493492004", "lng": "129.08886352399927", "region2": "금정구", "sig_name": "부산광역시 금정구", "total_cars": "2", "zone_id": "8307", "zone_name": "부산대역 1번출구"}, {"lat": "35.229364943867", "lng": "129.08601786526265", "region2": "금정구", "sig_name": "부산광역시 금정구", "total_cars": "2", "zone_id": "9720", "zone_name": "부산대 사거리"}, {"lat": "35.206060991415725", "lng": "129.08262992992024", "region2": "동래구", "sig_name": "부산광역시 동래구", "total_cars": "2", "zone_id": "12239", "zone_name": "명륜초등학교 앞"}, {"lat": "35.26788432807707", "lng": "129.0919565583893", "region2": "금정구", "sig_name": "부산광역시 금정구", "total_cars": "2", "zone_id": "10799", "zone_name": "남산역 7번출구"}, {"lat": "35.17541345839261", "lng": "128.80582229701403", "region2": "김해시", "sig_name": "경상남도 김해시", "total_cars": "2", "zone_id": "11692", "zone_name": "율곡마을 세영리첼아파트 뒤"}, {"lat": "35.1797085872158", "lng": "128.105009057045", "region2": "진주시", "sig_name": "경상남도 진주시", "total_cars": "2", "zone_id": "1971", "zone_name": "진주시청 사거리"}, {"lat": "35.19632623333672", "lng": "129.05846534775995", "region2": "동래구", "sig_name": "부산광역시 동래구", "total_cars": "2", "zone_id": "11751", "zone_name": "예원초등학교 뒤편"}, {"lat": "35.1753904117407", "lng": "128.148323354629", "region2": "진주시", "sig_name": "경상남도 진주시", "total_cars": "2", "zone_id": "11096", "zone_name": "세븐일레븐 진주혁신희망점"}, {"lat": "35.16088437509849", "lng": "128.98281942796956", "region2": "사상구", "sig_name": "부산광역시 사상구", "total_cars": "2", "zone_id": "1533", "zone_name": "사상역 1번출구(EV)"}, {"lat": "35.20633928747284", "lng": "129.10186088894065", "region2": "동래구", "sig_name": "부산광역시 동래구", "total_cars": "2", "zone_id": "7509", "zone_name": "GS더프레시 명장점(EV)"}, {"lat": "35.2027166427398", "lng": "128.806873048476", "region2": "김해시", "sig_name": "경상남도 김해시", "total_cars": "2", "zone_id": "8949", "zone_name": "장유 건강지원센터 옆"}, {"lat": "35.5486057876738", "lng": "129.139183582111", "region2": "울주군", "sig_name": "울산광역시 울주군", "total_cars": "2", "zone_id": "10663", "zone_name": "울산역KTX 옆(EV)"}, {"lat": "35.23090242192133", "lng": "128.8949771695535", "region2": "김해시", "sig_name": "경상남도 김해시", "total_cars": "2", "zone_id": "11270", "zone_name": "유한미소안아파트 옆"}, {"lat": "35.2269525339517", "lng": "128.88370752137", "region2": "김해시", "sig_name": "경상남도 김해시", "total_cars": "2", "zone_id": "13976", "zone_name": "부원역 그린코아더센텀"}, {"lat": "35.2455649977946", "lng": "128.904633609027", "region2": "김해시", "sig_name": "경상남도 김해시", "total_cars": "2", "zone_id": "8280", "zone_name": "인제대학교 앞"}, {"lat": "35.2330434876856", "lng": "128.867140589321", "region2": "김해시", "sig_name": "경상남도 김해시", "total_cars": "2", "zone_id": "14206", "zone_name": "덕산베스트타운아파트 앞"}, {"lat": "35.1725504221965", "lng": "128.98402379361244", "region2": "사상구", "sig_name": "부산광역시 사상구", "total_cars": "2", "zone_id": "2221", "zone_name": "덕포역 2번출구"}, {"lat": "35.2332382281303", "lng": "128.865633597096", "region2": "김해시", "sig_name": "경상남도 김해시", "total_cars": "2", "zone_id": "7592", "zone_name": "내외동 주민센터 옆"}, {"lat": "35.10747422498822", "lng": "128.96694509924012", "region2": "사하구", "sig_name": "부산광역시 사하구", "total_cars": "2", "zone_id": "12713", "zone_name": "하단역 7번출구"}, {"lat": "35.10561815109877", "lng": "128.96299458940086", "region2": "사하구", "sig_name": "부산광역시 사하구", "total_cars": "2", "zone_id": "9483", "zone_name": "하단역 2번출구"}, {"lat": "35.10325013904398", "lng": "128.97046781547493", "region2": "사하구", "sig_name": "부산광역시 사하구", "total_cars": "2", "zone_id": "10032", "zone_name": "당리역 2번출구"}, {"lat": "35.24231872040691", "lng": "128.86806637586008", "region2": "김해시", "sig_name": "경상남도 김해시", "total_cars": "2", "zone_id": "12511", "zone_name": "CGV 김해"}, {"lat": "35.23609773390345", "lng": "129.009406659649", "region2": "북구", "sig_name": "부산광역시 북구", "total_cars": "2", "zone_id": "1535", "zone_name": "대우이안아파트 앞(EV)"}, {"lat": "35.0945918846532", "lng": "128.9598708761792", "region2": "사하구", "sig_name": "부산광역시 사하구", "total_cars": "2", "zone_id": "1211", "zone_name": "신평역 3번출구"}, {"lat": "35.13989653658903", "lng": "129.10656431406392", "region2": "수영구", "sig_name": "부산광역시 수영구", "total_cars": "2", "zone_id": "12509", "zone_name": "부산남천엑슬루타워"}, {"lat": "35.32050405279973", "lng": "129.17545244749067", "region2": "기장군", "sig_name": "부산광역시 기장군", "total_cars": "2", "zone_id": "8570", "zone_name": "로얄듀크2차아파트 뒤편"}, {"lat": "35.1373781404883", "lng": "129.07268716693017", "region2": "남구", "sig_name": "부산광역시 남구", "total_cars": "2", "zone_id": "12690", "zone_name": "메가마트 문현점"}, {"lat": "35.137420770672016", "lng": "129.10143228523268", "region2": "남구", "sig_name": "부산광역시 남구", "total_cars": "2", "zone_id": "7970", "zone_name": "리마크빌 부산대연점"}, {"lat": "35.055453740623875", "lng": "128.97092680861763", "region2": "사하구", "sig_name": "부산광역시 사하구", "total_cars": "2", "zone_id": "12998", "zone_name": "다대포항역 2번출구"}, {"lat": "35.134939439300574", "lng": "129.0995996075819", "region2": "남구", "sig_name": "부산광역시 남구", "total_cars": "2", "zone_id": "11109", "zone_name": "부경대 정문 맞은편"}, {"lat": "35.14860266141212", "lng": "129.1111019909282", "region2": "수영구", "sig_name": "부산광역시 수영구", "total_cars": "2", "zone_id": "12287", "zone_name": "신한은행 광안리지점"}, {"lat": "35.170674926610715", "lng": "129.05115257738143", "region2": "부산진구", "sig_name": "부산광역시 부산진구", "total_cars": "2", "zone_id": "11740", "zone_name": "연지동 새마을금고 앞"}, {"lat": "35.14959047934792", "lng": "129.11497998613532", "region2": "수영구", "sig_name": "부산광역시 수영구", "total_cars": "2", "zone_id": "11328", "zone_name": "광안지웰에스테이트오피스텔"}, {"lat": "35.13407407091774", "lng": "129.09310522993354", "region2": "남구", "sig_name": "부산광역시 남구", "total_cars": "2", "zone_id": "13953", "zone_name": "스타벅스 부산대연역점 뒤"}, {"lat": "35.211197020544105", "lng": "129.00651426392304", "region2": "북구", "sig_name": "부산광역시 북구", "total_cars": "2", "zone_id": "12510", "zone_name": "덕천역 12번출구"}, {"lat": "35.081763735031906", "lng": "128.08486774718114", "region2": "사천시", "sig_name": "경상남도 사천시", "total_cars": "2", "zone_id": "13086", "zone_name": "KT플라자 사천점 앞"}, {"lat": "35.210623856546704", "lng": "129.00414874739687", "region2": "북구", "sig_name": "부산광역시 북구", "total_cars": "2", "zone_id": "1742", "zone_name": "덕천역 5번출구"}, {"lat": "35.1002799558736", "lng": "128.814353881213", "region2": "창원시　진해구", "sig_name": "경상남도 창원시 진해구", "total_cars": "2", "zone_id": "12301", "zone_name": "용원동 공영주차빌딩"}, {"lat": "35.15304609294874", "lng": "128.66216603377458", "region2": "창원시　진해구", "sig_name": "경상남도 창원시 진해구", "total_cars": "2", "zone_id": "7522", "zone_name": "GS더프레시 진해여좌점"}, {"lat": "35.1555163963381", "lng": "129.05645712458298", "region2": "부산진구", "sig_name": "부산광역시 부산진구", "total_cars": "2", "zone_id": "12331", "zone_name": "부전동 더토포필리아 오피스텔"}, {"lat": "35.18421914770678", "lng": "129.10834456373354", "region2": "연제구", "sig_name": "부산광역시 연제구", "total_cars": "2", "zone_id": "13912", "zone_name": "부산소방재난본부 앞"}, {"lat": "35.2384946820099", "lng": "128.697511512843", "region2": "창원시　의창구", "sig_name": "경상남도 창원시 의창구", "total_cars": "2", "zone_id": "12413", "zone_name": "창원 센트럴애비뉴오피스텔"}, {"lat": "35.55441072846865", "lng": "129.30856982394255", "region2": "중구", "sig_name": "울산광역시 중구", "total_cars": "2", "zone_id": "7528", "zone_name": "GS더프레시 태화점"}, {"lat": "35.15510576514516", "lng": "129.06033659735647", "region2": "부산진구", "sig_name": "부산광역시 부산진구", "total_cars": "2", "zone_id": "1451", "zone_name": "쥬디스태화 신관"}, {"lat": "35.566746302166976", "lng": "129.3413021468705", "region2": "중구", "sig_name": "울산광역시 중구", "total_cars": "2", "zone_id": "11685", "zone_name": "파스쿠찌 중구무궁화점"}, {"lat": "35.194306790740406", "lng": "129.07172100574869", "region2": "연제구", "sig_name": "부산광역시 연제구", "total_cars": "2", "zone_id": "12402", "zone_name": "부산연제우체국 옆"}, {"lat": "35.567835473070474", "lng": "129.3415825398985", "region2": "중구", "sig_name": "울산광역시 중구", "total_cars": "2", "zone_id": "8106", "zone_name": "병영오거리"}, {"lat": "35.16693066133967", "lng": "129.11595992295523", "region2": "수영구", "sig_name": "부산광역시 수영구", "total_cars": "2", "zone_id": "9828", "zone_name": "수영역 7번출구"}, {"lat": "35.1510345651856", "lng": "129.059622338304", "region2": "부산진구", "sig_name": "부산광역시 부산진구", "total_cars": "2", "zone_id": "13633", "zone_name": "서면푸르지오시티 시그니처"}, {"lat": "35.18202486360353", "lng": "129.07557822914805", "region2": "연제구", "sig_name": "부산광역시 연제구", "total_cars": "2", "zone_id": "1650", "zone_name": "부산시청역 7번출구(EV)"}, {"lat": "34.8854167085055", "lng": "128.418388622058", "region2": "통영시", "sig_name": "경상남도 통영시", "total_cars": "2", "zone_id": "9449", "zone_name": "통영종합버스터미널 앞"}, {"lat": "34.88610946571618", "lng": "128.41723606650976", "region2": "통영시", "sig_name": "경상남도 통영시", "total_cars": "2", "zone_id": "10813", "zone_name": "이마트 통영점"}, {"lat": "34.8871634002563", "lng": "128.60839781509", "region2": "거제시", "sig_name": "경상남도 거제시", "total_cars": "2", "zone_id": "9996", "zone_name": "덕산아내2차아파트 앞"}, {"lat": "35.6299235655949", "lng": "129.334584614366", "region2": "북구", "sig_name": "울산광역시 북구", "total_cars": "2", "zone_id": "12283", "zone_name": "자연애푸드마켓 천곡점"}, {"lat": "35.519176578800874", "lng": "129.43082476946418", "region2": "동구", "sig_name": "울산광역시 동구", "total_cars": "2", "zone_id": "7975", "zone_name": "라한호텔 울산"}, {"lat": "35.52171638594665", "lng": "129.43099232052575", "region2": "동구", "sig_name": "울산광역시 동구", "total_cars": "2", "zone_id": "13630", "zone_name": "현대백화점 울산동구점"}, {"lat": "35.373135447231675", "lng": "129.15072141263735", "region2": "양산시", "sig_name": "경상남도 양산시", "total_cars": "2", "zone_id": "12363", "zone_name": "메가마트 덕계점"}, {"lat": "35.3105716526763", "lng": "129.005277309071", "region2": "양산시", "sig_name": "경상남도 양산시", "total_cars": "2", "zone_id": "10317", "zone_name": "양산세무서"}, {"lat": "35.229774659664095", "lng": "129.15189915617395", "region2": "해운대구", "sig_name": "부산광역시 해운대구", "total_cars": "2", "zone_id": "12302", "zone_name": "반송2동 공영주차장"}, {"lat": "35.09847235449449", "lng": "129.0293516726241", "region2": "중구", "sig_name": "부산광역시 중구", "total_cars": "2", "zone_id": "7665", "zone_name": "남포동 BIFF광장"}, {"lat": "35.2375575567921", "lng": "128.582373286543", "region2": "창원시　마산회원구", "sig_name": "경상남도 창원시 마산회원구", "total_cars": "2", "zone_id": "9444", "zone_name": "CGV 마산점"}, {"lat": "35.1971728111025", "lng": "129.123091323814", "region2": "해운대구", "sig_name": "부산광역시 해운대구", "total_cars": "2", "zone_id": "13306", "zone_name": "무정초등학교 앞"}, {"lat": "35.235624752861774", "lng": "128.57980205594015", "region2": "창원시　마산회원구", "sig_name": "경상남도 창원시 마산회원구", "total_cars": "2", "zone_id": "9431", "zone_name": "마산역 옆(EV)"}, {"lat": "35.53581928383416", "lng": "129.33880630325004", "region2": "남구", "sig_name": "울산광역시 남구", "total_cars": "2", "zone_id": "12779", "zone_name": "울산시외버스터미널 옆"}, {"lat": "35.17111134030704", "lng": "129.1662565984324", "region2": "해운대구", "sig_name": "부산광역시 해운대구", "total_cars": "2", "zone_id": "13602", "zone_name": "좌3동 행정복지센터 옆"}, {"lat": "35.10257500695676", "lng": "129.0339692407261", "region2": "중구", "sig_name": "부산광역시 중구", "total_cars": "2", "zone_id": "11742", "zone_name": "중앙역 5번출구"}, {"lat": "35.16821658596383", "lng": "129.17039935711736", "region2": "해운대구", "sig_name": "부산광역시 해운대구", "total_cars": "2", "zone_id": "13929", "zone_name": "탑마트 해운대점 옆"}, {"lat": "35.5351155401491", "lng": "129.329999729869", "region2": "남구", "sig_name": "울산광역시 남구", "total_cars": "2", "zone_id": "13525", "zone_name": "스타벅스 울산번영로DT점 앞"}, {"lat": "35.53772028622951", "lng": "129.3267131148011", "region2": "남구", "sig_name": "울산광역시 남구", "total_cars": "2", "zone_id": "2473", "zone_name": "울산 번영사거리"}, {"lat": "35.103766996325504", "lng": "129.0371896579364", "region2": "중구", "sig_name": "부산광역시 중구", "total_cars": "2", "zone_id": "1593", "zone_name": "중앙역 6번출구"}, {"lat": "35.533872942701294", "lng": "129.3192810110128", "region2": "남구", "sig_name": "울산광역시 남구", "total_cars": "2", "zone_id": "11884", "zone_name": "굿모닝병원 뒤"}, {"lat": "34.8856601860791", "lng": "128.625427576942", "region2": "거제시", "sig_name": "경상남도 거제시", "total_cars": "2", "zone_id": "7335", "zone_name": "고현사거리 앞"}, {"lat": "35.22583614799211", "lng": "128.67928653311296", "region2": "창원시　성산구", "sig_name": "경상남도 창원시 성산구", "total_cars": "2", "zone_id": "14089", "zone_name": "이마트 창원점"}, {"lat": "34.8672716445709", "lng": "128.690008091376", "region2": "거제시", "sig_name": "경상남도 거제시", "total_cars": "2", "zone_id": "10207", "zone_name": "아주비지니스호텔 앞"}, {"lat": "35.533606720371345", "lng": "129.3159153830907", "region2": "남구", "sig_name": "울산광역시 남구", "total_cars": "2", "zone_id": "2490", "zone_name": "롯데마트 울산점"}, {"lat": "35.221521481441", "lng": "128.682322669278", "region2": "창원시　성산구", "sig_name": "경상남도 창원시 성산구", "total_cars": "2", "zone_id": "6090", "zone_name": "상남시장 입구"}, {"lat": "35.2194351911619", "lng": "128.68284540469", "region2": "창원시　성산구", "sig_name": "경상남도 창원시 성산구", "total_cars": "2", "zone_id": "13396", "zone_name": "상남오거리 옆"}, {"lat": "35.2220321065845", "lng": "128.685820474671", "region2": "창원시　성산구", "sig_name": "경상남도 창원시 성산구", "total_cars": "2", "zone_id": "1944", "zone_name": "상남시장 사거리"}, {"lat": "35.113485908963746", "lng": "129.0401104888554", "region2": "동구", "sig_name": "부산광역시 동구", "total_cars": "2", "zone_id": "6040", "zone_name": "부산역 2번출구"}, {"lat": "35.536955864438056", "lng": "129.31622661017462", "region2": "남구", "sig_name": "울산광역시 남구", "total_cars": "1", "zone_id": "13997", "zone_name": "달동 행정복지센터 앞"}, {"lat": "35.099122372730044", "lng": "129.03396980001273", "region2": "중구", "sig_name": "부산광역시 중구", "total_cars": "1", "zone_id": "11786", "zone_name": "남포역 7번출구"}, {"lat": "35.54916238571475", "lng": "129.26097827390285", "region2": "남구", "sig_name": "울산광역시 남구", "total_cars": "1", "zone_id": "13225", "zone_name": "KT서울산지점 옆"}, {"lat": "35.5512475154464", "lng": "129.259635220122", "region2": "남구", "sig_name": "울산광역시 남구", "total_cars": "1", "zone_id": "13078", "zone_name": "무거동 공영주차장"}, {"lat": "35.5335810392834", "lng": "129.297680256277", "region2": "남구", "sig_name": "울산광역시 남구", "total_cars": "1", "zone_id": "9264", "zone_name": "하나로마트 옥동점"}, {"lat": "35.54107019508382", "lng": "129.3093664727505", "region2": "남구", "sig_name": "울산광역시 남구", "total_cars": "1", "zone_id": "12279", "zone_name": "울산축산농협본점 앞"}, {"lat": "35.2197931359108", "lng": "128.681738104564", "region2": "창원시　성산구", "sig_name": "경상남도 창원시 성산구", "total_cars": "1", "zone_id": "13389", "zone_name": "마디미광장 옆"}, {"lat": "35.23481540622114", "lng": "128.66945401693766", "region2": "창원시　성산구", "sig_name": "경상남도 창원시 성산구", "total_cars": "1", "zone_id": "1970", "zone_name": "노블파크주상가"}, {"lat": "35.169839308860716", "lng": "129.13109369842687", "region2": "해운대구", "sig_name": "부산광역시 해운대구", "total_cars": "1", "zone_id": "1453", "zone_name": "롯데백화점 센텀시티점"}, {"lat": "35.0979690318585", "lng": "129.03342304501604", "region2": "중구", "sig_name": "부산광역시 중구", "total_cars": "1", "zone_id": "13586", "zone_name": "남포역 1번출구"}, {"lat": "35.162971572757996", "lng": "129.15844700279672", "region2": "해운대구", "sig_name": "부산광역시 해운대구", "total_cars": "1", "zone_id": "2539", "zone_name": "해운대역 7번출구(EV)"}, {"lat": "35.16526986064756", "lng": "129.16763245506831", "region2": "해운대구", "sig_name": "부산광역시 해운대구", "total_cars": "1", "zone_id": "13737", "zone_name": "이마트 해운대점"}, {"lat": "35.5374153521652", "lng": "129.337667037281", "region2": "남구", "sig_name": "울산광역시 남구", "total_cars": "1", "zone_id": "13190", "zone_name": "삼산공영주차장 옆"}, {"lat": "35.53866647767492", "lng": "129.33811731169573", "region2": "남구", "sig_name": "울산광역시 남구", "total_cars": "1", "zone_id": "7473", "zone_name": "롯데호텔 울산"}, {"lat": "35.53562767162286", "lng": "129.33829089450091", "region2": "남구", "sig_name": "울산광역시 남구", "total_cars": "1", "zone_id": "10001", "zone_name": "울산시외버스터미널 뒤"}, {"lat": "35.18643436641733", "lng": "129.20188995108253", "region2": "해운대구", "sig_name": "부산광역시 해운대구", "total_cars": "1", "zone_id": "9702", "zone_name": "송정역(동해선) 2번출구"}, {"lat": "35.53855594101537", "lng": "129.3389381503116", "region2": "남구", "sig_name": "울산광역시 남구", "total_cars": "1", "zone_id": "7623", "zone_name": "롯데백화점 울산점"}, {"lat": "35.536383112944", "lng": "129.340633329815", "region2": "남구", "sig_name": "울산광역시 남구", "total_cars": "1", "zone_id": "11222", "zone_name": "울산시외버스터미널 맞은편"}, {"lat": "35.537350236966", "lng": "129.342733378759", "region2": "남구", "sig_name": "울산광역시 남구", "total_cars": "1", "zone_id": "13323", "zone_name": "울산농수산물시장 주차장(B)"}, {"lat": "35.544006482978574", "lng": "129.3439101915922", "region2": "남구", "sig_name": "울산광역시 남구", "total_cars": "1", "zone_id": "11413", "zone_name": "중앙농협 정동지점"}, {"lat": "35.23304535217807", "lng": "128.5041099754942", "region2": "창원시　마산회원구", "sig_name": "경상남도 창원시 마산회원구", "total_cars": "1", "zone_id": "9468", "zone_name": "롯데마트 삼계점"}, {"lat": "35.18025258763955", "lng": "129.12383337172963", "region2": "해운대구", "sig_name": "부산광역시 해운대구", "total_cars": "1", "zone_id": "9704", "zone_name": "센텀역(동해선) 3번출구"}, {"lat": "35.19943287949133", "lng": "129.1185965032749", "region2": "해운대구", "sig_name": "부산광역시 해운대구", "total_cars": "1", "zone_id": "13829", "zone_name": "이마트에브리데이 부산반여점"}, {"lat": "35.224437551825815", "lng": "129.15565713536046", "region2": "해운대구", "sig_name": "부산광역시 해운대구", "total_cars": "1", "zone_id": "8231", "zone_name": "영산대 해운대캠퍼스"}, {"lat": "35.2219574845992", "lng": "128.588152641766", "region2": "창원시　마산회원구", "sig_name": "경상남도 창원시 마산회원구", "total_cars": "1", "zone_id": "10974", "zone_name": "마산고속버스터미널 옆"}, {"lat": "35.3166133565769", "lng": "129.003287059418", "region2": "양산시", "sig_name": "경상남도 양산시", "total_cars": "1", "zone_id": "10407", "zone_name": "반도유보라4차아파트 앞"}, {"lat": "35.41291500070597", "lng": "129.166352041813", "region2": "양산시", "sig_name": "경상남도 양산시", "total_cars": "1", "zone_id": "10603", "zone_name": "롯데마트 웅상점"}, {"lat": "35.5418657982208", "lng": "129.385705307169", "region2": "북구", "sig_name": "울산광역시 북구", "total_cars": "1", "zone_id": "8715", "zone_name": "농협 양정점"}, {"lat": "35.5542063311686", "lng": "129.35777217221892", "region2": "북구", "sig_name": "울산광역시 북구", "total_cars": "1", "zone_id": "10841", "zone_name": "명촌초등학교 뒤"}, {"lat": "35.09293035836417", "lng": "129.0456053982785", "region2": "영도구", "sig_name": "부산광역시 영도구", "total_cars": "1", "zone_id": "9282", "zone_name": "봉래교차로"}, {"lat": "35.59453955900794", "lng": "129.35748366165512", "region2": "북구", "sig_name": "울산광역시 북구", "total_cars": "1", "zone_id": "9191", "zone_name": "울산공항 앞"}, {"lat": "35.6433172847545", "lng": "129.358017444487", "region2": "북구", "sig_name": "울산광역시 북구", "total_cars": "1", "zone_id": "11305", "zone_name": "매곡고등학교 앞"}, {"lat": "35.504567194069914", "lng": "129.42938707670385", "region2": "동구", "sig_name": "울산광역시 동구", "total_cars": "1", "zone_id": "7411", "zone_name": "방어진농협 옆"}, {"lat": "35.5009520270319", "lng": "129.419252038036", "region2": "동구", "sig_name": "울산광역시 동구", "total_cars": "1", "zone_id": "11791", "zone_name": "화정초등학교 앞"}, {"lat": "35.4986531947526", "lng": "129.429903827648", "region2": "동구", "sig_name": "울산광역시 동구", "total_cars": "1", "zone_id": "11012", "zone_name": "롯데하이마트 동구일산점 뒤"}, {"lat": "35.4958218351892", "lng": "129.415876694268", "region2": "동구", "sig_name": "울산광역시 동구", "total_cars": "1", "zone_id": "9196", "zone_name": "울산과학대학교 행정본관"}, {"lat": "35.146175842135655", "lng": "129.05891004165184", "region2": "부산진구", "sig_name": "부산광역시 부산진구", "total_cars": "1", "zone_id": "9990", "zone_name": "범내골역 1번출구"}, {"lat": "35.14201774802996", "lng": "129.05886425320097", "region2": "부산진구", "sig_name": "부산광역시 부산진구", "total_cars": "1", "zone_id": "1633", "zone_name": "범일역 9번출구"}, {"lat": "34.8611699748367", "lng": "128.42747486425662", "region2": "통영시", "sig_name": "경상남도 통영시", "total_cars": "1", "zone_id": "8736", "zone_name": "롯데마트 통영점"}, {"lat": "35.14451143419063", "lng": "129.03501794045326", "region2": "부산진구", "sig_name": "부산광역시 부산진구", "total_cars": "1", "zone_id": "13251", "zone_name": "동의대학교"}, {"lat": "35.18708169283009", "lng": "129.0845218619366", "region2": "연제구", "sig_name": "부산광역시 연제구", "total_cars": "1", "zone_id": "10606", "zone_name": "한창정보타운"}, {"lat": "35.190765391389455", "lng": "129.0755925481011", "region2": "연제구", "sig_name": "부산광역시 연제구", "total_cars": "1", "zone_id": "11829", "zone_name": "거제역(동해선) 10번출구"}, {"lat": "35.1475543592423", "lng": "129.03023300603763", "region2": "부산진구", "sig_name": "부산광역시 부산진구", "total_cars": "1", "zone_id": "8319", "zone_name": "가야고등학교"}, {"lat": "35.18910855721925", "lng": "129.08665656803916", "region2": "연제구", "sig_name": "부산광역시 연제구", "total_cars": "1", "zone_id": "11110", "zone_name": "NH농협은행 연산동지점"}, {"lat": "35.14907978319674", "lng": "129.0327713813415", "region2": "부산진구", "sig_name": "부산광역시 부산진구", "total_cars": "1", "zone_id": "10669", "zone_name": "동의대역 5번출구"}, {"lat": "35.17375437081911", "lng": "129.07240379355179", "region2": "부산진구", "sig_name": "부산광역시 부산진구", "total_cars": "1", "zone_id": "12147", "zone_name": "양정역 8번출구"}, {"lat": "35.153656347912", "lng": "129.0292284355819", "region2": "부산진구", "sig_name": "부산광역시 부산진구", "total_cars": "1", "zone_id": "2283", "zone_name": "대명 S-OIL"}, {"lat": "35.14963849507153", "lng": "128.66649816872476", "region2": "창원시　진해구", "sig_name": "경상남도 창원시 진해구", "total_cars": "1", "zone_id": "12133", "zone_name": "충무동 공영주차장"}, {"lat": "35.1534580970964", "lng": "128.70834156904323", "region2": "창원시　진해구", "sig_name": "경상남도 창원시 진해구", "total_cars": "1", "zone_id": "13131", "zone_name": "성원아파트 상가주차장"}, {"lat": "35.156665400402666", "lng": "129.05645587595134", "region2": "부산진구", "sig_name": "부산광역시 부산진구", "total_cars": "1", "zone_id": "8613", "zone_name": "롯데백화점 부산본점(EV)"}, {"lat": "35.171798974232175", "lng": "129.06969685994488", "region2": "부산진구", "sig_name": "부산광역시 부산진구", "total_cars": "1", "zone_id": "11745", "zone_name": "양정역 3번출구"}, {"lat": "35.09829544012514", "lng": "128.92052773563452", "region2": "강서구", "sig_name": "부산광역시 강서구", "total_cars": "1", "zone_id": "9991", "zone_name": "부산은행 명지국제신도시지점"}, {"lat": "35.0974885299913", "lng": "128.922069927376", "region2": "강서구", "sig_name": "부산광역시 강서구", "total_cars": "1", "zone_id": "14001", "zone_name": "맥도날드 부산명지DT점 옆"}, {"lat": "35.1630437245508", "lng": "129.06393860674595", "region2": "부산진구", "sig_name": "부산광역시 부산진구", "total_cars": "1", "zone_id": "2259", "zone_name": "부전역 8번출구"}, {"lat": "34.9395229252393", "lng": "128.08261462962", "region2": "사천시", "sig_name": "경상남도 사천시", "total_cars": "1", "zone_id": "10608", "zone_name": "삼천포터미널 뒤편"}, {"lat": "35.15690134556444", "lng": "129.05430152348646", "region2": "부산진구", "sig_name": "부산광역시 부산진구", "total_cars": "1", "zone_id": "7356", "zone_name": "부전동 사거리(더라움오피스텔)"}, {"lat": "35.15480807647657", "lng": "129.03257821719671", "region2": "부산진구", "sig_name": "부산광역시 부산진구", "total_cars": "1", "zone_id": "3663", "zone_name": "롯데하이마트 가야점"}, {"lat": "35.134480328336956", "lng": "129.09540832171047", "region2": "남구", "sig_name": "부산광역시 남구", "total_cars": "1", "zone_id": "8247", "zone_name": "대연역 1번출구"}, {"lat": "35.164477240699355", "lng": "129.06209290711706", "region2": "부산진구", "sig_name": "부산광역시 부산진구", "total_cars": "1", "zone_id": "13541", "zone_name": "부전역(동해선) 옆"}, {"lat": "35.167181643148496", "lng": "129.04209742973143", "region2": "부산진구", "sig_name": "부산광역시 부산진구", "total_cars": "1", "zone_id": "12267", "zone_name": "온누리마트 부암점 뒤편"}, {"lat": "35.17787734077044", "lng": "129.04869801086113", "region2": "부산진구", "sig_name": "부산광역시 부산진구", "total_cars": "1", "zone_id": "6128", "zone_name": "GS더프레시 초읍점"}, {"lat": "35.06354538601283", "lng": "128.9799802295929", "region2": "사하구", "sig_name": "부산광역시 사하구", "total_cars": "1", "zone_id": "10026", "zone_name": "낫개역 2번출구"}, {"lat": "35.1387899096663", "lng": "129.103967082602", "region2": "남구", "sig_name": "부산광역시 남구", "total_cars": "1", "zone_id": "14239", "zone_name": "나라키움 부산온타워"}, {"lat": "35.07917075072892", "lng": "128.97791724559303", "region2": "사하구", "sig_name": "부산광역시 사하구", "total_cars": "1", "zone_id": "11716", "zone_name": "서부산농협 장림지점 옆"}, {"lat": "35.12527148303252", "lng": "129.11066541278302", "region2": "남구", "sig_name": "부산광역시 남구", "total_cars": "1", "zone_id": "11789", "zone_name": "용호동 중앙해수랜드"}, {"lat": "35.148336291617184", "lng": "129.06546523966213", "region2": "남구", "sig_name": "부산광역시 남구", "total_cars": "1", "zone_id": "10814", "zone_name": "IFC부산"}, {"lat": "35.10159358493466", "lng": "129.0002265485831", "region2": "사하구", "sig_name": "부산광역시 사하구", "total_cars": "1", "zone_id": "2286", "zone_name": "대티역 2번출구"}, {"lat": "35.3211305480925", "lng": "129.17833893396147", "region2": "기장군", "sig_name": "부산광역시 기장군", "total_cars": "1", "zone_id": "11100", "zone_name": "CGV 정관점"}, {"lat": "35.3062670790271", "lng": "128.72853412928555", "region2": "김해시", "sig_name": "경상남도 김해시", "total_cars": "1", "zone_id": "13558", "zone_name": "롯데하이마트 진영점"}, {"lat": "35.26901562224395", "lng": "128.86431406317365", "region2": "김해시", "sig_name": "경상남도 김해시", "total_cars": "1", "zone_id": "13977", "zone_name": "이마트에브리데이 김해점"}, {"lat": "35.5474311180783", "lng": "129.26303992201", "region2": "남구", "sig_name": "울산광역시 남구", "total_cars": "1", "zone_id": "8367", "zone_name": "신한은행 무거동지점 옆"}, {"lat": "35.2492360087208", "lng": "128.87372503674533", "region2": "김해시", "sig_name": "경상남도 김해시", "total_cars": "1", "zone_id": "9485", "zone_name": "구산육거리"}, {"lat": "35.1033577684176", "lng": "128.972989167435", "region2": "사하구", "sig_name": "부산광역시 사하구", "total_cars": "1", "zone_id": "12658", "zone_name": "하단 롯데캐슬아파트"}, {"lat": "35.23246921761655", "lng": "128.8499249622302", "region2": "김해시", "sig_name": "경상남도 김해시", "total_cars": "1", "zone_id": "12527", "zone_name": "이진캐스빌2차아파트 앞"}, {"lat": "35.23548023613541", "lng": "128.86606971573713", "region2": "김해시", "sig_name": "경상남도 김해시", "total_cars": "1", "zone_id": "10812", "zone_name": "내외119안전센터 뒤"}, {"lat": "35.10704783919288", "lng": "128.9660780994605", "region2": "사하구", "sig_name": "부산광역시 사하구", "total_cars": "1", "zone_id": "11746", "zone_name": "하단역 3번출구"}, {"lat": "35.4081145256505", "lng": "129.289112809936", "region2": "울주군", "sig_name": "울산광역시 울주군", "total_cars": "1", "zone_id": "14193", "zone_name": "온남초등학교 뒤"}, {"lat": "35.41709374946559", "lng": "129.2833612880421", "region2": "울주군", "sig_name": "울산광역시 울주군", "total_cars": "1", "zone_id": "12051", "zone_name": "남창역(동해선) 1번출구"}, {"lat": "35.225897054184664", "lng": "128.87373573635674", "region2": "김해시", "sig_name": "경상남도 김해시", "total_cars": "1", "zone_id": "11266", "zone_name": "봉황역 1번출구"}, {"lat": "35.2279336869197", "lng": "128.885771041981", "region2": "김해시", "sig_name": "경상남도 김해시", "total_cars": "1", "zone_id": "10042", "zone_name": "부원역 2번출구"}, {"lat": "35.56846941612936", "lng": "129.24302486484046", "region2": "울주군", "sig_name": "울산광역시 울주군", "total_cars": "1", "zone_id": "11989", "zone_name": "울산울주경찰서 앞"}, {"lat": "35.57276314007007", "lng": "129.2417177316452", "region2": "울주군", "sig_name": "울산광역시 울주군", "total_cars": "1", "zone_id": "11039", "zone_name": "구영공원 앞"}, {"lat": "35.151655365322924", "lng": "128.1191115451683", "region2": "진주시", "sig_name": "경상남도 진주시", "total_cars": "1", "zone_id": "12388", "zone_name": "진주역KTX"}, {"lat": "35.19984668644421", "lng": "128.816182654865", "region2": "김해시", "sig_name": "경상남도 김해시", "total_cars": "1", "zone_id": "14124", "zone_name": "장유농협 본점 뒤"}, {"lat": "35.1949471854876", "lng": "128.801831059682", "region2": "김해시", "sig_name": "경상남도 김해시", "total_cars": "1", "zone_id": "14127", "zone_name": "장유농협 삼문지점"}, {"lat": "35.19287141938405", "lng": "128.80306747937476", "region2": "김해시", "sig_name": "경상남도 김해시", "total_cars": "1", "zone_id": "10837", "zone_name": "롯데마트 장유점 앞"}, {"lat": "35.177693926636906", "lng": "128.09120973314594", "region2": "진주시", "sig_name": "경상남도 진주시", "total_cars": "1", "zone_id": "13376", "zone_name": "한주럭키타운아파트 앞"}, {"lat": "35.1703736204178", "lng": "128.813877027188", "region2": "김해시", "sig_name": "경상남도 김해시", "total_cars": "1", "zone_id": "14129", "zone_name": "노브랜드 김해율하점"}, {"lat": "35.17860047115675", "lng": "128.09387567293913", "region2": "진주시", "sig_name": "경상남도 진주시", "total_cars": "1", "zone_id": "9028", "zone_name": "진주고속버스터미널 옆"}, {"lat": "35.262620203308344", "lng": "129.0914545047734", "region2": "금정구", "sig_name": "부산광역시 금정구", "total_cars": "1", "zone_id": "11570", "zone_name": "스타벅스 금정남산동DT점"}, {"lat": "35.187578206487", "lng": "128.117705901285", "region2": "진주시", "sig_name": "경상남도 진주시", "total_cars": "1", "zone_id": "8737", "zone_name": "홈플러스 진주점"}, {"lat": "35.2486451441581", "lng": "129.09002709380383", "region2": "금정구", "sig_name": "부산광역시 금정구", "total_cars": "1", "zone_id": "1640", "zone_name": "구서역 3번출구"}, {"lat": "35.24154289683961", "lng": "129.0920800547512", "region2": "금정구", "sig_name": "부산광역시 금정구", "total_cars": "1", "zone_id": "10271", "zone_name": "금정구청 옆"}, {"lat": "35.2375300251728", "lng": "129.088981156851", "region2": "금정구", "sig_name": "부산광역시 금정구", "total_cars": "1", "zone_id": "13101", "zone_name": "장전역 2번출구(EV)"}, {"lat": "35.177522377011165", "lng": "128.0641480859493", "region2": "진주시", "sig_name": "경상남도 진주시", "total_cars": "1", "zone_id": "12919", "zone_name": "진주신안주공3단지 옆 "}, {"lat": "35.1823993886645", "lng": "128.065607523965", "region2": "진주시", "sig_name": "경상남도 진주시", "total_cars": "1", "zone_id": "12299", "zone_name": "창원지방법원 진주지원 옆"}, {"lat": "35.22766649105551", "lng": "129.09239906163342", "region2": "금정구", "sig_name": "부산광역시 금정구", "total_cars": "1", "zone_id": "12297", "zone_name": "부곡2동 공영주차장"}, {"lat": "35.192920394591845", "lng": "128.08605807228497", "region2": "진주시", "sig_name": "경상남도 진주시", "total_cars": "1", "zone_id": "13456", "zone_name": "진주중앙시장 앞"}, {"lat": "35.19341238172925", "lng": "128.06926039816378", "region2": "진주시", "sig_name": "경상남도 진주시", "total_cars": "1", "zone_id": "14056", "zone_name": "다이소 진주봉곡점"}, {"lat": "35.140797482132506", "lng": "129.06351664657385", "region2": "동구", "sig_name": "부산광역시 동구", "total_cars": "1", "zone_id": "10939", "zone_name": "범일 봄여름가을겨울아파트 앞"}, {"lat": "35.1121316816899", "lng": "129.040110013855", "region2": "동구", "sig_name": "부산광역시 동구", "total_cars": "1", "zone_id": "13126", "zone_name": "부산역KTX 1번출구"}, {"lat": "35.1877093721975", "lng": "128.562227531997", "region2": "창원시　마산합포구", "sig_name": "경상남도 창원시 마산합포구", "total_cars": "1", "zone_id": "13291", "zone_name": "반월사거리"}, {"lat": "35.21391488419546", "lng": "128.56656024438269", "region2": "창원시　마산합포구", "sig_name": "경상남도 창원시 마산합포구", "total_cars": "1", "zone_id": "11099", "zone_name": "교방동 행정복지센터 옆"}, {"lat": "35.20854953351831", "lng": "128.57477790857186", "region2": "창원시　마산합포구", "sig_name": "경상남도 창원시 마산합포구", "total_cars": "1", "zone_id": "6089", "zone_name": "창동사거리"}, {"lat": "35.124710771413895", "lng": "129.04370036255006", "region2": "동구", "sig_name": "부산광역시 동구", "total_cars": "1", "zone_id": "12825", "zone_name": "부산국제영화고등학교 앞"}, {"lat": "35.20123372311413", "lng": "129.06952279307498", "region2": "동래구", "sig_name": "부산광역시 동래구", "total_cars": "1", "zone_id": "12278", "zone_name": "부산은행 사직행복영업소 옆"}, {"lat": "35.20558754418673", "lng": "129.06674707547592", "region2": "동래구", "sig_name": "부산광역시 동래구", "total_cars": "1", "zone_id": "12046", "zone_name": "미남역 3번출구"}, {"lat": "35.21114017659212", "lng": "129.0767260862812", "region2": "동래구", "sig_name": "부산광역시 동래구", "total_cars": "1", "zone_id": "9184", "zone_name": "롯데백화점 동래점"}, {"lat": "35.07374372382996", "lng": "129.01571573622041", "region2": "서구", "sig_name": "부산광역시 서구", "total_cars": "1", "zone_id": "13512", "zone_name": "송도노외공영주차장"}, {"lat": "35.096586774715256", "lng": "129.02555705025208", "region2": "서구", "sig_name": "부산광역시 서구", "total_cars": "1", "zone_id": "13322", "zone_name": "자갈치역 2번출구"}, {"lat": "35.10537505819372", "lng": "129.0203726660973", "region2": "서구", "sig_name": "부산광역시 서구", "total_cars": "1", "zone_id": "8230", "zone_name": "동아대 부민캠퍼스 앞"}, {"lat": "35.1135552857066", "lng": "129.01353129244", "region2": "서구", "sig_name": "부산광역시 서구", "total_cars": "1", "zone_id": "14234", "zone_name": "버거킹 부산대신점"}, {"lat": "35.16373359146943", "lng": "128.9841593788608", "region2": "사상구", "sig_name": "부산광역시 사상구", "total_cars": "1", "zone_id": "9223", "zone_name": "사상역 6번출구"}, {"lat": "35.1997303893853", "lng": "129.104232761328", "region2": "동래구", "sig_name": "부산광역시 동래구", "total_cars": "1", "zone_id": "13981", "zone_name": "안락새마을금고 본점 옆"}, {"lat": "35.235763712067765", "lng": "129.01201801820946", "region2": "북구", "sig_name": "부산광역시 북구", "total_cars": "1", "zone_id": "11076", "zone_name": "화명역 3번출구"}, {"lat": "35.13828666316238", "lng": "129.10838777229844", "region2": "수영구", "sig_name": "부산광역시 수영구", "total_cars": "1", "zone_id": "10117", "zone_name": "뉴비치아파트 옆"}, {"lat": "35.2242388279639", "lng": "129.0084332710637", "region2": "북구", "sig_name": "부산광역시 북구", "total_cars": "1", "zone_id": "12256", "zone_name": "수정역 5번출구"}, {"lat": "35.14223901254767", "lng": "129.10776017202707", "region2": "수영구", "sig_name": "부산광역시 수영구", "total_cars": "1", "zone_id": "14156", "zone_name": "남천역 2번출구"}, {"lat": "35.21145274239089", "lng": "129.01011113942548", "region2": "북구", "sig_name": "부산광역시 북구", "total_cars": "1", "zone_id": "13604", "zone_name": "덕천지하상가주차장"}, {"lat": "35.21049182796655", "lng": "129.01816889320656", "region2": "북구", "sig_name": "부산광역시 북구", "total_cars": "1", "zone_id": "11113", "zone_name": "덕천3동 공영주차장"}, {"lat": "35.15219009341831", "lng": "129.11686180186538", "region2": "수영구", "sig_name": "부산광역시 수영구", "total_cars": "1", "zone_id": "13539", "zone_name": "광안경동리인아파트 뒤"}, {"lat": "35.21088150290325", "lng": "129.02505218498598", "region2": "북구", "sig_name": "부산광역시 북구", "total_cars": "1", "zone_id": "13778", "zone_name": "호산스포맥스"}, {"lat": "35.15427123980014", "lng": "129.1126982066257", "region2": "수영구", "sig_name": "부산광역시 수영구", "total_cars": "1", "zone_id": "12623", "zone_name": "광안역 5번출구"}, {"lat": "35.15404722043352", "lng": "129.12511589081615", "region2": "수영구", "sig_name": "부산광역시 수영구", "total_cars": "1", "zone_id": "13400", "zone_name": "해링턴타워광안디오션오피스텔"}, {"lat": "35.26063680643302", "lng": "128.62575372493183", "region2": "창원시　의창구", "sig_name": "경상남도 창원시 의창구", "total_cars": "1", "zone_id": "14065", "zone_name": "창원 중동사거리"}, {"lat": "35.17122013086069", "lng": "129.1080815086525", "region2": "수영구", "sig_name": "부산광역시 수영구", "total_cars": "1", "zone_id": "12414", "zone_name": "망미역 5번출구"}, {"lat": "35.15431962422946", "lng": "129.11914731590218", "region2": "수영구", "sig_name": "부산광역시 수영구", "total_cars": "1", "zone_id": "7396", "zone_name": "켄트호텔"}, {"lat": "35.155166926548354", "lng": "129.11894280142204", "region2": "수영구", "sig_name": "부산광역시 수영구", "total_cars": "1", "zone_id": "12666", "zone_name": "광안리해수욕장 사거리 앞"}, {"lat": "35.55560637520524", "lng": "129.31290127333426", "region2": "중구", "sig_name": "울산광역시 중구", "total_cars": "1", "zone_id": "11082", "zone_name": "우정1 공영주차장"}, {"lat": "35.55592836888433", "lng": "129.31850242300766", "region2": "중구", "sig_name": "울산광역시 중구", "total_cars": "1", "zone_id": "8947", "zone_name": "양사초등학교 옆"}, {"lat": "35.5539290059864", "lng": "129.322835431974", "region2": "중구", "sig_name": "울산광역시 중구", "total_cars": "1", "zone_id": "11400", "zone_name": "옥교 공영주차장"}, {"lat": "35.16280307850574", "lng": "129.10855142577074", "region2": "수영구", "sig_name": "부산광역시 수영구", "total_cars": "1", "zone_id": "12288", "zone_name": "비치그린상가"}, {"lat": "35.1588876752717", "lng": "129.114050325755", "region2": "수영구", "sig_name": "부산광역시 수영구", "total_cars": "1", "zone_id": "9088", "zone_name": "광안역 1번출구"}, {"lat": "35.5583901706289", "lng": "129.343423094035", "region2": "중구", "sig_name": "울산광역시 중구", "total_cars": "1", "zone_id": "12204", "zone_name": "반구 공영주차장"}, {"lat": "35.16906170766723", "lng": "129.11306715047098", "region2": "수영구", "sig_name": "부산광역시 수영구", "total_cars": "1", "zone_id": "13368", "zone_name": "수영역 2번출구"}, {"lat": "35.16316357564149", "lng": "129.11371833799873", "region2": "수영구", "sig_name": "부산광역시 수영구", "total_cars": "1", "zone_id": "10703", "zone_name": "수영역 14번출구"}, {"lat": "35.165918064745725", "lng": "129.11827525569683", "region2": "수영구", "sig_name": "부산광역시 수영구", "total_cars": "1", "zone_id": "9678", "zone_name": "수영역 11번출구"}, {"lat": "35.5353895571345", "lng": "129.321640483605", "region2": "남구", "sig_name": "울산광역시 남구", "total_cars": "1", "zone_id": "10765", "zone_name": "동평사거리"}, {"lat": "34.8919198826692", "lng": "128.695785409218", "region2": "거제시", "sig_name": "경상남도 거제시", "total_cars": "1", "zone_id": "9995", "zone_name": "거제 옥포항"}, {"lat": "35.1042868481592", "lng": "128.97579627815", "region2": "사하구", "sig_name": "부산광역시 사하구", "total_cars": "1", "zone_id": "11571", "zone_name": "사하구청 옆"}]