[{"address": "부산 강서구 명지동 3597-2 SR빌딩", "car_count": "1", "imaginary": "0", "is_d2d_car_exportable": "ABLE", "lat": "35.094239", "lng": "128.905436", "parking_name": "CGV 부산명지 옆", "region1": "부산광역시", "region2": "강서구", "region3": "명지동", "zone_id": "16185", "zone_name": "CGV 부산명지 옆"}, {"address": "부산 강서구 대저2동 2764-2", "car_count": "43", "imaginary": "0", "is_d2d_car_exportable": "UNABLE", "lat": "35.170651", "lng": "128.951674", "parking_name": "김해공항 국내선", "region1": "부산광역시", "region2": "강서구", "region3": "대저2동", "zone_id": "685", "zone_name": "김해공항 국내선"}, {"address": "부산 강서구 대저2동 2108-1", "car_count": "23", "imaginary": "0", "is_d2d_car_exportable": "ABLE", "lat": "35.179012", "lng": "128.951907", "parking_name": "김해공항 국제화물청사 맞은편", "region1": "부산광역시", "region2": "강서구", "region3": "대저2동", "zone_id": "6497", "zone_name": "김해공항 국제화물청사 맞은편"}, {"address": "부산 강서구 대저2동 2703-3 쏘카 전용주차장", "car_count": "16", "imaginary": "0", "is_d2d_car_exportable": "ABLE", "lat": "35.172792", "lng": "128.953708", "parking_name": "김해공항(도보) A", "region1": "부산광역시", "region2": "강서구", "region3": "대저2동", "zone_id": "16389", "zone_name": "김해공항(도보) A"}, {"address": "부산 강서구 대저2동 2703-3 쏘카 전용주차장", "car_count": "1", "imaginary": "0", "is_d2d_car_exportable": "ABLE", "lat": "35.172806", "lng": "128.953992", "parking_name": "김해공항(도보) A (캠핑카)", "region1": "부산광역시", "region2": "강서구", "region3": "대저2동", "zone_id": "19458", "zone_name": "김해공항(도보) A (캠핑카)"}, {"address": "부산 강서구 신호동 215-1", "car_count": "3", "imaginary": "0", "is_d2d_car_exportable": "ABLE", "lat": "35.087238", "lng": "128.878318", "parking_name": "서진프라자 주차장", "region1": "부산광역시", "region2": "강서구", "region3": "신호동", "zone_id": "11071", "zone_name": "농협 신호지점 옆"}, {"address": "부산 강서구 명지동 3238", "car_count": "1", "imaginary": "0", "is_d2d_car_exportable": "ABLE", "lat": "35.084045", "lng": "128.903168", "parking_name": "G타워", "region1": "부산광역시", "region2": "강서구", "region3": "명지동", "zone_id": "2967", "zone_name": "명지신도시 홈플러스"}, {"address": "부산 강서구 명지동 3602-1", "car_count": "4", "imaginary": "0", "is_d2d_car_exportable": "ABLE", "lat": "35.0941", "lng": "128.907608", "parking_name": "명지파출소 옆", "region1": "부산광역시", "region2": "강서구", "region3": "명지동", "zone_id": "16971", "zone_name": "명지파출소 옆"}, {"address": "부산 강서구 명지동 3228-2", "car_count": "1", "imaginary": "0", "is_d2d_car_exportable": "ABLE", "lat": "35.08946", "lng": "128.899689", "parking_name": "부산명지행복주택 옆", "region1": "부산광역시", "region2": "강서구", "region3": "명지동", "zone_id": "17813", "zone_name": "부산명지행복주택 옆"}, {"address": "부산 강서구 명지동 3358-1", "car_count": "5", "imaginary": "0", "is_d2d_car_exportable": "ABLE", "lat": "35.098427", "lng": "128.920502", "parking_name": "하이파킹 명지국제타워점", "region1": "부산광역시", "region2": "강서구", "region3": "명지동", "zone_id": "10193", "zone_name": "부산은행 명지국제신도시점"}, {"address": "경남 거제시 고현동 970-10 GS수퍼마켓 거제신현점", "car_count": "1", "imaginary": "0", "is_d2d_car_exportable": "ABLE", "lat": "34.889309", "lng": "128.621628", "parking_name": "GS수퍼마켓 거제신현점", "region1": "경상남도", "region2": "거제시", "region3": "고현동", "zone_id": "1975", "zone_name": "GS수퍼마켓 거제신현점"}, {"address": "경남 거제시 아주동 1690-5", "car_count": "5", "imaginary": "0", "is_d2d_car_exportable": "ABLE", "lat": "34.867286", "lng": "128.690054", "parking_name": "거제 아주프라자", "region1": "경상남도", "region2": "거제시", "region3": "아주동", "zone_id": "15655", "zone_name": "거제 아주프라자"}, {"address": "경남 거제시 옥포동 1915-1", "car_count": "8", "imaginary": "0", "is_d2d_car_exportable": "ABLE", "lat": "34.891979", "lng": "128.695679", "parking_name": "옥포매립지 공영주차장", "region1": "경상남도", "region2": "거제시", "region3": "옥포동", "zone_id": "3691", "zone_name": "거제 옥포항"}, {"address": "경남 거제시 장평동 140", "car_count": "3", "imaginary": "0", "is_d2d_car_exportable": "ABLE", "lat": "34.887161", "lng": "128.608414", "parking_name": "보성주차장", "region1": "경상남도", "region2": "거제시", "region3": "장평동", "zone_id": "6355", "zone_name": "거제 장평중학교 옆"}, {"address": "경남 거제시 고현동 44-45 남강주차장", "car_count": "1", "imaginary": "0", "is_d2d_car_exportable": "ABLE", "lat": "34.886854", "lng": "128.625498", "parking_name": "거제고현시장 앞", "region1": "경상남도", "region2": "거제시", "region3": "고현동", "zone_id": "19877", "zone_name": "거제고현시장 앞"}, {"address": "경남 거제시 고현동 961-57", "car_count": "19", "imaginary": "0", "is_d2d_car_exportable": "ABLE", "lat": "34.889317", "lng": "128.62471", "parking_name": "거제시외버스터미널", "region1": "경상남도", "region2": "거제시", "region3": "고현동", "zone_id": "1541", "zone_name": "거제시외버스터미널"}, {"address": "경남 거제시 고현동 972-11", "car_count": "5", "imaginary": "0", "is_d2d_car_exportable": "ABLE", "lat": "34.890518", "lng": "128.620821", "parking_name": "거제시외버스터미널 옆", "region1": "경상남도", "region2": "거제시", "region3": "고현동", "zone_id": "9112", "zone_name": "거제시외버스터미널 옆"}, {"address": "경남 거제시 아주동 1686-1", "car_count": "1", "imaginary": "0", "is_d2d_car_exportable": "ABLE", "lat": "34.866843", "lng": "128.686213", "parking_name": "거제아주코오롱하늘채아파트 맞은편", "region1": "경상남도", "region2": "거제시", "region3": "아주동", "zone_id": "19865", "zone_name": "거제아주코오롱하늘채아파트 맞은편"}, {"address": "경남 거제시 아주동 1701-9", "car_count": "2", "imaginary": "0", "is_d2d_car_exportable": "ABLE", "lat": "34.867622", "lng": "128.6919", "parking_name": "대가삼계탕 아주점 옆", "region1": "경상남도", "region2": "거제시", "region3": "아주동", "zone_id": "16966", "zone_name": "대가삼계탕 아주점 옆"}, {"address": "경남 거제시 능포동 719-4", "car_count": "1", "imaginary": "0", "is_d2d_car_exportable": "ABLE", "lat": "34.873344", "lng": "128.731972", "parking_name": "옥명푸르지오2차아파트 앞", "region1": "경상남도", "region2": "거제시", "region3": "능포동", "zone_id": "16333", "zone_name": "옥명푸르지오2차아파트 앞"}, {"address": "부산 금정구 부곡동 225-35", "car_count": "1", "imaginary": "0", "is_d2d_car_exportable": "ABLE", "lat": "35.237593", "lng": "129.089039", "parking_name": "GS더프레시 부산금정점 옆", "region1": "부산광역시", "region2": "금정구", "region3": "부곡동", "zone_id": "19671", "zone_name": "GS더프레시 부산금정점 옆"}, {"address": "부산 금정구 구서동 87-50 구서1동공영주차장", "car_count": "1", "imaginary": "0", "is_d2d_car_exportable": "ABLE", "lat": "35.247906", "lng": "129.089345", "parking_name": "구서역 1번출구", "region1": "부산광역시", "region2": "금정구", "region3": "구서동", "zone_id": "14449", "zone_name": "구서역 1번출구"}, {"address": "부산 금정구 구서동 252-18", "car_count": "1", "imaginary": "0", "is_d2d_car_exportable": "ABLE", "lat": "35.248543", "lng": "129.08992", "parking_name": "구서역 3번출구", "region1": "부산광역시", "region2": "금정구", "region3": "구서동", "zone_id": "372", "zone_name": "구서역 3번출구"}, {"address": "부산 금정구 구서동 420-47 대양빌딩", "car_count": "1", "imaginary": "0", "is_d2d_car_exportable": "ABLE", "lat": "35.243741", "lng": "129.091747", "parking_name": "금정구청 뒤", "region1": "부산광역시", "region2": "금정구", "region3": "구서동", "zone_id": "22853", "zone_name": "금정구청 뒤"}, {"address": "부산 금정구 부곡동 63-7", "car_count": "1", "imaginary": "0", "is_d2d_car_exportable": "ABLE", "lat": "35.241598", "lng": "129.092043", "parking_name": "금정구청 옆", "region1": "부산광역시", "region2": "금정구", "region3": "부곡동", "zone_id": "5516", "zone_name": "금정구청 옆"}, {"address": "부산 금정구 남산동 18-2", "car_count": "1", "imaginary": "0", "is_d2d_car_exportable": "ABLE", "lat": "35.271811", "lng": "129.089422", "parking_name": "금정농협 앞", "region1": "부산광역시", "region2": "금정구", "region3": "남산동", "zone_id": "15535", "zone_name": "금정농협 앞"}, {"address": "부산 금정구 남산동 893-8", "car_count": "2", "imaginary": "0", "is_d2d_car_exportable": "ABLE", "lat": "35.265465", "lng": "129.092758", "parking_name": "남산역 6번출구", "region1": "부산광역시", "region2": "금정구", "region3": "남산동", "zone_id": "1678", "zone_name": "남산역 6번출구"}, {"address": "부산 금정구 남산동 91-7", "car_count": "4", "imaginary": "0", "is_d2d_car_exportable": "ABLE", "lat": "35.267853", "lng": "129.091919", "parking_name": "남산역 7번출구", "region1": "부산광역시", "region2": "금정구", "region3": "남산동", "zone_id": "3151", "zone_name": "남산역 7번출구"}, {"address": "부산 금정구 노포동 133 부산종합버스터미널 도시철도 노포역 공영주차장", "car_count": "2", "imaginary": "0", "is_d2d_car_exportable": "ABLE", "lat": "35.282906", "lng": "129.095225", "parking_name": "노포역 1번출구", "region1": "부산광역시", "region2": "금정구", "region3": "노포동", "zone_id": "15663", "zone_name": "노포역 1번출구"}, {"address": "부산 금정구 구서동 809-1", "car_count": "1", "imaginary": "0", "is_d2d_car_exportable": "ABLE", "lat": "35.258297", "lng": "129.087875", "parking_name": "두실역 7번출구", "region1": "부산광역시", "region2": "금정구", "region3": "구서동", "zone_id": "2545", "zone_name": "두실역 7번출구"}, {"address": "부산 금정구 부곡동 24-5", "car_count": "1", "imaginary": "0", "is_d2d_car_exportable": "ABLE", "lat": "35.241133", "lng": "129.093339", "parking_name": "롯데 하이마트 부곡점", "region1": "부산광역시", "region2": "금정구", "region3": "부곡동", "zone_id": "16598", "zone_name": "롯데 하이마트 부곡점"}, {"address": "부산 금정구 구서동 164-14", "car_count": "1", "imaginary": "0", "is_d2d_car_exportable": "ABLE", "lat": "35.259097", "lng": "129.090208", "parking_name": "맥도날드 구서DT점 뒤편", "region1": "부산광역시", "region2": "금정구", "region3": "구서동", "zone_id": "3209", "zone_name": "맥도날드 구서DT점 뒤편"}, {"address": "부산 금정구 남산동 73-69", "car_count": "1", "imaginary": "0", "is_d2d_car_exportable": "ABLE", "lat": "35.263032", "lng": "129.09031", "parking_name": "부산 남산초등학교 뒤", "region1": "부산광역시", "region2": "금정구", "region3": "남산동", "zone_id": "18691", "zone_name": "부산 남산초등학교 뒤"}, {"address": "부산 금정구 남산동 130-6 백조주차장", "car_count": "1", "imaginary": "0", "is_d2d_car_exportable": "ABLE", "lat": "35.261116", "lng": "129.089842", "parking_name": "부산 남산초등학교 앞", "region1": "부산광역시", "region2": "금정구", "region3": "남산동", "zone_id": "19228", "zone_name": "부산 남산초등학교 앞"}, {"address": "부산 금정구 장전동 643-117", "car_count": "4", "imaginary": "0", "is_d2d_car_exportable": "ABLE", "lat": "35.229668", "lng": "129.088852", "parking_name": "부산대역 1번출구", "region1": "부산광역시", "region2": "금정구", "region3": "장전동", "zone_id": "3029", "zone_name": "부산대역 1번출구"}, {"address": "부산 금정구 장전동 420-47 근영테크빌", "car_count": "1", "imaginary": "0", "is_d2d_car_exportable": "ABLE", "lat": "35.230587", "lng": "129.085289", "parking_name": "부산대학교 부산캠퍼스 앞", "region1": "부산광역시", "region2": "금정구", "region3": "장전동", "zone_id": "20062", "zone_name": "부산대학교 부산캠퍼스 앞"}, {"address": "부산 금정구 중앙대로 2238 부산종합버스터미널 유료주차장", "car_count": "1", "imaginary": "0", "is_d2d_car_exportable": "ABLE", "lat": "35.285567", "lng": "129.095747", "parking_name": "부산종합버스터미널 유료주차장", "region1": "부산광역시", "region2": "금정구", "region3": "노포동", "zone_id": "16477", "zone_name": "부산종합버스터미널"}, {"address": "부산 금정구 서동 171-2 통일주차장", "car_count": "1", "imaginary": "0", "is_d2d_car_exportable": "ABLE", "lat": "35.217994", "lng": "129.103353", "parking_name": "서3동행정복지센터 앞", "region1": "부산광역시", "region2": "금정구", "region3": "서동", "zone_id": "16189", "zone_name": "서3동행정복지센터 앞"}, {"address": "부산 금정구 서동 208-15", "car_count": "2", "imaginary": "0", "is_d2d_car_exportable": "ABLE", "lat": "35.213615", "lng": "129.107313", "parking_name": "서동역 3번출구", "region1": "부산광역시", "region2": "금정구", "region3": "서동", "zone_id": "17170", "zone_name": "서동역 3번출구"}, {"address": "부산 금정구 장전동 336-2", "car_count": "4", "imaginary": "5", "is_d2d_car_exportable": "ABLE", "lat": "35.228481", "lng": "129.085464", "parking_name": "신한은행 장전동지점 앞", "region1": "부산광역시", "region2": "금정구", "region3": "장전동", "zone_id": "5015", "zone_name": "신한은행 장전동지점 앞"}, {"address": "부산 금정구 부곡동 896-3", "car_count": "12", "imaginary": "0", "is_d2d_car_exportable": "ABLE", "lat": "35.221631", "lng": "129.087204", "parking_name": "온천장역", "region1": "부산광역시", "region2": "금정구", "region3": "부곡동", "zone_id": "289", "zone_name": "온천장역"}, {"address": "부산 금정구 장전동 200", "car_count": "2", "imaginary": "0", "is_d2d_car_exportable": "ABLE", "lat": "35.238932", "lng": "129.084823", "parking_name": "장전1동행정복지센터 옆", "region1": "부산광역시", "region2": "금정구", "region3": "장전동", "zone_id": "18873", "zone_name": "장전1동행정복지센터 옆"}, {"address": "부산 금정구 장전동 382-39", "car_count": "9", "imaginary": "0", "is_d2d_car_exportable": "ABLE", "lat": "35.233874", "lng": "129.087391", "parking_name": "장전동새마을금고 본점 옆", "region1": "부산광역시", "region2": "금정구", "region3": "장전동", "zone_id": "10814", "zone_name": "장전동새마을금고 본점 옆"}, {"address": "부산광역시 금정구 부곡동 225-73 골든웨딩프라자예식장 주차장", "car_count": "6", "imaginary": "0", "is_d2d_car_exportable": "ABLE", "lat": "35.236853", "lng": "129.089153", "parking_name": "장전역 2번출구", "region1": "부산광역시", "region2": "금정구", "region3": "부곡동", "zone_id": "14866", "zone_name": "장전역 2번출구"}, {"address": "부산 기장군 기장읍 청강리 702-4 기장병원 기장병원 주차장", "car_count": "1", "imaginary": "0", "is_d2d_car_exportable": "ABLE", "lat": "35.236114", "lng": "129.216917", "parking_name": "기장병원", "region1": "부산광역시", "region2": "기장군", "region3": "기장읍", "zone_id": "12327", "zone_name": "기장병원"}, {"address": "부산 기장군 기장읍 청강리 25-16", "car_count": "8", "imaginary": "0", "is_d2d_car_exportable": "ABLE", "lat": "35.242815", "lng": "129.218528", "parking_name": "기장역(동해선)", "region1": "부산광역시", "region2": "기장군", "region3": "기장읍", "zone_id": "10601", "zone_name": "기장역(동해선)"}, {"address": "부산 기장군 정관읍 매학리 719-1", "car_count": "1", "imaginary": "0", "is_d2d_car_exportable": "ABLE", "lat": "35.320236", "lng": "129.175415", "parking_name": "시장주차장", "region1": "부산광역시", "region2": "기장군", "region3": "정관읍", "zone_id": "4776", "zone_name": "롯데리아 정관점 뒤편"}, {"address": "부산광역시 기장군 기장읍 당사리 257-1", "car_count": "2", "imaginary": "0", "is_d2d_car_exportable": "ABLE", "lat": "35.19588", "lng": "129.209311", "parking_name": "오시리아역", "region1": "부산광역시", "region2": "기장군", "region3": "기장읍", "zone_id": "12707", "zone_name": "오시리아역"}, {"address": "부산 기장군 기장읍 대라리 419-15 기장마르빌 이마트24 기장햇살점 주차장", "car_count": "1", "imaginary": "0", "is_d2d_car_exportable": "ABLE", "lat": "35.241907", "lng": "129.214247", "parking_name": "이마트24 기장햇살점", "region1": "부산광역시", "region2": "기장군", "region3": "기장읍", "zone_id": "12476", "zone_name": "이마트24 기장햇살점"}, {"address": "부산 기장군 일광읍 삼성리 830-4", "car_count": "1", "imaginary": "0", "is_d2d_car_exportable": "ABLE", "lat": "35.265673", "lng": "129.226844", "parking_name": "일광 비스타동원1차아파트 앞", "region1": "부산광역시", "region2": "기장군", "region3": "일광읍", "zone_id": "18585", "zone_name": "일광 비스타동원1차아파트 앞"}, {"address": "부산 기장군 일광면 삼성리 7-2", "car_count": "2", "imaginary": "0", "is_d2d_car_exportable": "ABLE", "lat": "35.266277", "lng": "129.232712", "parking_name": "일광역(동해선)", "region1": "부산광역시", "region2": "기장군", "region3": "일광면", "zone_id": "5502", "zone_name": "일광역(동해선)"}, {"address": "부산 기장군 일광읍 삼성리 28-1 티에스레져 무인주차장", "car_count": "1", "imaginary": "0", "is_d2d_car_exportable": "ABLE", "lat": "35.265739", "lng": "129.233188", "parking_name": "일광역(동해선) 1번출구", "region1": "부산광역시", "region2": "기장군", "region3": "일광읍", "zone_id": "16081", "zone_name": "일광역(동해선) 1번출구"}, {"address": "부산 기장군 정관읍 매학리 717-6", "car_count": "1", "imaginary": "0", "is_d2d_car_exportable": "ABLE", "lat": "35.321416", "lng": "129.178392", "parking_name": "정관 탑스퀘어", "region1": "부산광역시", "region2": "기장군", "region3": "정관읍", "zone_id": "23076", "zone_name": "정관 탑스퀘어"}, {"address": "부산 기장군 정관읍 매학리 712-3 광장아울렛", "car_count": "3", "imaginary": "0", "is_d2d_car_exportable": "ABLE", "lat": "35.32241", "lng": "129.175952", "parking_name": "정관신도시", "region1": "부산광역시", "region2": "기장군", "region3": "정관읍", "zone_id": "370", "zone_name": "정관신도시"}, {"address": "부산 기장군 정관읍 달산리 988-4", "car_count": "3", "imaginary": "0", "is_d2d_car_exportable": "ABLE", "lat": "35.318495", "lng": "129.179991", "parking_name": "탑마트 정관점 맞은편", "region1": "부산광역시", "region2": "기장군", "region3": "정관읍", "zone_id": "19405", "zone_name": "탑마트 정관점 맞은편"}, {"address": "부산 기장군 정관읍 정관8로 3", "car_count": "3", "imaginary": "0", "is_d2d_car_exportable": "ABLE", "lat": "35.323681", "lng": "129.176773", "parking_name": "홈플러스 정관점 옆", "region1": "부산광역시", "region2": "기장군", "region3": "정관읍", "zone_id": "3688", "zone_name": "홈플러스 정관점 옆"}, {"address": "경남 김해시 대청동 302-4", "car_count": "4", "imaginary": "0", "is_d2d_car_exportable": "ABLE", "lat": "35.19197", "lng": "128.801771", "parking_name": "CGV 김해장유 옆", "region1": "경상남도", "region2": "김해시", "region3": "대청동", "zone_id": "7185", "zone_name": "CGV 김해장유 옆"}, {"address": "경남 김해시 대청동 59-4 VIP주차장", "car_count": "1", "imaginary": "0", "is_d2d_car_exportable": "ABLE", "lat": "35.193922", "lng": "128.79907", "parking_name": "NH농협은행 장유서지점 앞", "region1": "경상남도", "region2": "김해시", "region3": "대청동", "zone_id": "19794", "zone_name": "NH농협은행 장유서지점 앞"}, {"address": "경남 김해시 진영읍 여래리 968-3", "car_count": "4", "imaginary": "5", "is_d2d_car_exportable": "ABLE", "lat": "35.307344", "lng": "128.737024", "parking_name": "진영랜드 주차장", "region1": "경상남도", "region2": "김해시", "region3": "진영읍", "zone_id": "11525", "zone_name": "경남은행 진영지점 뒤편"}, {"address": "경남 김해시 관동동 1052-1 관동동 공영주차장", "car_count": "6", "imaginary": "0", "is_d2d_car_exportable": "ABLE", "lat": "35.17631", "lng": "128.805306", "parking_name": "관동동 공영주차장", "region1": "경상남도", "region2": "김해시", "region3": "관동동", "zone_id": "20815", "zone_name": "관동동 공영주차장"}, {"address": "경남 김해시 구산동 440-8", "car_count": "5", "imaginary": "0", "is_d2d_car_exportable": "ABLE", "lat": "35.249237", "lng": "128.873749", "parking_name": "로타리주차장", "region1": "경상남도", "region2": "김해시", "region3": "구산동", "zone_id": "5391", "zone_name": "김해 구산육거리"}, {"address": "경남 김해시 삼정동 641-25 태원빌 쏘카지정주차구역", "car_count": "1", "imaginary": "0", "is_d2d_car_exportable": "ABLE", "lat": "35.231978", "lng": "128.900943", "parking_name": "김해 삼성초등학교 앞", "region1": "경상남도", "region2": "김해시", "region3": "삼정동", "zone_id": "18850", "zone_name": "김해 삼성초등학교 앞"}, {"address": "경남 김해시 외동 902-8", "car_count": "1", "imaginary": "0", "is_d2d_car_exportable": "ABLE", "lat": "35.232531", "lng": "128.849852", "parking_name": "김해 외동사거리", "region1": "경상남도", "region2": "김해시", "region3": "외동", "zone_id": "7187", "zone_name": "김해 외동사거리"}, {"address": "경남 김해시 내동 1131-4", "car_count": "1", "imaginary": "0", "is_d2d_car_exportable": "ABLE", "lat": "35.242232", "lng": "128.868292", "parking_name": "김해 휴앤락몰(전기차)", "region1": "경상남도", "region2": "김해시", "region3": "내동", "zone_id": "22884", "zone_name": "김해 휴앤락몰(전기차)"}, {"address": "경남 김해시 삼정동 590-3", "car_count": "2", "imaginary": "0", "is_d2d_car_exportable": "ABLE", "lat": "35.230932", "lng": "128.894915", "parking_name": "동림주차장", "region1": "경상남도", "region2": "김해시", "region3": "삼정동", "zone_id": "11730", "zone_name": "김해고등학교 옆"}, {"address": "경남 김해시 삼계동 1469-4 삼계44통 공영주차장", "car_count": "1", "imaginary": "0", "is_d2d_car_exportable": "ABLE", "lat": "35.262698", "lng": "128.868014", "parking_name": "김해삼계동우체국 옆", "region1": "경상남도", "region2": "김해시", "region3": "삼계동", "zone_id": "19300", "zone_name": "김해삼계동우체국 옆"}, {"address": "경남 김해시 봉황동 25-30", "car_count": "1", "imaginary": "0", "is_d2d_car_exportable": "ABLE", "lat": "35.227819", "lng": "128.880414", "parking_name": "김해중부경찰서 뒤", "region1": "경상남도", "region2": "김해시", "region3": "봉황동", "zone_id": "20265", "zone_name": "김해중부경찰서 뒤"}, {"address": "경남 김해시 내동 1117-2", "car_count": "15", "imaginary": "0", "is_d2d_car_exportable": "ABLE", "lat": "35.235457", "lng": "128.866061", "parking_name": "내외동 경보프라자", "region1": "경상남도", "region2": "김해시", "region3": "내동", "zone_id": "11358", "zone_name": "내외동 경보프라자"}, {"address": "경남 김해시 진영읍 진영리 299-5", "car_count": "1", "imaginary": "0", "is_d2d_car_exportable": "ABLE", "lat": "35.306321", "lng": "128.727914", "parking_name": "롯데 하이마트 진영점", "region1": "경상남도", "region2": "김해시", "region3": "진영읍", "zone_id": "13073", "zone_name": "롯데 하이마트 진영점"}, {"address": "경남 김해시 신문동 1411 롯데호텔앤리조트 김해점 주차장", "car_count": "1", "imaginary": "0", "is_d2d_car_exportable": "ABLE", "lat": "35.181026", "lng": "128.825294", "parking_name": "롯데호텔앤리조트 김해", "region1": "경상남도", "region2": "김해시", "region3": "신문동", "zone_id": "22937", "zone_name": "롯데호텔앤리조트 김해"}, {"address": "경남 김해시 외동 1253-1", "car_count": "2", "imaginary": "0", "is_d2d_car_exportable": "ABLE", "lat": "35.233246", "lng": "128.865662", "parking_name": "메가마트 외동점 옆", "region1": "경상남도", "region2": "김해시", "region3": "외동", "zone_id": "3251", "zone_name": "메가마트 외동점 옆"}, {"address": "경남 김해시 전하동 27-1", "car_count": "2", "imaginary": "0", "is_d2d_car_exportable": "ABLE", "lat": "35.2259", "lng": "128.873854", "parking_name": "봉황역 1번출구", "region1": "경상남도", "region2": "김해시", "region3": "전하동", "zone_id": "2034", "zone_name": "봉황역 1번출구"}, {"address": "경남 김해시 부원동 1049 부원역 공영주차장", "car_count": "1", "imaginary": "0", "is_d2d_car_exportable": "ABLE", "lat": "35.225192", "lng": "128.885294", "parking_name": "부원역 공영주차장", "region1": "경상남도", "region2": "김해시", "region3": "부원동", "zone_id": "13966", "zone_name": "부원역 1번출구"}, {"address": "경남 김해시 부원동 615-8", "car_count": "1", "imaginary": "0", "is_d2d_car_exportable": "ABLE", "lat": "35.227943", "lng": "128.88591", "parking_name": "일진주차장", "region1": "경상남도", "region2": "김해시", "region3": "부원동", "zone_id": "3779", "zone_name": "부원역 2번출구"}, {"address": "경남 김해시 부원동 606-3", "car_count": "1", "imaginary": "0", "is_d2d_car_exportable": "ABLE", "lat": "35.226953", "lng": "128.883708", "parking_name": "부원역 센텀그린코아아파트", "region1": "경상남도", "region2": "김해시", "region3": "부원동", "zone_id": "14728", "zone_name": "부원역 센텀그린코아아파트"}, {"address": "경남 김해시 삼방동 674-1 경남 김해시 삼방동 674-1 지하 1층", "car_count": "2", "imaginary": "5", "is_d2d_car_exportable": "ABLE", "lat": "35.249648", "lng": "128.907627", "parking_name": "삼방공원공영주차장", "region1": "경상남도", "region2": "김해시", "region3": "삼방동", "zone_id": "21875", "zone_name": "삼방공원공영주차장"}, {"address": "경남 김해시 내동 1068 연지공원공영주차장", "car_count": "2", "imaginary": "0", "is_d2d_car_exportable": "ABLE", "lat": "35.244974", "lng": "128.86724", "parking_name": "연지공원 공영주차장", "region1": "경상남도", "region2": "김해시", "region3": "내동", "zone_id": "19299", "zone_name": "연지공원 공영주차장"}, {"address": "경남 김해시 장유동 841", "car_count": "3", "imaginary": "0", "is_d2d_car_exportable": "ABLE", "lat": "35.170142", "lng": "128.823", "parking_name": "율하태성주차빌딩", "region1": "경상남도", "region2": "김해시", "region3": "장유동", "zone_id": "15433", "zone_name": "율하2지구 롯데슈퍼"}, {"address": "경남 김해시 장유동 825-4 섬진주차장", "car_count": "1", "imaginary": "0", "is_d2d_car_exportable": "ABLE", "lat": "35.172266", "lng": "128.824415", "parking_name": "율하2지구 먹자골목", "region1": "경상남도", "region2": "김해시", "region3": "장유동", "zone_id": "22578", "zone_name": "율하2지구 먹자골목"}, {"address": "경남 김해시 율하동 1368", "car_count": "1", "imaginary": "0", "is_d2d_car_exportable": "ABLE", "lat": "35.168572", "lng": "128.815939", "parking_name": "이마트에브리데이 김해율하점", "region1": "경상남도", "region2": "김해시", "region3": "율하동", "zone_id": "15611", "zone_name": "이마트에브리데이 김해율하점"}, {"address": "경남 김해시 삼방동 161-2 인제공원공영주차장 인제공원 공영주차장 B1", "car_count": "4", "imaginary": "0", "is_d2d_car_exportable": "ABLE", "lat": "35.247634", "lng": "128.905282", "parking_name": "인제공원 공영주차장", "region1": "경상남도", "region2": "김해시", "region3": "삼방동", "zone_id": "20814", "zone_name": "인제공원 공영주차장"}, {"address": "김해시 어방동 522-5 제일유료주차장", "car_count": "4", "imaginary": "0", "is_d2d_car_exportable": "ABLE", "lat": "35.244757", "lng": "128.906107", "parking_name": "인제대학교 김해캠퍼스 앞", "region1": "경상남도", "region2": "김해시", "region3": "어방동", "zone_id": "15153", "zone_name": "인제대학교 김해캠퍼스 앞"}, {"address": "경남 김해시 삼계동 1503-9 태영주차장", "car_count": "4", "imaginary": "0", "is_d2d_car_exportable": "ABLE", "lat": "35.260025", "lng": "128.870037", "parking_name": "태영주차장", "region1": "경상남도", "region2": "김해시", "region3": "삼계동", "zone_id": "15204", "zone_name": "장신대역 2번출구"}, {"address": "경남 김해시 부곡동 1157-7", "car_count": "3", "imaginary": "0", "is_d2d_car_exportable": "ABLE", "lat": "35.202724", "lng": "128.806885", "parking_name": "프리코아상가", "region1": "경상남도", "region2": "김해시", "region3": "부곡동", "zone_id": "3159", "zone_name": "장유 건강지원센터(보건소)"}, {"address": "경남 김해시 대청동 317-8", "car_count": "5", "imaginary": "0", "is_d2d_car_exportable": "ABLE", "lat": "35.192822", "lng": "128.803066", "parking_name": "재영사우나 맞은편", "region1": "경상남도", "region2": "김해시", "region3": "대청동", "zone_id": "14208", "zone_name": "재영사우나 맞은편"}, {"address": "경남 김해시 진영읍 설창리 131-1 진영역", "car_count": "3", "imaginary": "5", "is_d2d_car_exportable": "ABLE", "lat": "35.297667", "lng": "128.773553", "parking_name": "진영역 주차장", "region1": "경상남도", "region2": "김해시", "region3": "진영읍", "zone_id": "15988", "zone_name": "진영역(KTX)"}, {"address": "경남 김해시 진영읍 진영리 1709-1 부성빌딩 주차장", "car_count": "2", "imaginary": "0", "is_d2d_car_exportable": "ABLE", "lat": "35.312509", "lng": "128.733093", "parking_name": "진영장등중학교 옆", "region1": "경상남도", "region2": "김해시", "region3": "진영읍", "zone_id": "20081", "zone_name": "진영장등중학교 옆"}, {"address": "부산 남구 문현동 1227-2", "car_count": "11", "imaginary": "0", "is_d2d_car_exportable": "ABLE", "lat": "35.147982", "lng": "129.065248", "parking_name": "IFC부산", "region1": "부산광역시", "region2": "남구", "region3": "문현동", "zone_id": "13178", "zone_name": "IFC부산"}, {"address": "울산광역시 남구 무거동 1529-11", "car_count": "2", "imaginary": "0", "is_d2d_car_exportable": "ABLE", "lat": "35.549142", "lng": "129.260986", "parking_name": "KT 서울산점 옆", "region1": "울산광역시", "region2": "남구", "region3": "무거동", "zone_id": "19040", "zone_name": "KT 서울산점 옆"}, {"address": "부산 남구 용호동 494-12 장안빌딩", "car_count": "1", "imaginary": "0", "is_d2d_car_exportable": "ABLE", "lat": "35.116845", "lng": "129.111472", "parking_name": "S-OIL 용호점 맞은편", "region1": "부산광역시", "region2": "남구", "region3": "용호동", "zone_id": "22757", "zone_name": "S-OIL 용호점 맞은편"}, {"address": "부산 남구 대연동 406-1 세웅빌딩", "car_count": "6", "imaginary": "0", "is_d2d_car_exportable": "ABLE", "lat": "35.136997", "lng": "129.098231", "parking_name": "경성대 부경대역 6번출구", "region1": "부산광역시", "region2": "남구", "region3": "대연동", "zone_id": "11458", "zone_name": "경성대 부경대역 6번출구"}, {"address": "부산 남구 대연동 86-4", "car_count": "1", "imaginary": "0", "is_d2d_car_exportable": "ABLE", "lat": "35.138351", "lng": "129.100723", "parking_name": "경성대 정문", "region1": "부산광역시", "region2": "남구", "region3": "대연동", "zone_id": "1268", "zone_name": "경성대 정문"}, {"address": "부산 남구 대연동 1088-3", "car_count": "1", "imaginary": "0", "is_d2d_car_exportable": "ABLE", "lat": "35.129434", "lng": "129.091078", "parking_name": "남부산농협 뒤편", "region1": "부산광역시", "region2": "남구", "region3": "대연동", "zone_id": "22861", "zone_name": "남부산농협 뒤편"}, {"address": "부산 남구 용소로34번길 49", "car_count": "4", "imaginary": "0", "is_d2d_car_exportable": "ABLE", "lat": "35.134367", "lng": "129.098456", "parking_name": "대연성당 뒤", "region1": "부산광역시", "region2": "남구", "region3": "대연동", "zone_id": "15793", "zone_name": "대연성당 뒤"}, {"address": "부산 남구 대연동 374-5 경원주차장", "car_count": "6", "imaginary": "0", "is_d2d_car_exportable": "ABLE", "lat": "35.134714", "lng": "129.096094", "parking_name": "대연성당 맞은편", "region1": "부산광역시", "region2": "남구", "region3": "대연동", "zone_id": "14419", "zone_name": "대연성당 맞은편"}, {"address": "부산 남구 대연동 74-5", "car_count": "5", "imaginary": "0", "is_d2d_car_exportable": "ABLE", "lat": "35.135879", "lng": "129.098076", "parking_name": "대연성당 옆", "region1": "부산광역시", "region2": "남구", "region3": "대연동", "zone_id": "11750", "zone_name": "대연성당 옆"}, {"address": "부산 남구 대연동 1745-1", "car_count": "2", "imaginary": "0", "is_d2d_car_exportable": "ABLE", "lat": "35.135429", "lng": "129.091614", "parking_name": "대연역 6번출구", "region1": "부산광역시", "region2": "남구", "region3": "대연동", "zone_id": "4136", "zone_name": "대연역 6번출구"}, {"address": "부산 남구 용당동 485-1 대우상용차", "car_count": "1", "imaginary": "0", "is_d2d_car_exportable": "ABLE", "lat": "35.12143", "lng": "129.099264", "parking_name": "동명대학교", "region1": "부산광역시", "region2": "남구", "region3": "용당동", "zone_id": "21861", "zone_name": "동명대학교"}, {"address": "울산 남구 달동 653", "car_count": "1", "imaginary": "0", "is_d2d_car_exportable": "ABLE", "lat": "35.5354", "lng": "129.32164", "parking_name": "달동골프클럽 주차장", "region1": "울산광역시", "region2": "남구", "region3": "달동", "zone_id": "5386", "zone_name": "동평사거리"}, {"address": "부산 남구 대연동 1764-3 롯데하이마트(대연점)", "car_count": "1", "imaginary": "0", "is_d2d_car_exportable": "ABLE", "lat": "35.134561", "lng": "129.086369", "parking_name": "롯데 하이마트 대연점", "region1": "부산광역시", "region2": "남구", "region3": "대연동", "zone_id": "16599", "zone_name": "롯데 하이마트 대연점"}, {"address": "울산 남구 무거동 859-10", "car_count": "1", "imaginary": "0", "is_d2d_car_exportable": "ABLE", "lat": "35.548381", "lng": "129.262272", "parking_name": "롯데 하이마트 울산대점", "region1": "울산광역시", "region2": "남구", "region3": "무거동", "zone_id": "16610", "zone_name": "롯데 하이마트 울산대점"}, {"address": "울산 남구 달동 1253-6", "car_count": "1", "imaginary": "0", "is_d2d_car_exportable": "ABLE", "lat": "35.538217", "lng": "129.333217", "parking_name": "롯데 하이마트 울산점", "region1": "울산광역시", "region2": "남구", "region3": "달동", "zone_id": "16609", "zone_name": "롯데 하이마트 울산점"}, {"address": "울산 남구 달동 830-1", "car_count": "3", "imaginary": "0", "is_d2d_car_exportable": "ABLE", "lat": "35.53363", "lng": "129.316243", "parking_name": "롯데마트 울산점", "region1": "울산광역시", "region2": "남구", "region3": "달동", "zone_id": "10370", "zone_name": "롯데마트 울산점"}, {"address": "울산 남구 삼산동 1480-1 롯데백화점, 울산고속버스터미널 롯데백화점 영플라자 4층 주차장", "car_count": "2", "imaginary": "0", "is_d2d_car_exportable": "ABLE", "lat": "35.537862", "lng": "129.339037", "parking_name": "롯데백화점 울산점", "region1": "울산광역시", "region2": "남구", "region3": "삼산동", "zone_id": "22636", "zone_name": "롯데백화점 울산점"}, {"address": "부산 남구 문현동 205-2 메가마켓", "car_count": "2", "imaginary": "5", "is_d2d_car_exportable": "ABLE", "lat": "35.137562", "lng": "129.072638", "parking_name": "메가마트 문현점", "region1": "부산광역시", "region2": "남구", "region3": "문현동", "zone_id": "14635", "zone_name": "메가마트 문현점"}, {"address": "울산 남구 무거동 1005-13 울산중앙농협 통합지원청사 주차장", "car_count": "1", "imaginary": "0", "is_d2d_car_exportable": "ABLE", "lat": "35.535809", "lng": "129.252421", "parking_name": "무거고등학교 앞", "region1": "울산광역시", "region2": "남구", "region3": "무거동", "zone_id": "19787", "zone_name": "무거고등학교 앞"}, {"address": "울산 남구 무거동 463", "car_count": "2", "imaginary": "0", "is_d2d_car_exportable": "ABLE", "lat": "35.547409", "lng": "129.263046", "parking_name": "무거지구대", "region1": "울산광역시", "region2": "남구", "region3": "무거동", "zone_id": "3078", "zone_name": "무거지구대"}, {"address": "울산 남구 무거동 272-15", "car_count": "1", "imaginary": "0", "is_d2d_car_exportable": "ABLE", "lat": "35.554489", "lng": "129.264473", "parking_name": "문수고등학교 맞은편", "region1": "울산광역시", "region2": "남구", "region3": "무거동", "zone_id": "7320", "zone_name": "문수고등학교 맞은편"}, {"address": "부산 남구 대연동 60-40", "car_count": "6", "imaginary": "0", "is_d2d_car_exportable": "ABLE", "lat": "35.135536", "lng": "129.101608", "parking_name": "부경대 대연캠퍼스 옆", "region1": "부산광역시", "region2": "남구", "region3": "대연동", "zone_id": "732", "zone_name": "부경대 대연캠퍼스 옆"}, {"address": "부산 남구 대연동 393-10", "car_count": "3", "imaginary": "0", "is_d2d_car_exportable": "ABLE", "lat": "35.135171", "lng": "129.099446", "parking_name": "동아(시오)주차장", "region1": "부산광역시", "region2": "남구", "region3": "대연동", "zone_id": "922", "zone_name": "부경대 정문 맞은편"}, {"address": "부산 남구 대연동 34-7 제니스1", "car_count": "3", "imaginary": "0", "is_d2d_car_exportable": "ABLE", "lat": "35.138389", "lng": "129.104819", "parking_name": "부경대학교 대연캠퍼스 쪽문", "region1": "부산광역시", "region2": "남구", "region3": "대연동", "zone_id": "16561", "zone_name": "부경대학교 대연캠퍼스 쪽문"}, {"address": "부산 남구 대연동 1763-6 부산성소병원", "car_count": "1", "imaginary": "0", "is_d2d_car_exportable": "ABLE", "lat": "35.13509", "lng": "129.085777", "parking_name": "부산성소병원", "region1": "부산광역시", "region2": "남구", "region3": "대연동", "zone_id": "20114", "zone_name": "부산성소병원"}, {"address": "울산 남구 삼산동 1377-7 세이브존", "car_count": "3", "imaginary": "0", "is_d2d_car_exportable": "ABLE", "lat": "35.548678", "lng": "129.324661", "parking_name": "세이브존 울산점", "region1": "울산광역시", "region2": "남구", "region3": "삼산동", "zone_id": "16325", "zone_name": "세이브존 울산점"}, {"address": "울산 남구 달동 1272-3 카카오T 금강주차장", "car_count": "1", "imaginary": "0", "is_d2d_car_exportable": "ABLE", "lat": "35.535116", "lng": "129.33", "parking_name": "스타벅스 울산번영로DT점 앞", "region1": "울산광역시", "region2": "남구", "region3": "달동", "zone_id": "19965", "zone_name": "스타벅스 울산번영로DT점 앞"}, {"address": "울산 남구 삼산동 224-17", "car_count": "1", "imaginary": "0", "is_d2d_car_exportable": "ABLE", "lat": "35.540228", "lng": "129.347392", "parking_name": "스타즈호텔 울산", "region1": "울산광역시", "region2": "남구", "region3": "삼산동", "zone_id": "16323", "zone_name": "스타즈호텔 울산"}, {"address": "부산 남구 용호동 733-4 통일주차장", "car_count": "1", "imaginary": "0", "is_d2d_car_exportable": "ABLE", "lat": "35.117155", "lng": "129.110298", "parking_name": "통일주차장", "region1": "부산광역시", "region2": "남구", "region3": "용호동", "zone_id": "14530", "zone_name": "용호성당 맞은편"}, {"address": "부산 남구 용호동 170 중앙해수월드 중앙해수랜드 주차장", "car_count": "1", "imaginary": "0", "is_d2d_car_exportable": "ABLE", "lat": "35.125499", "lng": "129.110553", "parking_name": "우리은행 메트로시티점", "region1": "부산광역시", "region2": "남구", "region3": "용호동", "zone_id": "14051", "zone_name": "우리은행 메트로시티점"}, {"address": "울산 남구 달동 1252-7", "car_count": "3", "imaginary": "0", "is_d2d_car_exportable": "ABLE", "lat": "35.537515", "lng": "129.33207", "parking_name": "울산 MH컨벤션", "region1": "울산광역시", "region2": "남구", "region3": "달동", "zone_id": "11003", "zone_name": "울산 MH컨벤션"}, {"address": "울산 남구 달동 590-12", "car_count": "4", "imaginary": "0", "is_d2d_car_exportable": "ABLE", "lat": "35.537498", "lng": "129.326477", "parking_name": "울산 극동방송 옆", "region1": "울산광역시", "region2": "남구", "region3": "달동", "zone_id": "5389", "zone_name": "울산 극동방송 옆"}, {"address": "울산 남구 신정동 678-1", "car_count": "3", "imaginary": "0", "is_d2d_car_exportable": "ABLE", "lat": "35.535245", "lng": "129.311768", "parking_name": "케이엠파크 울산신정동제2", "region1": "울산광역시", "region2": "남구", "region3": "신정동", "zone_id": "13133", "zone_name": "울산 남부경찰서 옆"}, {"address": "울산 남구 옥동 156-24 울산 대륙골프프라자 주차장", "car_count": "2", "imaginary": "0", "is_d2d_car_exportable": "ABLE", "lat": "35.533746", "lng": "129.296296", "parking_name": "울산 대륙골프프라자", "region1": "울산광역시", "region2": "남구", "region3": "옥동", "zone_id": "12968", "zone_name": "울산 대륙골프프라자"}, {"address": "울산 남구 달동 871-3", "car_count": "2", "imaginary": "0", "is_d2d_car_exportable": "ABLE", "lat": "35.537914", "lng": "129.315155", "parking_name": "울산 시청사거리", "region1": "울산광역시", "region2": "남구", "region3": "달동", "zone_id": "1459", "zone_name": "울산 시청사거리"}, {"address": "울산 남구 무거동 316-2", "car_count": "19", "imaginary": "3", "is_d2d_car_exportable": "ABLE", "lat": "35.550678", "lng": "129.262849", "parking_name": "울산 신복환승센터", "region1": "울산광역시", "region2": "남구", "region3": "무거동", "zone_id": "22550", "zone_name": "울산 신복환승센터"}, {"address": "울산 남구 달동 1408-5 굿모닝병원 제3 전용주차장", "car_count": "1", "imaginary": "0", "is_d2d_car_exportable": "ABLE", "lat": "35.533901", "lng": "129.319283", "parking_name": "울산 청솔초등학교 옆", "region1": "울산광역시", "region2": "남구", "region3": "달동", "zone_id": "13649", "zone_name": "울산 청솔초등학교 옆"}, {"address": "울산 남구 무거동 629-10", "car_count": "9", "imaginary": "0", "is_d2d_car_exportable": "ABLE", "lat": "35.542278", "lng": "129.26059", "parking_name": "대학유료주차장", "region1": "울산광역시", "region2": "남구", "region3": "무거동", "zone_id": "1019", "zone_name": "울산대 정문"}, {"address": "울산 남구 옥동 318", "car_count": "1", "imaginary": "0", "is_d2d_car_exportable": "ABLE", "lat": "35.531928", "lng": "129.292429", "parking_name": "울산대공원 정문", "region1": "울산광역시", "region2": "남구", "region3": "옥동", "zone_id": "20831", "zone_name": "울산대공원 정문"}, {"address": "울산 남구 달동 1301-11", "car_count": "2", "imaginary": "0", "is_d2d_car_exportable": "ABLE", "lat": "35.535644", "lng": "129.338272", "parking_name": "울산시외버스터미널 뒤편", "region1": "울산광역시", "region2": "남구", "region3": "달동", "zone_id": "15205", "zone_name": "울산시외버스터미널 뒤편"}, {"address": "울산 남구 삼산동 1619-8", "car_count": "6", "imaginary": "0", "is_d2d_car_exportable": "ABLE", "lat": "35.536383", "lng": "129.340633", "parking_name": "울산시외버스터미널 맞은편", "region1": "울산광역시", "region2": "남구", "region3": "삼산동", "zone_id": "12103", "zone_name": "울산시외버스터미널 맞은편"}, {"address": "울산 남구 삼산동 1481-6", "car_count": "5", "imaginary": "0", "is_d2d_car_exportable": "ABLE", "lat": "35.535825", "lng": "129.338867", "parking_name": "울산시외버스터미널 옆", "region1": "울산광역시", "region2": "남구", "region3": "삼산동", "zone_id": "16939", "zone_name": "울산시외버스터미널 옆"}, {"address": "울산 남구 삼산동 1568-1", "car_count": "5", "imaginary": "0", "is_d2d_car_exportable": "ABLE", "lat": "35.541793", "lng": "129.33974", "parking_name": "울산업스퀘어 맞은편", "region1": "울산광역시", "region2": "남구", "region3": "삼산동", "zone_id": "19955", "zone_name": "울산업스퀘어 맞은편"}, {"address": "울산 남구 신정동 689-1 종하이노베이션센터", "car_count": "2", "imaginary": "0", "is_d2d_car_exportable": "ABLE", "lat": "35.536207", "lng": "129.309489", "parking_name": "종하이노베이션센터", "region1": "울산광역시", "region2": "남구", "region3": "신정동", "zone_id": "20830", "zone_name": "종하이노베이션센터"}, {"address": "부산 남구 문현동 246-5", "car_count": "1", "imaginary": "0", "is_d2d_car_exportable": "ABLE", "lat": "35.136164", "lng": "129.072494", "parking_name": "지게골역 3번출구", "region1": "부산광역시", "region2": "남구", "region3": "문현동", "zone_id": "17489", "zone_name": "지게골역 3번출구"}, {"address": "울산 남구 삼산동 309-18", "car_count": "5", "imaginary": "0", "is_d2d_car_exportable": "ABLE", "lat": "35.536944", "lng": "129.352426", "parking_name": "태화강역(동해선)", "region1": "울산광역시", "region2": "남구", "region3": "삼산동", "zone_id": "19038", "zone_name": "태화강역(동해선)"}, {"address": "울산 남구 삼산동 1613-2 한진렌터카", "car_count": "1", "imaginary": "0", "is_d2d_car_exportable": "ABLE", "lat": "35.539619", "lng": "129.340945", "parking_name": "토요코인호텔 울산삼산점 옆", "region1": "울산광역시", "region2": "남구", "region3": "삼산동", "zone_id": "22568", "zone_name": "토요코인호텔 울산삼산점 옆"}, {"address": "울산 남구 달동 1369-13", "car_count": "1", "imaginary": "0", "is_d2d_car_exportable": "ABLE", "lat": "35.532535", "lng": "129.329601", "parking_name": "티스테이션 달동점", "region1": "울산광역시", "region2": "남구", "region3": "달동", "zone_id": "18498", "zone_name": "티스테이션 달동점"}, {"address": "부산 남구 용호동 541-18 농협하나로마트", "car_count": "1", "imaginary": "0", "is_d2d_car_exportable": "ABLE", "lat": "35.111875", "lng": "129.110514", "parking_name": "하나로마트 용호점", "region1": "부산광역시", "region2": "남구", "region3": "용호동", "zone_id": "16339", "zone_name": "하나로마트 용호점"}, {"address": "경남 남해군 남해읍 북변리 323", "car_count": "12", "imaginary": "0", "is_d2d_car_exportable": "UNABLE", "lat": "34.8409", "lng": "127.898319", "parking_name": "남해시외버스터미널 옆", "region1": "경상남도", "region2": "남해군", "region3": "남해읍", "zone_id": "11501", "zone_name": "남해시외버스터미널 옆"}, {"address": "울산 동구 전하동 449-2", "car_count": "1", "imaginary": "0", "is_d2d_car_exportable": "ABLE", "lat": "35.514796", "lng": "129.43073", "parking_name": "CU 전하바드레점", "region1": "울산광역시", "region2": "동구", "region3": "전하동", "zone_id": "12618", "zone_name": "CU 전하바드레점"}, {"address": "울산광역시 동구 동부동 332-2", "car_count": "1", "imaginary": "0", "is_d2d_car_exportable": "ABLE", "lat": "35.543306", "lng": "129.430076", "parking_name": "남목 마성시장 공영주차장", "region1": "울산광역시", "region2": "동구", "region3": "동부동", "zone_id": "19301", "zone_name": "남목 마성시장"}, {"address": "부산 동구 초량동 937-29", "car_count": "1", "imaginary": "0", "is_d2d_car_exportable": "ABLE", "lat": "35.119436", "lng": "129.038319", "parking_name": "다이소 부산초량점 옆", "region1": "부산광역시", "region2": "동구", "region3": "초량동", "zone_id": "13930", "zone_name": "다이소 부산초량점 옆"}, {"address": "울산 동구 일산동 962", "car_count": "2", "imaginary": "0", "is_d2d_car_exportable": "ABLE", "lat": "35.494534", "lng": "129.428881", "parking_name": "동울산 청년회의소 앞", "region1": "울산광역시", "region2": "동구", "region3": "일산동", "zone_id": "14064", "zone_name": "동울산 청년회의소 앞"}, {"address": "울산 동구 전하동 638-4", "car_count": "1", "imaginary": "0", "is_d2d_car_exportable": "ABLE", "lat": "35.510765", "lng": "129.429459", "parking_name": "동울산우체국 뒤편", "region1": "울산광역시", "region2": "동구", "region3": "전하동", "zone_id": "6185", "zone_name": "동울산우체국 뒤편"}, {"address": "울산 동구 일산동 951-1 하이마트", "car_count": "1", "imaginary": "0", "is_d2d_car_exportable": "ABLE", "lat": "35.498967", "lng": "129.428514", "parking_name": "롯데 하이마트 동구일산점", "region1": "울산광역시", "region2": "동구", "region3": "일산동", "zone_id": "16612", "zone_name": "롯데 하이마트 동구일산점"}, {"address": "울산 동구 방어동 125-3", "car_count": "1", "imaginary": "0", "is_d2d_car_exportable": "ABLE", "lat": "35.487691", "lng": "129.426243", "parking_name": "방어진 시외버스정류장", "region1": "울산광역시", "region2": "동구", "region3": "방어동", "zone_id": "9083", "zone_name": "방어진 시외버스정류장"}, {"address": "부산 동구 범일동 830-72", "car_count": "1", "imaginary": "0", "is_d2d_car_exportable": "ABLE", "lat": "35.140972", "lng": "129.063458", "parking_name": "범일동 한양아파트 옆", "region1": "부산광역시", "region2": "동구", "region3": "범일동", "zone_id": "7327", "zone_name": "범일동 한양아파트 옆"}, {"address": "부산 동구 수정동 355-2", "car_count": "1", "imaginary": "0", "is_d2d_car_exportable": "ABLE", "lat": "35.124729", "lng": "129.043686", "parking_name": "우일주차장", "region1": "부산광역시", "region2": "동구", "region3": "수정동", "zone_id": "5505", "zone_name": "부산국제영화고등학교 앞"}, {"address": "부산 동구 초량동 1209-5", "car_count": "5", "imaginary": "0", "is_d2d_car_exportable": "ABLE", "lat": "35.11382", "lng": "129.038409", "parking_name": "부산역 1번출구", "region1": "부산광역시", "region2": "동구", "region3": "초량동", "zone_id": "18403", "zone_name": "부산역 1번출구"}, {"address": "부산 동구 초량동 1204-9", "car_count": "27", "imaginary": "0", "is_d2d_car_exportable": "ABLE", "lat": "35.113539", "lng": "129.040119", "parking_name": "부산역 2번출구", "region1": "부산광역시", "region2": "동구", "region3": "초량동", "zone_id": "10882", "zone_name": "부산역 2번출구"}, {"address": "부산 동구 초량동 1212-6", "car_count": "20", "imaginary": "0", "is_d2d_car_exportable": "ABLE", "lat": "35.112362", "lng": "129.039601", "parking_name": "부산역 동보주차장", "region1": "부산광역시", "region2": "동구", "region3": "초량동", "zone_id": "8757", "zone_name": "부산역 4번출구"}, {"address": "부산 동구 초량동 1209-17", "car_count": "11", "imaginary": "0", "is_d2d_car_exportable": "ABLE", "lat": "35.114944", "lng": "129.038971", "parking_name": "부산역 5번출구", "region1": "부산광역시", "region2": "동구", "region3": "초량동", "zone_id": "645", "zone_name": "부산역 5번출구"}, {"address": "부산 동구 초량동 1204-1 부산역라마다앙코르호텔", "car_count": "39", "imaginary": "0", "is_d2d_car_exportable": "UNABLE", "lat": "35.11427", "lng": "129.040477", "parking_name": "부산역(KTX) 라마다앙코르호텔", "region1": "부산광역시", "region2": "동구", "region3": "초량동", "zone_id": "14491", "zone_name": "부산역(KTX) 라마다앙코르호텔"}, {"address": "부산 동구 초량동 1187-25", "car_count": "5", "imaginary": "0", "is_d2d_car_exportable": "ABLE", "lat": "35.116722", "lng": "129.042457", "parking_name": "부산역(KTX) 아스티호텔 옆", "region1": "부산광역시", "region2": "동구", "region3": "초량동", "zone_id": "15823", "zone_name": "부산역(KTX) 아스티호텔 옆"}, {"address": "부산 동구 초량동 1198-4", "car_count": "25", "imaginary": "0", "is_d2d_car_exportable": "ABLE", "lat": "35.117255", "lng": "129.041511", "parking_name": "부산역(KTX) 옆", "region1": "부산광역시", "region2": "동구", "region3": "초량동", "zone_id": "2927", "zone_name": "부산역(KTX) 옆"}, {"address": "부산 동구 초량동 1213-5", "car_count": "2", "imaginary": "0", "is_d2d_car_exportable": "ABLE", "lat": "35.112424", "lng": "129.04023", "parking_name": "부산역(KTX) 오름레지던스호텔", "region1": "부산광역시", "region2": "동구", "region3": "초량동", "zone_id": "16243", "zone_name": "부산역(KTX) 오름레지던스호텔"}, {"address": "부산 동구 중앙대로180번길 16-10", "car_count": "3", "imaginary": "0", "is_d2d_car_exportable": "ABLE", "lat": "35.112145", "lng": "129.040111", "parking_name": "부산역(KTX) 이데아호텔", "region1": "부산광역시", "region2": "동구", "region3": "초량동", "zone_id": "15887", "zone_name": "부산역(KTX) 이데아호텔"}, {"address": "부산 동구 초량동 1204-5 역전주차장", "car_count": "17", "imaginary": "0", "is_d2d_car_exportable": "ABLE", "lat": "35.113794", "lng": "129.040319", "parking_name": "역전주차장", "region1": "부산광역시", "region2": "동구", "region3": "초량동", "zone_id": "16033", "zone_name": "부산역(KTX) 토요코인호텔 옆"}, {"address": "부산 동구 초량동 1187-22", "car_count": "26", "imaginary": "0", "is_d2d_car_exportable": "ABLE", "lat": "35.111947", "lng": "129.04032", "parking_name": "부산역(KTX) 풍물거리", "region1": "부산광역시", "region2": "동구", "region3": "초량동", "zone_id": "265", "zone_name": "부산역(KTX) 풍물거리"}, {"address": "부산 동구 초량동 1195-8 JS주차장", "car_count": "33", "imaginary": "0", "is_d2d_car_exportable": "ABLE", "lat": "35.117787", "lng": "129.042747", "parking_name": "부산역(KTX) 하운드호텔 뒤편", "region1": "부산광역시", "region2": "동구", "region3": "초량동", "zone_id": "17297", "zone_name": "부산역(KTX) 하운드호텔 뒤편"}, {"address": "부산 동구 수정동 1-131 조광빌딩 모닝글로리 수정점, 조광빌딩 지하주차장 사이 골목", "car_count": "1", "imaginary": "0", "is_d2d_car_exportable": "ABLE", "lat": "35.1291", "lng": "129.048109", "parking_name": "부산진역 7번출구", "region1": "부산광역시", "region2": "동구", "region3": "수정동", "zone_id": "22742", "zone_name": "부산진역 7번출구"}, {"address": "부산 동구 초량동 444-3", "car_count": "1", "imaginary": "0", "is_d2d_car_exportable": "ABLE", "lat": "35.116306", "lng": "129.038467", "parking_name": "브라운도트호텔 부산역점", "region1": "부산광역시", "region2": "동구", "region3": "초량동", "zone_id": "6237", "zone_name": "브라운도트호텔 부산역점"}, {"address": "부산 동구 범일동 825-5 유니클로 범일점", "car_count": "1", "imaginary": "0", "is_d2d_car_exportable": "ABLE", "lat": "35.136705", "lng": "129.064127", "parking_name": "유니클로 부산범일점", "region1": "부산광역시", "region2": "동구", "region3": "범일동", "zone_id": "14395", "zone_name": "유니클로 부산범일점"}, {"address": "울산 동구 일산동 457-6", "car_count": "1", "imaginary": "0", "is_d2d_car_exportable": "ABLE", "lat": "35.504528", "lng": "129.429243", "parking_name": "찬물락사거리", "region1": "울산광역시", "region2": "동구", "region3": "일산동", "zone_id": "3079", "zone_name": "찬물락사거리"}, {"address": "부산 동구 초량동 1191-6 현대주차장", "car_count": "5", "imaginary": "0", "is_d2d_car_exportable": "ABLE", "lat": "35.119309", "lng": "129.042528", "parking_name": "초량역 2번출구", "region1": "부산광역시", "region2": "동구", "region3": "초량동", "zone_id": "13962", "zone_name": "초량역 2번출구"}, {"address": "부산 동구 범일동 62-5", "car_count": "3", "imaginary": "0", "is_d2d_car_exportable": "ABLE", "lat": "35.141441", "lng": "129.058075", "parking_name": "커넥트현대", "region1": "부산광역시", "region2": "동구", "region3": "범일동", "zone_id": "6088", "zone_name": "커넥트현대"}, {"address": "울산 동구 서부동 105-3 ", "car_count": "1", "imaginary": "0", "is_d2d_car_exportable": "ABLE", "lat": "35.521719", "lng": "129.430995", "parking_name": "현대백화점 울산동구점", "region1": "울산광역시", "region2": "동구", "region3": "서부동", "zone_id": "14039", "zone_name": "현대백화점 울산동구점"}, {"address": "울산 동구 서부동 110-14 현대예술관 지하 1층 주차장", "car_count": "1", "imaginary": "0", "is_d2d_car_exportable": "ABLE", "lat": "35.522875", "lng": "129.431679", "parking_name": "현대예술관", "region1": "울산광역시", "region2": "동구", "region3": "서부동", "zone_id": "13556", "zone_name": "현대예술관"}, {"address": "울산 동구 서부동 279-15 삼전관기숙사 현대중공업 삼전재기숙사 지상 1층", "car_count": "1", "imaginary": "0", "is_d2d_car_exportable": "ABLE", "lat": "35.533123", "lng": "129.431351", "parking_name": "현대중공업 삼전재", "region1": "울산광역시", "region2": "동구", "region3": "서부동", "zone_id": "13559", "zone_name": "현대중공업 삼전재"}, {"address": "울산 동구 서부동 231-1 율전재 기숙사 현대중공업 율전재기숙사 지하2층", "car_count": "1", "imaginary": "0", "is_d2d_car_exportable": "ABLE", "lat": "35.526392", "lng": "129.432498", "parking_name": "현대중공업 율전재", "region1": "울산광역시", "region2": "동구", "region3": "서부동", "zone_id": "13558", "zone_name": "현대중공업 율전재"}, {"address": "울산 동구 방어동 1060 화암관기숙사 현대중공업 화암재1동 지하1층", "car_count": "1", "imaginary": "0", "is_d2d_car_exportable": "ABLE", "lat": "35.475663", "lng": "129.41099", "parking_name": "현대중공업 화암재1동", "region1": "울산광역시", "region2": "동구", "region3": "방어동", "zone_id": "13560", "zone_name": "현대중공업 화암재1동"}, {"address": "울산 동구 방어동 1044-17", "car_count": "2", "imaginary": "0", "is_d2d_car_exportable": "ABLE", "lat": "35.477322", "lng": "129.411575", "parking_name": "현대중공업 화암재2동 옆", "region1": "울산광역시", "region2": "동구", "region3": "방어동", "zone_id": "5681", "zone_name": "현대중공업 화암재2동 옆"}, {"address": "울산 동구 화정동 857-1", "car_count": "3", "imaginary": "0", "is_d2d_car_exportable": "ABLE", "lat": "35.495898", "lng": "129.422613", "parking_name": "화정동 주민센터 공영주차장", "region1": "울산광역시", "region2": "동구", "region3": "화정동", "zone_id": "9078", "zone_name": "화정동 주민센터"}, {"address": "울산 동구 화정동 159-23 대송자동차 정비공업사 주차장", "car_count": "1", "imaginary": "0", "is_d2d_car_exportable": "ABLE", "lat": "35.500952", "lng": "129.419252", "parking_name": "대송 자동차 정비공업사", "region1": "울산광역시", "region2": "동구", "region3": "화정동", "zone_id": "14299", "zone_name": "화정초등학교 앞"}, {"address": "부산 동래구 명장동 23-2 GS슈퍼마켓", "car_count": "1", "imaginary": "0", "is_d2d_car_exportable": "ABLE", "lat": "35.206353", "lng": "129.101839", "parking_name": "GS더프레시 명장점", "region1": "부산광역시", "region2": "동래구", "region3": "명장동", "zone_id": "16340", "zone_name": "GS더프레시 명장점"}, {"address": "부산 동래구 칠산동 314-11", "car_count": "1", "imaginary": "0", "is_d2d_car_exportable": "ABLE", "lat": "35.200671", "lng": "129.090252", "parking_name": "낙민역 1번출구", "region1": "부산광역시", "region2": "동래구", "region3": "칠산동", "zone_id": "18303", "zone_name": "낙민역 1번출구"}, {"address": "부산 동래구 온천3동 1377-16", "car_count": "1", "imaginary": "0", "is_d2d_car_exportable": "ABLE", "lat": "35.201248", "lng": "129.069412", "parking_name": "동래국민체육센터 옆", "region1": "부산광역시", "region2": "동래구", "region3": "온천동", "zone_id": "3355", "zone_name": "동래국민체육센터 옆"}, {"address": "부산 동래구 낙민동 130-8", "car_count": "5", "imaginary": "0", "is_d2d_car_exportable": "ABLE", "lat": "35.19725", "lng": "129.091343", "parking_name": "동래역(동해선)", "region1": "부산광역시", "region2": "동래구", "region3": "낙민동", "zone_id": "7315", "zone_name": "동래역(동해선)"}, {"address": "부산 동래구 온천동 754-12", "car_count": "2", "imaginary": "0", "is_d2d_car_exportable": "ABLE", "lat": "35.212094", "lng": "129.076601", "parking_name": "롯데백화점 동래점 뒤편", "region1": "부산광역시", "region2": "동래구", "region3": "온천동", "zone_id": "4177", "zone_name": "롯데백화점 동래점 뒤편"}, {"address": "부산 동래구 명륜동 506-3 메가마트 메가마트 동래점 지상 2층 주차장", "car_count": "3", "imaginary": "0", "is_d2d_car_exportable": "ABLE", "lat": "35.20423", "lng": "129.081178", "parking_name": "메가마트 동래점", "region1": "부산광역시", "region2": "동래구", "region3": "명륜동", "zone_id": "14573", "zone_name": "메가마트 동래점"}, {"address": "부산 동래구 명륜동 502-10", "car_count": "1", "imaginary": "0", "is_d2d_car_exportable": "ABLE", "lat": "35.20498", "lng": "129.08206", "parking_name": "메가마트 동래점 옆", "region1": "부산광역시", "region2": "동래구", "region3": "명륜동", "zone_id": "15775", "zone_name": "메가마트 동래점 옆"}, {"address": "부산 동래구 명륜동 741", "car_count": "1", "imaginary": "0", "is_d2d_car_exportable": "ABLE", "lat": "35.213564", "lng": "129.080496", "parking_name": "명륜역 4번출구", "region1": "부산광역시", "region2": "동래구", "region3": "명륜동", "zone_id": "2549", "zone_name": "명륜역 4번출구"}, {"address": "부산 동래구 명륜동 568-6 지상 1층 주차장", "car_count": "1", "imaginary": "0", "is_d2d_car_exportable": "ABLE", "lat": "35.206177", "lng": "129.082537", "parking_name": "명륜초등학교 옆", "region1": "부산광역시", "region2": "동래구", "region3": "명륜동", "zone_id": "14731", "zone_name": "명륜초등학교 옆"}, {"address": "부산 동래구 온천동 1429-4", "car_count": "1", "imaginary": "0", "is_d2d_car_exportable": "ABLE", "lat": "35.20745", "lng": "129.072844", "parking_name": "미남역 12번출구", "region1": "부산광역시", "region2": "동래구", "region3": "온천동", "zone_id": "16234", "zone_name": "미남역 12번출구"}, {"address": "부산 동래구 온천동 1414-5", "car_count": "2", "imaginary": "0", "is_d2d_car_exportable": "ABLE", "lat": "35.203209", "lng": "129.068669", "parking_name": "미남역 2번출구", "region1": "부산광역시", "region2": "동래구", "region3": "온천동", "zone_id": "16236", "zone_name": "미남역 2번출구"}, {"address": "부산 동래구 온천동 1247-3", "car_count": "1", "imaginary": "0", "is_d2d_car_exportable": "ABLE", "lat": "35.205595", "lng": "129.066726", "parking_name": "미남역 3번출구", "region1": "부산광역시", "region2": "동래구", "region3": "온천동", "zone_id": "14437", "zone_name": "미남역 3번출구"}, {"address": "부산 동래구 온천동 1447-21 프린스 민영 주차장", "car_count": "2", "imaginary": "0", "is_d2d_car_exportable": "ABLE", "lat": "35.2054", "lng": "129.069806", "parking_name": "미남역 6번출구", "region1": "부산광역시", "region2": "동래구", "region3": "온천동", "zone_id": "19958", "zone_name": "미남역 6번출구"}, {"address": "부산 동래구 사직동 48-1 명성민영주차장", "car_count": "1", "imaginary": "0", "is_d2d_car_exportable": "ABLE", "lat": "35.199282", "lng": "129.061025", "parking_name": "사직1동 행정복지센터 뒤", "region1": "부산광역시", "region2": "동래구", "region3": "사직동", "zone_id": "20209", "zone_name": "사직1동 행정복지센터 뒤"}, {"address": "부산 동래구 사직동 89-1 서호상가 주차장", "car_count": "2", "imaginary": "0", "is_d2d_car_exportable": "ABLE", "lat": "35.195834", "lng": "129.058614", "parking_name": "사직운동장 맞은편", "region1": "부산광역시", "region2": "동래구", "region3": "사직동", "zone_id": "22948", "zone_name": "사직운동장 맞은편"}, {"address": "부산 동래구 사직동 46-28", "car_count": "2", "imaginary": "0", "is_d2d_car_exportable": "ABLE", "lat": "35.198135", "lng": "129.060089", "parking_name": "사직운동장 정문", "region1": "부산광역시", "region2": "동래구", "region3": "사직동", "zone_id": "2490", "zone_name": "사직운동장 정문"}, {"address": "부산 동래구 안락동 445-32", "car_count": "1", "imaginary": "0", "is_d2d_car_exportable": "ABLE", "lat": "35.19973", "lng": "129.104233", "parking_name": "안락새마을금고 본점 옆", "region1": "부산광역시", "region2": "동래구", "region3": "안락동", "zone_id": "21862", "zone_name": "안락새마을금고 본점 옆"}, {"address": "부산 동래구 안락동 201-2 동해남부선 안락역 안락역제2주차장", "car_count": "1", "imaginary": "0", "is_d2d_car_exportable": "ABLE", "lat": "35.195951", "lng": "129.102135", "parking_name": "안락역(동해선) 1번출구", "region1": "부산광역시", "region2": "동래구", "region3": "안락동", "zone_id": "19733", "zone_name": "안락역(동해선) 1번출구"}, {"address": "부산 동래구 안락동 534-3 케이엠파크 안락역 제1주차장", "car_count": "2", "imaginary": "0", "is_d2d_car_exportable": "ABLE", "lat": "35.195888", "lng": "129.099463", "parking_name": "안락역(동해선) 3번출구", "region1": "부산광역시", "region2": "동래구", "region3": "안락동", "zone_id": "15503", "zone_name": "안락역(동해선) 3번출구"}, {"address": "부산 동래구 사직동 132-6", "car_count": "1", "imaginary": "0", "is_d2d_car_exportable": "ABLE", "lat": "35.195563", "lng": "129.071591", "parking_name": "여명중학교 옆", "region1": "부산광역시", "region2": "동래구", "region3": "사직동", "zone_id": "7524", "zone_name": "여명중학교 옆"}, {"address": "부산 동래구 온천동 182-7 KH파인우스", "car_count": "1", "imaginary": "0", "is_d2d_car_exportable": "ABLE", "lat": "35.218131", "lng": "129.081952", "parking_name": "온천장교차로", "region1": "부산광역시", "region2": "동래구", "region3": "온천동", "zone_id": "14770", "zone_name": "온천장교차로"}, {"address": "부산 동래구 온천동 1750-1 도시철도온천장역 온천장역 남측공영주차장", "car_count": "4", "imaginary": "0", "is_d2d_car_exportable": "ABLE", "lat": "35.218715", "lng": "129.085377", "parking_name": "온천장역 남측공영주차장", "region1": "부산광역시", "region2": "동래구", "region3": "온천동", "zone_id": "21361", "zone_name": "온천장역 남측공영주차장"}, {"address": "부산 동래구 온천동 210-99", "car_count": "1", "imaginary": "0", "is_d2d_car_exportable": "ABLE", "lat": "35.219404", "lng": "129.080162", "parking_name": "온천파킹주차장", "region1": "부산광역시", "region2": "동래구", "region3": "온천동", "zone_id": "7279", "zone_name": "허심청 뒤편"}, {"address": "부산 동래구 온천동 148-8", "car_count": "1", "imaginary": "0", "is_d2d_car_exportable": "ABLE", "lat": "35.22191", "lng": "129.083042", "parking_name": "허심청 옆", "region1": "부산광역시", "region2": "동래구", "region3": "온천동", "zone_id": "13852", "zone_name": "허심청 옆"}, {"address": "경남 밀양시 삼문동 727-4 삼문공영주차타워", "car_count": "3", "imaginary": "0", "is_d2d_car_exportable": "ABLE", "lat": "35.483848", "lng": "128.747716", "parking_name": "삼문공영주차타워", "region1": "경상남도", "region2": "밀양시", "region3": "삼문동", "zone_id": "12553", "zone_name": "밀양 대영사우나 옆"}, {"address": "경남 밀양시 내이동 1184-7", "car_count": "1", "imaginary": "0", "is_d2d_car_exportable": "ABLE", "lat": "35.49907", "lng": "128.744808", "parking_name": "밀양시외버스터미널 뒤편", "region1": "경상남도", "region2": "밀양시", "region3": "내이동", "zone_id": "22786", "zone_name": "밀양시외버스터미널 뒤편"}, {"address": "경남 밀양시 가곡동 442-11", "car_count": "13", "imaginary": "0", "is_d2d_car_exportable": "ABLE", "lat": "35.473462", "lng": "128.772285", "parking_name": "밀양역(KTX) 앞", "region1": "경상남도", "region2": "밀양시", "region3": "가곡동", "zone_id": "18183", "zone_name": "밀양역(KTX) 앞"}, {"address": "경남 밀양시 가곡동 445-4", "car_count": "2", "imaginary": "5", "is_d2d_car_exportable": "ABLE", "lat": "35.47308", "lng": "128.772919", "parking_name": "밀양역(KTX) 옆", "region1": "경상남도", "region2": "밀양시", "region3": "가곡동", "zone_id": "5485", "zone_name": "밀양역(KTX) 옆"}, {"address": "부산 부산진구 초읍동 275-4", "car_count": "1", "imaginary": "0", "is_d2d_car_exportable": "ABLE", "lat": "35.177887", "lng": "129.048479", "parking_name": "GS더프레시 초읍점", "region1": "부산광역시", "region2": "부산진구", "region3": "초읍동", "zone_id": "14761", "zone_name": "GS더프레시 초읍점"}, {"address": "부산 부산진구 부전동 521-1", "car_count": "4", "imaginary": "0", "is_d2d_car_exportable": "ABLE", "lat": "35.154262", "lng": "129.0573", "parking_name": "KT&G 상상마당 부산", "region1": "부산광역시", "region2": "부산진구", "region3": "부전동", "zone_id": "12007", "zone_name": "KT&G 상상마당 부산"}, {"address": "부산 부산진구 가야동 384-2", "car_count": "1", "imaginary": "0", "is_d2d_car_exportable": "ABLE", "lat": "35.154274", "lng": "129.0383", "parking_name": "가야1치안센터", "region1": "부산광역시", "region2": "부산진구", "region3": "가야동", "zone_id": "1764", "zone_name": "가야1치안센터"}, {"address": "부산 부산진구 가야동 479-2", "car_count": "1", "imaginary": "0", "is_d2d_car_exportable": "ABLE", "lat": "35.147697", "lng": "129.030273", "parking_name": "태양주차장", "region1": "부산광역시", "region2": "부산진구", "region3": "가야동", "zone_id": "2868", "zone_name": "가야고등학교 앞"}, {"address": "부산 부산진구 개금동 511-1", "car_count": "10", "imaginary": "0", "is_d2d_car_exportable": "ABLE", "lat": "35.153664", "lng": "129.021591", "parking_name": "개금역 2번출구", "region1": "부산광역시", "region2": "부산진구", "region3": "개금동", "zone_id": "3261", "zone_name": "개금역 2번출구"}, {"address": "부산 부산진구 개금동 342-1", "car_count": "1", "imaginary": "0", "is_d2d_car_exportable": "ABLE", "lat": "35.157932", "lng": "129.025452", "parking_name": "만도플라자 정비센터 주차장", "region1": "부산광역시", "region2": "부산진구", "region3": "개금동", "zone_id": "5860", "zone_name": "개포초등학교 옆"}, {"address": "부산 부산진구 전포동 692-2", "car_count": "9", "imaginary": "0", "is_d2d_car_exportable": "ABLE", "lat": "35.153908", "lng": "129.062866", "parking_name": "미래주차장", "region1": "부산광역시", "region2": "부산진구", "region3": "전포동", "zone_id": "1496", "zone_name": "경남공업고등학교 맞은편"}, {"address": "부산 부산진구 부전동 535-17 대동레미안", "car_count": "3", "imaginary": "0", "is_d2d_car_exportable": "ABLE", "lat": "35.150918", "lng": "129.058862", "parking_name": "교보문고 부산점 맞은편", "region1": "부산광역시", "region2": "부산진구", "region3": "부전동", "zone_id": "14777", "zone_name": "교보문고 부산점 맞은편"}, {"address": "부산 부산진구 부암동 55-6", "car_count": "1", "imaginary": "0", "is_d2d_car_exportable": "ABLE", "lat": "35.164516", "lng": "129.050629", "parking_name": "더파티 서면점", "region1": "부산광역시", "region2": "부산진구", "region3": "부암동", "zone_id": "5569", "zone_name": "더파티 서면점"}, {"address": "부산 부산진구 가야동 212-1 우진아트빌", "car_count": "1", "imaginary": "0", "is_d2d_car_exportable": "ABLE", "lat": "35.152775", "lng": "129.032975", "parking_name": "동의대역 3번출구", "region1": "부산광역시", "region2": "부산진구", "region3": "가야동", "zone_id": "17485", "zone_name": "동의대역 3번출구"}, {"address": "부산 부산진구 가야동 551-12 동경에이스", "car_count": "1", "imaginary": "0", "is_d2d_car_exportable": "ABLE", "lat": "35.149125", "lng": "129.032791", "parking_name": "동의대역 5번출구", "region1": "부산광역시", "region2": "부산진구", "region3": "가야동", "zone_id": "22825", "zone_name": "동의대역 5번출구"}, {"address": "부산 부산진구 가야동 467 동의대학교", "car_count": "1", "imaginary": "0", "is_d2d_car_exportable": "ABLE", "lat": "35.144213", "lng": "129.035037", "parking_name": "동의대학교 지천관", "region1": "부산광역시", "region2": "부산진구", "region3": "가야동", "zone_id": "15077", "zone_name": "동의대학교 지천관"}, {"address": "부산 부산진구 당감동 333", "car_count": "2", "imaginary": "0", "is_d2d_car_exportable": "ABLE", "lat": "35.165712", "lng": "129.036945", "parking_name": "동평초등학교 앞", "region1": "부산광역시", "region2": "부산진구", "region3": "당감동", "zone_id": "19261", "zone_name": "동평초등학교 앞"}, {"address": "부산 부산진구 가야동 251-6", "car_count": "2", "imaginary": "0", "is_d2d_car_exportable": "ABLE", "lat": "35.154664", "lng": "129.032544", "parking_name": "롯데 하이마트 가야점", "region1": "부산광역시", "region2": "부산진구", "region3": "가야동", "zone_id": "16600", "zone_name": "롯데 하이마트 가야점"}, {"address": "부산 부산진구 부전동 516-5", "car_count": "1", "imaginary": "0", "is_d2d_car_exportable": "ABLE", "lat": "35.155531", "lng": "129.056443", "parking_name": "롯데백화점 부산본점 뒤편", "region1": "부산광역시", "region2": "부산진구", "region3": "부전동", "zone_id": "17631", "zone_name": "롯데백화점 부산본점 뒤편"}, {"address": "부산 부산진구 범천동 882-33 부광주차장", "car_count": "1", "imaginary": "0", "is_d2d_car_exportable": "ABLE", "lat": "35.1444", "lng": "129.058836", "parking_name": "범내골역 1번출구", "region1": "부산광역시", "region2": "부산진구", "region3": "범천동", "zone_id": "15170", "zone_name": "범내골역 1번출구"}, {"address": "부산 부산진구 범천동 849-4 서영주유소", "car_count": "5", "imaginary": "0", "is_d2d_car_exportable": "ABLE", "lat": "35.146381", "lng": "129.059643", "parking_name": "범내골역 2번출구", "region1": "부산광역시", "region2": "부산진구", "region3": "범천동", "zone_id": "20490", "zone_name": "범내골역 2번출구"}, {"address": "부산 부산진구 범천동 871-15", "car_count": "1", "imaginary": "0", "is_d2d_car_exportable": "ABLE", "lat": "35.147739", "lng": "129.057892", "parking_name": "범내골역 5번출구", "region1": "부산광역시", "region2": "부산진구", "region3": "범천동", "zone_id": "5859", "zone_name": "범내골역 5번출구"}, {"address": "부산 부산진구 범천동 1000-24", "car_count": "3", "imaginary": "0", "is_d2d_car_exportable": "ABLE", "lat": "35.148769", "lng": "129.056259", "parking_name": "범천동 한라비발디스튜디오", "region1": "부산광역시", "region2": "부산진구", "region3": "범천동", "zone_id": "5103", "zone_name": "범천동 한라비발디스튜디오"}, {"address": "부산 부산진구 양정동 143-1", "car_count": "9", "imaginary": "5", "is_d2d_car_exportable": "ABLE", "lat": "35.17688", "lng": "129.075409", "parking_name": "에스더블유 주차장", "region1": "부산광역시", "region2": "부산진구", "region3": "양정동", "zone_id": "1497", "zone_name": "부산시청역 2번출구"}, {"address": "부산 부산진구 범천동 839-412", "car_count": "1", "imaginary": "0", "is_d2d_car_exportable": "ABLE", "lat": "35.141601", "lng": "129.061526", "parking_name": "부산자유도매시장 맞은편", "region1": "부산광역시", "region2": "부산진구", "region3": "범천동", "zone_id": "22803", "zone_name": "부산자유도매시장 맞은편"}, {"address": "부산 부산진구 부전동 417-7", "car_count": "2", "imaginary": "0", "is_d2d_car_exportable": "ABLE", "lat": "35.158741", "lng": "129.054557", "parking_name": "부산진경찰서 맞은편", "region1": "부산광역시", "region2": "부산진구", "region3": "부전동", "zone_id": "6599", "zone_name": "부산진경찰서 맞은편"}, {"address": "부산 부산진구 부전동 474-51 대동레미안센트럴시티 대동레미안센트럴시티 지하 3층 기계식 주차장", "car_count": "4", "imaginary": "5", "is_d2d_car_exportable": "ABLE", "lat": "35.159697", "lng": "129.054936", "parking_name": "부산진경찰서 앞", "region1": "부산광역시", "region2": "부산진구", "region3": "부전동", "zone_id": "14734", "zone_name": "부산진경찰서 앞"}, {"address": "부산 부산진구 전포동 683-11", "car_count": "1", "imaginary": "0", "is_d2d_car_exportable": "ABLE", "lat": "35.154949", "lng": "129.062684", "parking_name": "부전도서관 맞은편", "region1": "부산광역시", "region2": "부산진구", "region3": "전포동", "zone_id": "11472", "zone_name": "부전도서관 맞은편"}, {"address": "부산 부산진구 전포동 876-4", "car_count": "2", "imaginary": "0", "is_d2d_car_exportable": "ABLE", "lat": "35.161995", "lng": "129.063431", "parking_name": "부전역 4번출구", "region1": "부산광역시", "region2": "부산진구", "region3": "전포동", "zone_id": "1355", "zone_name": "부전역 4번출구"}, {"address": "부산 부산진구 부전동 346-1", "car_count": "4", "imaginary": "0", "is_d2d_car_exportable": "ABLE", "lat": "35.163483", "lng": "129.060114", "parking_name": "부전역 앞", "region1": "부산광역시", "region2": "부산진구", "region3": "부전동", "zone_id": "19984", "zone_name": "부전역 앞"}, {"address": "부산 부산진구 부전동 280-76 부전역사 제2주차장", "car_count": "1", "imaginary": "0", "is_d2d_car_exportable": "ABLE", "lat": "35.163838", "lng": "129.060899", "parking_name": "부전역(동해선)", "region1": "부산광역시", "region2": "부산진구", "region3": "부전동", "zone_id": "13118", "zone_name": "부전역(동해선)"}, {"address": "부산 부산진구 연지동 173-4", "car_count": "1", "imaginary": "0", "is_d2d_car_exportable": "ABLE", "lat": "35.170737", "lng": "129.051157", "parking_name": "새마을금고 연지동지점 앞", "region1": "부산광역시", "region2": "부산진구", "region3": "연지동", "zone_id": "8782", "zone_name": "새마을금고 연지동지점 앞"}, {"address": "부산 부산진구 부전동 521-7 부전타워주차장", "car_count": "7", "imaginary": "5", "is_d2d_car_exportable": "ABLE", "lat": "35.153963", "lng": "129.056012", "parking_name": "서면 롯데호텔 뒤편", "region1": "부산광역시", "region2": "부산진구", "region3": "부전동", "zone_id": "2498", "zone_name": "서면 롯데호텔 뒤편"}, {"address": "부산 부산진구 부전동 504-4", "car_count": "2", "imaginary": "0", "is_d2d_car_exportable": "ABLE", "lat": "35.156921", "lng": "129.05423", "parking_name": "서면 롯데호텔 옆", "region1": "부산광역시", "region2": "부산진구", "region3": "부전동", "zone_id": "2496", "zone_name": "서면 롯데호텔 옆"}, {"address": "부산 부산진구 부전동 227-2 삼정타워 지하 5층 주차장", "car_count": "4", "imaginary": "0", "is_d2d_car_exportable": "ABLE", "lat": "35.153012", "lng": "129.059605", "parking_name": "서면 삼정타워", "region1": "부산광역시", "region2": "부산진구", "region3": "부전동", "zone_id": "13468", "zone_name": "서면 삼정타워"}, {"address": "부산 부산진구 부전동 537-9 더샵 센트럴스타", "car_count": "1", "imaginary": "0", "is_d2d_car_exportable": "ABLE", "lat": "35.151458", "lng": "129.061107", "parking_name": "서면 센트럴스퀘어", "region1": "부산광역시", "region2": "부산진구", "region3": "부전동", "zone_id": "20504", "zone_name": "서면 센트럴스퀘어"}, {"address": "부산 부산진구 부전동 122-1 삼성비치타운 삼성주차장", "car_count": "1", "imaginary": "0", "is_d2d_car_exportable": "ABLE", "lat": "35.158939", "lng": "129.061578", "parking_name": "서면 신한은행빌딩 뒤편", "region1": "부산광역시", "region2": "부산진구", "region3": "부전동", "zone_id": "15367", "zone_name": "서면 신한은행빌딩 뒤편"}, {"address": "부산 부산진구 부전동 186-1", "car_count": "1", "imaginary": "0", "is_d2d_car_exportable": "ABLE", "lat": "35.155131", "lng": "129.060125", "parking_name": "서면 쥬디스태화(신관)", "region1": "부산광역시", "region2": "부산진구", "region3": "부전동", "zone_id": "11062", "zone_name": "서면 쥬디스태화(신관)"}, {"address": "부산 부산진구 부전동 112-3", "car_count": "1", "imaginary": "0", "is_d2d_car_exportable": "ABLE", "lat": "35.158495", "lng": "129.062032", "parking_name": "서면교차로", "region1": "부산광역시", "region2": "부산진구", "region3": "부전동", "zone_id": "11140", "zone_name": "서면교차로"}, {"address": "부산 부산진구 부전동 524-14", "car_count": "1", "imaginary": "5", "is_d2d_car_exportable": "ABLE", "lat": "35.153088", "lng": "129.056717", "parking_name": "우리주차장", "region1": "부산광역시", "region2": "부산진구", "region3": "부전동", "zone_id": "5895", "zone_name": "서면일번가"}, {"address": "부산 부산진구 부전동 536-8", "car_count": "1", "imaginary": "0", "is_d2d_car_exportable": "ABLE", "lat": "35.151035", "lng": "129.059622", "parking_name": "서면푸르지오시티 시그니처", "region1": "부산광역시", "region2": "부산진구", "region3": "부전동", "zone_id": "20811", "zone_name": "서면푸르지오시티 시그니처"}, {"address": "부산 부산진구 양정동 331-9", "car_count": "4", "imaginary": "0", "is_d2d_car_exportable": "ABLE", "lat": "35.173829", "lng": "129.072323", "parking_name": "유경주차장", "region1": "부산광역시", "region2": "부산진구", "region3": "양정동", "zone_id": "12374", "zone_name": "양정역 8번출구"}, {"address": "부산 부산진구 부전동 129-1", "car_count": "2", "imaginary": "0", "is_d2d_car_exportable": "ABLE", "lat": "35.159316", "lng": "129.06091", "parking_name": "어반스테이 서면", "region1": "부산광역시", "region2": "부산진구", "region3": "부전동", "zone_id": "12269", "zone_name": "어반스테이 서면"}, {"address": "부산 부산진구 부전동 536-18 이랜드 PEER 서면", "car_count": "2", "imaginary": "5", "is_d2d_car_exportable": "ABLE", "lat": "35.151969", "lng": "129.059623", "parking_name": "이랜드PEER 서면", "region1": "부산광역시", "region2": "부산진구", "region3": "부전동", "zone_id": "19227", "zone_name": "이랜드PEER 서면"}, {"address": "부산 부산진구 전포동 193-8 AJ주차장", "car_count": "2", "imaginary": "0", "is_d2d_car_exportable": "ABLE", "lat": "35.159501", "lng": "129.06563", "parking_name": "전포놀이터골목시장 ", "region1": "부산광역시", "region2": "부산진구", "region3": "전포동", "zone_id": "18642", "zone_name": "전포놀이터골목시장 "}, {"address": "부산 부산진구 전포동 693-10", "car_count": "9", "imaginary": "0", "is_d2d_car_exportable": "ABLE", "lat": "35.153558", "lng": "129.063779", "parking_name": "전포역 5번출구", "region1": "부산광역시", "region2": "부산진구", "region3": "전포동", "zone_id": "16899", "zone_name": "전포역 5번출구"}, {"address": "부산 부산진구 부전동 109-9 하이파킹 서면 NC 주차장", "car_count": "5", "imaginary": "5", "is_d2d_car_exportable": "ABLE", "lat": "35.158921", "lng": "129.062123", "parking_name": "전포초등학교 맞은편", "region1": "부산광역시", "region2": "부산진구", "region3": "부전동", "zone_id": "18812", "zone_name": "전포초등학교 맞은편"}, {"address": "부산 부산진구 부전동 143-5 큐브빌딩", "car_count": "2", "imaginary": "0", "is_d2d_car_exportable": "ABLE", "lat": "35.157957", "lng": "129.061872", "parking_name": "큐브오피스텔", "region1": "부산광역시", "region2": "부산진구", "region3": "부전동", "zone_id": "19429", "zone_name": "큐브오피스텔"}, {"address": "부산 부산진구 부전동 226-1", "car_count": "2", "imaginary": "0", "is_d2d_car_exportable": "ABLE", "lat": "35.15315", "lng": "129.060433", "parking_name": "한국전력공사 부산울산본부 뒤편 ", "region1": "부산광역시", "region2": "부산진구", "region3": "부전동", "zone_id": "16901", "zone_name": "한국전력공사 부산울산본부 뒤편 "}, {"address": "부산 부산진구 전포동 171-2 ", "car_count": "1", "imaginary": "0", "is_d2d_car_exportable": "ABLE", "lat": "35.161784", "lng": "129.065724", "parking_name": "항도중학교 앞", "region1": "부산광역시", "region2": "부산진구", "region3": "전포동", "zone_id": "12345", "zone_name": "항도중학교 앞"}, {"address": "부산 북구 구포동 654-11", "car_count": "1", "imaginary": "0", "is_d2d_car_exportable": "ABLE", "lat": "35.205678", "lng": "129.003367", "parking_name": "GS더프레시 구포점", "region1": "부산광역시", "region2": "북구", "region3": "구포동", "zone_id": "19673", "zone_name": "GS더프레시 구포점"}, {"address": "부산 북구 화명동 194-2 GS더프레시 화명점", "car_count": "1", "imaginary": "0", "is_d2d_car_exportable": "ABLE", "lat": "35.24057", "lng": "129.014905", "parking_name": "GS더프레시 화명점", "region1": "부산광역시", "region2": "북구", "region3": "화명동", "zone_id": "12171", "zone_name": "GS더프레시 화명점"}, {"address": "울산 북구 호계동 200-6", "car_count": "1", "imaginary": "0", "is_d2d_car_exportable": "ABLE", "lat": "35.629972", "lng": "129.350897", "parking_name": "경남은행 호계지점", "region1": "울산광역시", "region2": "북구", "region3": "호계동", "zone_id": "15640", "zone_name": "경남은행 호계지점"}, {"address": "부산 북구 구포동 896", "car_count": "1", "imaginary": "0", "is_d2d_car_exportable": "ABLE", "lat": "35.196365", "lng": "128.995773", "parking_name": "구남역 2번출구", "region1": "부산광역시", "region2": "북구", "region3": "구포동", "zone_id": "1704", "zone_name": "구남역 2번출구"}, {"address": "부산 북구 구포동 1060-73, 1060-5 부일주차장", "car_count": "2", "imaginary": "0", "is_d2d_car_exportable": "ABLE", "lat": "35.206907", "lng": "128.998778", "parking_name": "구포역(KTX) 앞", "region1": "부산광역시", "region2": "북구", "region3": "구포동", "zone_id": "9014", "zone_name": "구포역(KTX) 앞"}, {"address": "부산 북구 덕천동 391-4", "car_count": "1", "imaginary": "0", "is_d2d_car_exportable": "ABLE", "lat": "35.212227", "lng": "129.019943", "parking_name": "남산정역 5번출구", "region1": "부산광역시", "region2": "북구", "region3": "덕천동", "zone_id": "2292", "zone_name": "남산정역 5번출구"}, {"address": "부산 북구 만덕동 959-2", "car_count": "1", "imaginary": "0", "is_d2d_car_exportable": "ABLE", "lat": "35.214561", "lng": "129.038068", "parking_name": "더래디언트금정산아파트 옆", "region1": "부산광역시", "region2": "북구", "region3": "만덕동", "zone_id": "18416", "zone_name": "더래디언트금정산아파트 옆"}, {"address": "부산 북구 덕천동 353-6", "car_count": "1", "imaginary": "0", "is_d2d_car_exportable": "ABLE", "lat": "35.210331", "lng": "129.004791", "parking_name": "덕천역 5번출구", "region1": "부산광역시", "region2": "북구", "region3": "덕천동", "zone_id": "4496", "zone_name": "덕천역 5번출구"}, {"address": "부산 북구 덕천동 396-11", "car_count": "1", "imaginary": "0", "is_d2d_car_exportable": "ABLE", "lat": "35.211136", "lng": "129.006485", "parking_name": "현대주차장", "region1": "부산광역시", "region2": "북구", "region3": "덕천동", "zone_id": "5813", "zone_name": "덕천역 8번출구"}, {"address": "부산 북구 덕천동 381-2", "car_count": "1", "imaginary": "0", "is_d2d_car_exportable": "ABLE", "lat": "35.211531", "lng": "129.009936", "parking_name": "롯데 하이마트 덕천점", "region1": "부산광역시", "region2": "북구", "region3": "덕천동", "zone_id": "16601", "zone_name": "롯데 하이마트 덕천점"}, {"address": "울산 북구 진장동 825 하이마트", "car_count": "1", "imaginary": "0", "is_d2d_car_exportable": "ABLE", "lat": "35.55675", "lng": "129.360208", "parking_name": "롯데 하이마트 효문점", "region1": "울산광역시", "region2": "북구", "region3": "진장동", "zone_id": "22805", "zone_name": "롯데 하이마트 효문점"}, {"address": "부산 북구 화명동 2287-1 리버사이드빌딩", "car_count": "2", "imaginary": "0", "is_d2d_car_exportable": "ABLE", "lat": "35.233782", "lng": "129.012316", "parking_name": "롯데마트 화명점 앞", "region1": "부산광역시", "region2": "북구", "region3": "화명동", "zone_id": "14776", "zone_name": "롯데마트 화명점 앞"}, {"address": "부산 북구 만덕2동 783-4", "car_count": "1", "imaginary": "0", "is_d2d_car_exportable": "ABLE", "lat": "35.210154", "lng": "129.034872", "parking_name": "만덕2동사앞복개 공영주차장", "region1": "부산광역시", "region2": "북구", "region3": "만덕동", "zone_id": "22781", "zone_name": "만덕2동사앞복개 공영주차장"}, {"address": "울산 북구 매곡동 929-10", "car_count": "1", "imaginary": "0", "is_d2d_car_exportable": "ABLE", "lat": "35.646624", "lng": "129.355473", "parking_name": "매곡동 아름드리작은도서관 앞", "region1": "울산광역시", "region2": "북구", "region3": "매곡동", "zone_id": "18604", "zone_name": "매곡동 아름드리작은도서관 앞"}, {"address": "울산 북구 매곡동 514-1", "car_count": "1", "imaginary": "0", "is_d2d_car_exportable": "ABLE", "lat": "35.643081", "lng": "129.350184", "parking_name": "매곡초등학교 앞", "region1": "울산광역시", "region2": "북구", "region3": "신천동", "zone_id": "15895", "zone_name": "매곡초등학교 앞"}, {"address": "울산 북구 진장동 705 신선도원몰 메가마트 울산점", "car_count": "1", "imaginary": "0", "is_d2d_car_exportable": "ABLE", "lat": "35.56263", "lng": "129.356262", "parking_name": "메가마트 울산점 ", "region1": "울산광역시", "region2": "북구", "region3": "진장동", "zone_id": "14636", "zone_name": "메가마트 울산점 "}, {"address": "부산 북구 구포동 649-2 민영주차장", "car_count": "3", "imaginary": "0", "is_d2d_car_exportable": "ABLE", "lat": "35.20579", "lng": "129.004168", "parking_name": "북부산농협 구포시장지점 옆", "region1": "부산광역시", "region2": "북구", "region3": "구포동", "zone_id": "14213", "zone_name": "북부산농협 구포시장지점 옆"}, {"address": "부산 북구 덕천동 732-5 공영주차장", "car_count": "1", "imaginary": "0", "is_d2d_car_exportable": "ABLE", "lat": "35.210065", "lng": "129.00317", "parking_name": "삼성스토어 구포 뒤", "region1": "부산광역시", "region2": "북구", "region3": "덕천동", "zone_id": "11811", "zone_name": "삼성스토어 구포 뒤"}, {"address": "부산 북구 덕천동 380-14", "car_count": "9", "imaginary": "0", "is_d2d_car_exportable": "ABLE", "lat": "35.211983", "lng": "129.010803", "parking_name": "부산주차장", "region1": "부산광역시", "region2": "북구", "region3": "덕천동", "zone_id": "5815", "zone_name": "숙등역 6번출구"}, {"address": "울산 북구 연암동 362-1", "car_count": "1", "imaginary": "0", "is_d2d_car_exportable": "ABLE", "lat": "35.587712", "lng": "129.368003", "parking_name": "연암동우체국 뒤편", "region1": "울산광역시", "region2": "북구", "region3": "연암동", "zone_id": "9754", "zone_name": "연암동우체국 뒤편"}, {"address": "울산 북구 호계동 215-1", "car_count": "1", "imaginary": "0", "is_d2d_car_exportable": "ABLE", "lat": "35.628052", "lng": "129.350693", "parking_name": "경남유료주차장", "region1": "울산광역시", "region2": "북구", "region3": "호계동", "zone_id": "4931", "zone_name": "올리브영 울산호계점 옆"}, {"address": "울산 북구 천곡동 502-2", "car_count": "2", "imaginary": "0", "is_d2d_car_exportable": "ABLE", "lat": "35.634109", "lng": "129.33297", "parking_name": "우리마트 천곡점 지하주차장", "region1": "울산광역시", "region2": "북구", "region3": "천곡동", "zone_id": "18627", "zone_name": "우리마트 천곡점"}, {"address": "부산 북구 구포동 1060-288", "car_count": "3", "imaginary": "0", "is_d2d_car_exportable": "ABLE", "lat": "35.205113", "lng": "128.99621", "parking_name": "우리은행 구포지점", "region1": "부산광역시", "region2": "북구", "region3": "구포동", "zone_id": "15760", "zone_name": "우리은행 구포지점"}, {"address": "울산 북구 명촌동 859-1 이정프라자", "car_count": "2", "imaginary": "0", "is_d2d_car_exportable": "ABLE", "lat": "35.554326", "lng": "129.357757", "parking_name": "울산 이정프라자", "region1": "울산광역시", "region2": "북구", "region3": "명촌동", "zone_id": "11475", "zone_name": "울산 명촌초등학교 뒤편"}, {"address": "울산 북구 송정동 522", "car_count": "10", "imaginary": "0", "is_d2d_car_exportable": "ABLE", "lat": "35.593872", "lng": "129.35659", "parking_name": "울산공항", "region1": "울산광역시", "region2": "북구", "region3": "송정동", "zone_id": "9911", "zone_name": "울산공항"}, {"address": "울산 북구 송정동 522 울산공항", "car_count": "6", "imaginary": "5", "is_d2d_car_exportable": "ABLE", "lat": "35.593338", "lng": "129.355598", "parking_name": "울산공항 행사주차장", "region1": "울산광역시", "region2": "북구", "region3": "송정동", "zone_id": "22501", "zone_name": "울산공항 행사주차장"}, {"address": "울산 북구 연암동 1004-1 북구청", "car_count": "1", "imaginary": "0", "is_d2d_car_exportable": "ABLE", "lat": "35.582304", "lng": "129.360482", "parking_name": "울산광역시 북구청", "region1": "울산광역시", "region2": "북구", "region3": "연암동", "zone_id": "16211", "zone_name": "울산광역시 북구청"}, {"address": "부산 북구 화명동 2318 방송통신대", "car_count": "1", "imaginary": "0", "is_d2d_car_exportable": "ABLE", "lat": "35.223744", "lng": "129.006625", "parking_name": "한국방송통신대학교 부산지역대학", "region1": "부산광역시", "region2": "북구", "region3": "화명동", "zone_id": "15485", "zone_name": "한국방송통신대학교 부산지역대학"}, {"address": "울산 북구 양정동 523-5 양정문화회관 공영주차장", "car_count": "3", "imaginary": "0", "is_d2d_car_exportable": "ABLE", "lat": "35.538679", "lng": "129.387919", "parking_name": "양정문화회관 공영주차장", "region1": "울산광역시", "region2": "북구", "region3": "양정동", "zone_id": "16212", "zone_name": "현대문화회관"}, {"address": "부산 북구 화명동 2268-3", "car_count": "4", "imaginary": "0", "is_d2d_car_exportable": "ABLE", "lat": "35.235829", "lng": "129.011989", "parking_name": "화명 스페이스303", "region1": "부산광역시", "region2": "북구", "region3": "화명동", "zone_id": "12031", "zone_name": "화명 스페이스303"}, {"address": "부산 북구 화명동 2266-3", "car_count": "1", "imaginary": "0", "is_d2d_car_exportable": "ABLE", "lat": "35.236149", "lng": "129.009369", "parking_name": "화명역 3번출구", "region1": "부산광역시", "region2": "북구", "region3": "화명동", "zone_id": "344", "zone_name": "화명역 3번출구"}, {"address": "부산 북구 화명동 2126", "car_count": "2", "imaginary": "0", "is_d2d_car_exportable": "ABLE", "lat": "35.239303", "lng": "129.015104", "parking_name": "화명공영주차장", "region1": "부산광역시", "region2": "북구", "region3": "화명동", "zone_id": "3210", "zone_name": "화명역 6번출구"}, {"address": "부산 사상구 주례동 166-37 동서센텀빌", "car_count": "1", "imaginary": "0", "is_d2d_car_exportable": "ABLE", "lat": "35.147272", "lng": "129.010354", "parking_name": "경남정보대학교 앞", "region1": "부산광역시", "region2": "사상구", "region3": "주례동", "zone_id": "17450", "zone_name": "경남정보대학교 앞"}, {"address": "부산 사상구 주례동 55-139", "car_count": "2", "imaginary": "0", "is_d2d_car_exportable": "ABLE", "lat": "35.14941", "lng": "129.013428", "parking_name": "냉정시장", "region1": "부산광역시", "region2": "사상구", "region3": "주례동", "zone_id": "4155", "zone_name": "냉정시장"}, {"address": "부산 사상구 주례동 60-5", "car_count": "4", "imaginary": "0", "is_d2d_car_exportable": "ABLE", "lat": "35.151028", "lng": "129.013397", "parking_name": "냉정역 1번출구", "region1": "부산광역시", "region2": "사상구", "region3": "주례동", "zone_id": "642", "zone_name": "냉정역 1번출구"}, {"address": "부산 사상구 덕포동 416-14", "car_count": "1", "imaginary": "0", "is_d2d_car_exportable": "ABLE", "lat": "35.172682", "lng": "128.98375", "parking_name": "덕포역 2번출구", "region1": "부산광역시", "region2": "사상구", "region3": "덕포동", "zone_id": "23088", "zone_name": "덕포역 2번출구"}, {"address": "부산 사상구 주례동 92-359", "car_count": "1", "imaginary": "0", "is_d2d_car_exportable": "ABLE", "lat": "35.147318", "lng": "129.007116", "parking_name": "동주초등학교 옆", "region1": "부산광역시", "region2": "사상구", "region3": "주례동", "zone_id": "17449", "zone_name": "동주초등학교 옆"}, {"address": "부산 사상구 괘법동 532-8", "car_count": "1", "imaginary": "0", "is_d2d_car_exportable": "ABLE", "lat": "35.163425", "lng": "128.979444", "parking_name": "롯데 하이마트 사상점", "region1": "부산광역시", "region2": "사상구", "region3": "괘법동", "zone_id": "16602", "zone_name": "롯데 하이마트 사상점"}, {"address": "부산 사상구 모라동 1348 모라중학교", "car_count": "1", "imaginary": "0", "is_d2d_car_exportable": "ABLE", "lat": "35.190036", "lng": "128.992465", "parking_name": "모라중학교", "region1": "부산광역시", "region2": "사상구", "region3": "모라동", "zone_id": "11581", "zone_name": "모라중학교"}, {"address": "부산 사상구 학장동 573-1 학장반도보라타운", "car_count": "1", "imaginary": "0", "is_d2d_car_exportable": "ABLE", "lat": "35.137938", "lng": "128.97836", "parking_name": "반도프라자 상가", "region1": "부산광역시", "region2": "사상구", "region3": "학장동", "zone_id": "18389", "zone_name": "반도프라자 상가"}, {"address": "부산 사상구 모라동 170 스파캐슬", "car_count": "1", "imaginary": "0", "is_d2d_car_exportable": "ABLE", "lat": "35.194083", "lng": "128.992803", "parking_name": "부산스파캐슬", "region1": "부산광역시", "region2": "사상구", "region3": "모라동", "zone_id": "19453", "zone_name": "부산스파캐슬"}, {"address": "부산 사상구 괘법동 560-2", "car_count": "24", "imaginary": "0", "is_d2d_car_exportable": "ABLE", "lat": "35.160942", "lng": "128.982849", "parking_name": "사상시외버스터미널 맞은편", "region1": "부산광역시", "region2": "사상구", "region3": "괘법동", "zone_id": "277", "zone_name": "사상시외버스터미널 맞은편"}, {"address": "부산 사상구 괘법동 270-5 컴포티움", "car_count": "1", "imaginary": "0", "is_d2d_car_exportable": "ABLE", "lat": "35.165477", "lng": "128.984341", "parking_name": "사상시장 앞", "region1": "부산광역시", "region2": "사상구", "region3": "괘법동", "zone_id": "17780", "zone_name": "사상시장 앞"}, {"address": "부산 사상구 괘법동 547-16", "car_count": "2", "imaginary": "0", "is_d2d_car_exportable": "ABLE", "lat": "35.161188", "lng": "128.985963", "parking_name": "그랑드투오피스텔", "region1": "부산광역시", "region2": "사상구", "region3": "괘법동", "zone_id": "11469", "zone_name": "사상역 2번출구"}, {"address": "부산 사상구 괘법동 535-15", "car_count": "3", "imaginary": "0", "is_d2d_car_exportable": "ABLE", "lat": "35.163736", "lng": "128.984292", "parking_name": "사상역 6번출구", "region1": "부산광역시", "region2": "사상구", "region3": "괘법동", "zone_id": "7134", "zone_name": "사상역 6번출구"}, {"address": "부산 사상구 주례동 129", "car_count": "2", "imaginary": "0", "is_d2d_car_exportable": "ABLE", "lat": "35.149235", "lng": "129.006882", "parking_name": "주례역 1번출구", "region1": "부산광역시", "region2": "사상구", "region3": "주례동", "zone_id": "3154", "zone_name": "주례역 1번출구"}, {"address": "부산 사상구 주례동 1233-7 학장천복개공영주차장", "car_count": "1", "imaginary": "0", "is_d2d_car_exportable": "ABLE", "lat": "35.148428", "lng": "129.000816", "parking_name": "학장천복개 공영주차장", "region1": "부산광역시", "region2": "사상구", "region3": "주례동", "zone_id": "21362", "zone_name": "학장천복개 공영주차장"}, {"address": "부산 사상구 학장동 557 세원빌딩", "car_count": "1", "imaginary": "0", "is_d2d_car_exportable": "ABLE", "lat": "35.141233", "lng": "128.988116", "parking_name": "세원빌딩 주차장", "region1": "부산광역시", "region2": "사상구", "region3": "학장동", "zone_id": "15851", "zone_name": "학장파출소 맞은편"}, {"address": "부산 사상구 모라동 425-2 홈플러스", "car_count": "1", "imaginary": "0", "is_d2d_car_exportable": "ABLE", "lat": "35.1858", "lng": "128.99224", "parking_name": "홈플러스익스프레스 모라점(고객주차장)", "region1": "부산광역시", "region2": "사상구", "region3": "모라동", "zone_id": "18390", "zone_name": "홈플러스익스프레스 모라점"}, {"address": "경남 사천시 사천읍 수석리 323-2", "car_count": "1", "imaginary": "0", "is_d2d_car_exportable": "ABLE", "lat": "35.080408", "lng": "128.083656", "parking_name": "롯데 하이마트 사천점", "region1": "경상남도", "region2": "사천시", "region3": "사천읍", "zone_id": "16588", "zone_name": "롯데 하이마트 사천점"}, {"address": "경남 사천시 벌리동 482-3 하이마트", "car_count": "1", "imaginary": "0", "is_d2d_car_exportable": "ABLE", "lat": "34.935922", "lng": "128.077728", "parking_name": "롯데 하이마트 삼천포점", "region1": "경상남도", "region2": "사천시", "region3": "벌리동", "zone_id": "16587", "zone_name": "롯데 하이마트 삼천포점"}, {"address": "경남 사천시 정동면 고읍리 562-1", "car_count": "2", "imaginary": "0", "is_d2d_car_exportable": "ABLE", "lat": "35.076922", "lng": "128.085272", "parking_name": "M컨벤션웨딩홀", "region1": "경상남도", "region2": "사천시", "region3": "정동면", "zone_id": "12823", "zone_name": "사천 M컨벤션웨딩홀"}, {"address": "경남 사천시 사천읍 구암리 1720-1 사천공항 유료주차장", "car_count": "25", "imaginary": "0", "is_d2d_car_exportable": "ABLE", "lat": "35.092808", "lng": "128.087306", "parking_name": "사천공항", "region1": "경상남도", "region2": "사천시", "region3": "사천읍", "zone_id": "16303", "zone_name": "사천공항"}, {"address": "경남 사천시 사천읍 선인리 315-2 사천시외버스터미널", "car_count": "3", "imaginary": "0", "is_d2d_car_exportable": "ABLE", "lat": "35.078063", "lng": "128.095766", "parking_name": "사천시외버스터미널", "region1": "경상남도", "region2": "사천시", "region3": "사천읍", "zone_id": "20487", "zone_name": "사천시외버스터미널"}, {"address": "경상남도 사천시 사천읍 수석리 349-11 SK수석주차장", "car_count": "2", "imaginary": "0", "is_d2d_car_exportable": "ABLE", "lat": "35.08172", "lng": "128.084774", "parking_name": "SK수석주차장", "region1": "경상남도", "region2": "사천시", "region3": "사천읍", "zone_id": "15423", "zone_name": "삼성디지털프라자 사천점 뒤편"}, {"address": "경남 사천시 벌리동 2 삼천포종합운동장", "car_count": "5", "imaginary": "0", "is_d2d_car_exportable": "ABLE", "lat": "34.942059", "lng": "128.087523", "parking_name": "삼천포종합운동장", "region1": "경상남도", "region2": "사천시", "region3": "벌리동", "zone_id": "20801", "zone_name": "삼천포종합운동장"}, {"address": "경남 사천시 벌리동 243-7", "car_count": "1", "imaginary": "0", "is_d2d_car_exportable": "ABLE", "lat": "34.940257", "lng": "128.084957", "parking_name": "벌리공영주차장", "region1": "경상남도", "region2": "사천시", "region3": "벌리동", "zone_id": "12705", "zone_name": "삼천포터미널 뒤편"}, {"address": "부산 사하구 하단동 1165-10", "car_count": "2", "imaginary": "0", "is_d2d_car_exportable": "ABLE", "lat": "35.10465", "lng": "128.957939", "parking_name": "노을365 주차장", "region1": "부산광역시", "region2": "사하구", "region3": "하단동", "zone_id": "14536", "zone_name": "강변타워아파트 맞은편"}, {"address": "부산 사하구 괴정동 993-3", "car_count": "1", "imaginary": "0", "is_d2d_car_exportable": "ABLE", "lat": "35.100772", "lng": "128.992264", "parking_name": "괴정역 1번출구", "region1": "부산광역시", "region2": "사하구", "region3": "괴정동", "zone_id": "16883", "zone_name": "괴정역 1번출구"}, {"address": "부산 사하구 괴정동 998", "car_count": "1", "imaginary": "0", "is_d2d_car_exportable": "ABLE", "lat": "35.100513", "lng": "128.992846", "parking_name": "신화프라자", "region1": "부산광역시", "region2": "사하구", "region3": "괴정동", "zone_id": "9852", "zone_name": "괴정역 3번출구"}, {"address": "부산 사하구 괴정동 882-2 도우주차장", "car_count": "6", "imaginary": "0", "is_d2d_car_exportable": "ABLE", "lat": "35.098143", "lng": "128.992806", "parking_name": "도우주차장", "region1": "부산광역시", "region2": "사하구", "region3": "괴정동", "zone_id": "14309", "zone_name": "괴정역 6번출구"}, {"address": "부산 사하구 다대동 42-1", "car_count": "2", "imaginary": "0", "is_d2d_car_exportable": "ABLE", "lat": "35.063596", "lng": "128.979896", "parking_name": "낫개역 2번출구", "region1": "부산광역시", "region2": "사하구", "region3": "다대동", "zone_id": "7406", "zone_name": "낫개역 2번출구"}, {"address": "부산 사하구 다대동1552-10", "car_count": "1", "imaginary": "0", "is_d2d_car_exportable": "ABLE", "lat": "35.048588", "lng": "128.966644", "parking_name": "다대포해수욕장역 3번출구", "region1": "부산광역시", "region2": "사하구", "region3": "다대동", "zone_id": "5208", "zone_name": "다대포해수욕장역 3번출구"}, {"address": "부산 사하구 다대동 651 나이스파크 미광주차장", "car_count": "2", "imaginary": "0", "is_d2d_car_exportable": "ABLE", "lat": "35.054867", "lng": "128.969625", "parking_name": "미광주차장", "region1": "부산광역시", "region2": "사하구", "region3": "다대동", "zone_id": "15323", "zone_name": "다이소 부산다대점 옆"}, {"address": "부산 사하구 당리동 325-19", "car_count": "1", "imaginary": "0", "is_d2d_car_exportable": "ABLE", "lat": "35.102807", "lng": "128.974172", "parking_name": "당리역 4번출구", "region1": "부산광역시", "region2": "사하구", "region3": "당리동", "zone_id": "9262", "zone_name": "당리역 4번출구"}, {"address": "부산 사하구 괴정동 300-3", "car_count": "1", "imaginary": "0", "is_d2d_car_exportable": "ABLE", "lat": "35.101971", "lng": "129.000153", "parking_name": "대티역 2번출구", "region1": "부산광역시", "region2": "사하구", "region3": "괴정동", "zone_id": "1691", "zone_name": "대티역 2번출구"}, {"address": "부산 사하구 하단동 498-5", "car_count": "6", "imaginary": "0", "is_d2d_car_exportable": "ABLE", "lat": "35.111435", "lng": "128.964325", "parking_name": "동아대학교 승학캠퍼스 맞은편", "region1": "부산광역시", "region2": "사하구", "region3": "하단동", "zone_id": "2413", "zone_name": "동아대학교 승학캠퍼스 맞은편"}, {"address": "부산 사하구 하단동 506-13", "car_count": "3", "imaginary": "0", "is_d2d_car_exportable": "ABLE", "lat": "35.110203", "lng": "128.966141", "parking_name": "동강주차장", "region1": "부산광역시", "region2": "사하구", "region3": "하단2동", "zone_id": "280", "zone_name": "동아대학교 승학캠퍼스 앞"}, {"address": "부산 사하구 하단동 494-1", "car_count": "1", "imaginary": "0", "is_d2d_car_exportable": "ABLE", "lat": "35.113464", "lng": "128.966189", "parking_name": "동아대학교 승학캠퍼스 정문", "region1": "부산광역시", "region2": "사하구", "region3": "하단동", "zone_id": "14773", "zone_name": "동아대학교 승학캠퍼스 정문"}, {"address": "부산 사하구 장림동 1057", "car_count": "2", "imaginary": "0", "is_d2d_car_exportable": "ABLE", "lat": "35.08305", "lng": "128.977703", "parking_name": "롯데 하이마트 장림점", "region1": "부산광역시", "region2": "사하구", "region3": "장림동", "zone_id": "16603", "zone_name": "롯데 하이마트 장림점"}, {"address": "부산 사하구 하단동 80", "car_count": "3", "imaginary": "0", "is_d2d_car_exportable": "ABLE", "lat": "35.103317", "lng": "128.970509", "parking_name": "맥도날드 하단DT점 뒤편", "region1": "부산광역시", "region2": "사하구", "region3": "하단동", "zone_id": "7623", "zone_name": "맥도날드 하단DT점 뒤편"}, {"address": "부산 사하구 당리동 426-5", "car_count": "1", "imaginary": "0", "is_d2d_car_exportable": "ABLE", "lat": "35.101322", "lng": "128.979515", "parking_name": "부산 사하우체국 옆", "region1": "부산광역시", "region2": "사하구", "region3": "당리동", "zone_id": "7222", "zone_name": "부산 사하우체국 옆"}, {"address": "부산 사하구 당리동 317-28", "car_count": "1", "imaginary": "0", "is_d2d_car_exportable": "ABLE", "lat": "35.104259", "lng": "128.975709", "parking_name": "사하구청 옆", "region1": "부산광역시", "region2": "사하구", "region3": "당리동", "zone_id": "13463", "zone_name": "사하구청 옆"}, {"address": "부산 사하구 신평동 647-3", "car_count": "1", "imaginary": "0", "is_d2d_car_exportable": "ABLE", "lat": "35.094593", "lng": "128.959824", "parking_name": "신평역 3번출구", "region1": "부산광역시", "region2": "사하구", "region3": "신평동", "zone_id": "364", "zone_name": "신평역 3번출구"}, {"address": "부산 사하구 신평동 665 신평역 주차장", "car_count": "2", "imaginary": "0", "is_d2d_car_exportable": "ABLE", "lat": "35.097216", "lng": "128.960418", "parking_name": "신평역 9번출구", "region1": "부산광역시", "region2": "사하구", "region3": "신평동", "zone_id": "14932", "zone_name": "신평역 9번출구"}, {"address": "부산 사하구 장림동 241-3", "car_count": "1", "imaginary": "0", "is_d2d_car_exportable": "ABLE", "lat": "35.079319", "lng": "128.977859", "parking_name": "장림역 2번출구", "region1": "부산광역시", "region2": "사하구", "region3": "장림동", "zone_id": "14114", "zone_name": "장림역 2번출구"}, {"address": "부산 사하구 장림동 367", "car_count": "1", "imaginary": "0", "is_d2d_car_exportable": "ABLE", "lat": "35.076177", "lng": "128.976331", "parking_name": "탑마트 장림점", "region1": "부산광역시", "region2": "사하구", "region3": "장림동", "zone_id": "12969", "zone_name": "탑마트 장림점"}, {"address": "부산 사하구 하단동 889-2", "car_count": "2", "imaginary": "0", "is_d2d_car_exportable": "ABLE", "lat": "35.107585", "lng": "128.959639", "parking_name": "모노마트 부산사하점 주차장", "region1": "부산광역시", "region2": "사하구", "region3": "하단동", "zone_id": "7392", "zone_name": "하단 동조리젠시2 앞"}, {"address": "부산 사하구 하단동 524-14 청호주차장", "car_count": "3", "imaginary": "0", "is_d2d_car_exportable": "ABLE", "lat": "35.106599", "lng": "128.963229", "parking_name": "하단역 1번출구", "region1": "부산광역시", "region2": "사하구", "region3": "하단동", "zone_id": "18871", "zone_name": "하단역 1번출구"}, {"address": "부산 사하구 하단동 528-3 엘스테이", "car_count": "2", "imaginary": "0", "is_d2d_car_exportable": "ABLE", "lat": "35.107436", "lng": "128.966925", "parking_name": "엘스테이 주차장", "region1": "부산광역시", "region2": "사하구", "region3": "하단동", "zone_id": "16184", "zone_name": "하단역 7번출구"}, {"address": "부산 사하구 하단동 589-17", "car_count": "2", "imaginary": "0", "is_d2d_car_exportable": "ABLE", "lat": "35.105733", "lng": "128.967075", "parking_name": "하단역 8번출구", "region1": "부산광역시", "region2": "사하구", "region3": "하단동", "zone_id": "16884", "zone_name": "하단역 8번출구"}, {"address": "부산 사하구 하단동 599 지하철하단주차장", "car_count": "1", "imaginary": "0", "is_d2d_car_exportable": "ABLE", "lat": "35.104723", "lng": "128.9638", "parking_name": "하단초등학교 앞", "region1": "부산광역시", "region2": "사하구", "region3": "하단동", "zone_id": "13175", "zone_name": "하단초등학교 앞"}, {"address": "부산 서구 동대신동2가 417 삼익주차장", "car_count": "1", "imaginary": "0", "is_d2d_car_exportable": "ABLE", "lat": "35.110785", "lng": "129.019205", "parking_name": "동대신역 5번출구", "region1": "부산광역시", "region2": "서구", "region3": "동대신동2가", "zone_id": "11065", "zone_name": "동대신역 5번출구"}, {"address": "부산 서구 서대신동 1가 54-9", "car_count": "5", "imaginary": "0", "is_d2d_car_exportable": "ABLE", "lat": "35.109447", "lng": "129.017548", "parking_name": "동대신역 8번출구", "region1": "부산광역시", "region2": "서구", "region3": "서대신동", "zone_id": "507", "zone_name": "동대신역 8번출구"}, {"address": "부산 서구 동대신동3가 350-34", "car_count": "2", "imaginary": "0", "is_d2d_car_exportable": "ABLE", "lat": "35.113142", "lng": "129.016537", "parking_name": "동신초등학교 앞", "region1": "부산광역시", "region2": "서구", "region3": "동대신동3가", "zone_id": "15850", "zone_name": "동신초등학교 앞"}, {"address": "부산 서구 부용1가 69-2", "car_count": "5", "imaginary": "0", "is_d2d_car_exportable": "ABLE", "lat": "35.105385", "lng": "129.02034", "parking_name": "동아대학교 부민캠퍼스", "region1": "부산광역시", "region2": "서구", "region3": "부용동", "zone_id": "269", "zone_name": "동아대학교 부민캠퍼스"}, {"address": "부산 서구 서대신동3가 513-1", "car_count": "1", "imaginary": "0", "is_d2d_car_exportable": "ABLE", "lat": "35.113555", "lng": "129.013531", "parking_name": "버거킹 부산대신점", "region1": "부산광역시", "region2": "서구", "region3": "서대신동3가", "zone_id": "20647", "zone_name": "버거킹 부산대신점"}, {"address": "부산 서구 암남동 234 베스트웨스턴플러스 부산송도호텔", "car_count": "1", "imaginary": "0", "is_d2d_car_exportable": "ABLE", "lat": "35.077167", "lng": "129.017828", "parking_name": "베스트웨스턴플러스 부산송도호텔", "region1": "부산광역시", "region2": "서구", "region3": "암남동", "zone_id": "11466", "zone_name": "베스트웨스턴플러스 부산송도호텔"}, {"address": "부산 서구 암남동 579 송도노외공영주차장 지상 4층", "car_count": "1", "imaginary": "0", "is_d2d_car_exportable": "ABLE", "lat": "35.073886", "lng": "129.015554", "parking_name": "송도노외공영주차장", "region1": "부산광역시", "region2": "서구", "region3": "암남동", "zone_id": "20263", "zone_name": "송도노외공영주차장"}, {"address": "부산 서구 토성동1가 13-5", "car_count": "5", "imaginary": "0", "is_d2d_car_exportable": "ABLE", "lat": "35.100297", "lng": "129.022615", "parking_name": "토성역 5번출구", "region1": "부산광역시", "region2": "서구", "region3": "토성동1가", "zone_id": "11492", "zone_name": "토성역 5번출구"}, {"address": "부산 서구 암남동 230 지상 1층 기계식 주차장", "car_count": "1", "imaginary": "0", "is_d2d_car_exportable": "ABLE", "lat": "35.077725", "lng": "129.019282", "parking_name": "페어필드바이메리어트 부산송도비치", "region1": "부산광역시", "region2": "서구", "region3": "암남동", "zone_id": "14046", "zone_name": "페어필드바이메리어트 부산송도비치"}, {"address": "부산 수영구 광안동 120-266 신천주차장", "car_count": "3", "imaginary": "0", "is_d2d_car_exportable": "ABLE", "lat": "35.16034", "lng": "129.114916", "parking_name": "BHS한서병원 맞은편", "region1": "부산광역시", "region2": "수영구", "region3": "광안동", "zone_id": "14846", "zone_name": "BHS한서병원 맞은편"}, {"address": "부산 수영구 광안동 377-20", "car_count": "1", "imaginary": "0", "is_d2d_car_exportable": "ABLE", "lat": "35.153961", "lng": "129.111908", "parking_name": "대성주차장", "region1": "부산광역시", "region2": "수영구", "region3": "광안동", "zone_id": "5768", "zone_name": "광안4동행정복지센터 옆"}, {"address": "부산 수영구 민락동 181-154 오션브릿지", "car_count": "1", "imaginary": "0", "is_d2d_car_exportable": "ABLE", "lat": "35.153965", "lng": "129.12452", "parking_name": "광안리 오션브릿지", "region1": "부산광역시", "region2": "수영구", "region3": "민락동", "zone_id": "22414", "zone_name": "광안리 오션브릿지"}, {"address": "부산 수영구 광안동 194-6", "car_count": "1", "imaginary": "0", "is_d2d_car_exportable": "ABLE", "lat": "35.153236", "lng": "129.117391", "parking_name": "광안리개나리맨션 뒤편", "region1": "부산광역시", "region2": "수영구", "region3": "광안동", "zone_id": "23008", "zone_name": "광안리개나리맨션 뒤편"}, {"address": "부산 수영구 광안동 196-9", "car_count": "1", "imaginary": "0", "is_d2d_car_exportable": "ABLE", "lat": "35.152208", "lng": "129.117042", "parking_name": "광안리카페거리", "region1": "부산광역시", "region2": "수영구", "region3": "광안동", "zone_id": "20075", "zone_name": "광안리카페거리"}, {"address": "부산 수영구 민락동 184-14", "car_count": "1", "imaginary": "0", "is_d2d_car_exportable": "ABLE", "lat": "35.154984", "lng": "129.118698", "parking_name": "광안리해수욕장", "region1": "부산광역시", "region2": "수영구", "region3": "민락동", "zone_id": "850", "zone_name": "광안리해수욕장"}, {"address": "부산 수영구 민락동 184-13", "car_count": "4", "imaginary": "5", "is_d2d_car_exportable": "ABLE", "lat": "35.155187", "lng": "129.119012", "parking_name": "광안신호주차타워", "region1": "부산광역시", "region2": "수영구", "region3": "민락동", "zone_id": "15654", "zone_name": "광안신호주차타워"}, {"address": "부산 수영구 광안동 141-7 수영지하주차장(광안역 1번출구 방면)", "car_count": "5", "imaginary": "0", "is_d2d_car_exportable": "ABLE", "lat": "35.158888", "lng": "129.11405", "parking_name": "수영지하주차장", "region1": "부산광역시", "region2": "수영구", "region3": "광안동", "zone_id": "18747", "zone_name": "광안역 1번출구"}, {"address": "부산 수영구 광안동 536-44", "car_count": "1", "imaginary": "0", "is_d2d_car_exportable": "ABLE", "lat": "35.160412", "lng": "129.110489", "parking_name": "성원주차장", "region1": "부산광역시", "region2": "수영구", "region3": "광안동", "zone_id": "1739", "zone_name": "광안역 2번출구"}, {"address": "부산 수영구 광안동 201-5 광안지웰 에스테이트", "car_count": "5", "imaginary": "0", "is_d2d_car_exportable": "ABLE", "lat": "35.149729", "lng": "129.115151", "parking_name": "광안지웰에스테이트오피스텔", "region1": "부산광역시", "region2": "수영구", "region3": "광안동", "zone_id": "10958", "zone_name": "광안지웰에스테이트오피스텔"}, {"address": "부산 수영구 남천동 323", "car_count": "1", "imaginary": "0", "is_d2d_car_exportable": "ABLE", "lat": "35.140167", "lng": "129.106689", "parking_name": "남천역 3번출구", "region1": "부산광역시", "region2": "수영구", "region3": "남천동", "zone_id": "5621", "zone_name": "남천역 3번출구"}, {"address": "부산광역시 수영구 민락동 165-18 동방스카이주차장", "car_count": "3", "imaginary": "0", "is_d2d_car_exportable": "ABLE", "lat": "35.15793", "lng": "129.1206", "parking_name": "동방오거리", "region1": "부산광역시", "region2": "수영구", "region3": "광안동", "zone_id": "17141", "zone_name": "동방오거리"}, {"address": "부산 수영구 망미동 432-22", "car_count": "1", "imaginary": "0", "is_d2d_car_exportable": "ABLE", "lat": "35.17704", "lng": "129.107052", "parking_name": "망미동우체국 맞은편", "region1": "부산광역시", "region2": "수영구", "region3": "망미동", "zone_id": "23100", "zone_name": "망미동우체국 맞은편"}, {"address": "부산 수영구 망미동 430-3", "car_count": "1", "imaginary": "0", "is_d2d_car_exportable": "ABLE", "lat": "35.174626", "lng": "129.107438", "parking_name": "망미주차장", "region1": "부산광역시", "region2": "수영구", "region3": "망미동", "zone_id": "12861", "zone_name": "망미역 4번출구"}, {"address": "부산 수영구 남천동 11-14 부산시약사신용협동조합", "car_count": "1", "imaginary": "0", "is_d2d_car_exportable": "ABLE", "lat": "35.144297", "lng": "129.11029", "parking_name": "부산시 약사신협본점", "region1": "부산광역시", "region2": "수영구", "region3": "남천동", "zone_id": "19362", "zone_name": "부산시 약사신협본점"}, {"address": "부산 수영구 광안동 529", "car_count": "1", "imaginary": "0", "is_d2d_car_exportable": "ABLE", "lat": "35.162837", "lng": "129.108127", "parking_name": "비치그린상가", "region1": "부산광역시", "region2": "수영구", "region3": "광안동", "zone_id": "15418", "zone_name": "비치그린상가"}, {"address": "부산 수영구 남천동 5-3 1층 사라토가주차장", "car_count": "1", "imaginary": "0", "is_d2d_car_exportable": "ABLE", "lat": "35.146476", "lng": "129.114373", "parking_name": "사라토가주차장", "region1": "부산광역시", "region2": "수영구", "region3": "남천동", "zone_id": "14726", "zone_name": "수영구청 옆"}, {"address": "부산 수영구 민락동 129-9", "car_count": "4", "imaginary": "0", "is_d2d_car_exportable": "ABLE", "lat": "35.166676", "lng": "129.118439", "parking_name": "성진 카서비스센터", "region1": "부산광역시", "region2": "수영구", "region3": "민락동", "zone_id": "6230", "zone_name": "수영역 11번출구"}, {"address": "부산 수영구 광안동 688-23", "car_count": "4", "imaginary": "0", "is_d2d_car_exportable": "ABLE", "lat": "35.164619", "lng": "129.113739", "parking_name": "수영역 12번출구", "region1": "부산광역시", "region2": "수영구", "region3": "광안동", "zone_id": "5640", "zone_name": "수영역 12번출구"}, {"address": "부산 수영구 광안동 97-13 제이빌 쏘카 지정주차구역", "car_count": "3", "imaginary": "0", "is_d2d_car_exportable": "ABLE", "lat": "35.164361", "lng": "129.116631", "parking_name": "수영역 13번출구", "region1": "부산광역시", "region2": "수영구", "region3": "광안동", "zone_id": "17171", "zone_name": "수영역 13번출구"}, {"address": "부산 수영구 광안동 662-1", "car_count": "1", "imaginary": "0", "is_d2d_car_exportable": "ABLE", "lat": "35.163069", "lng": "129.113668", "parking_name": "수영역 14번출구", "region1": "부산광역시", "region2": "수영구", "region3": "광안동", "zone_id": "11789", "zone_name": "수영역 14번출구"}, {"address": "부산 수영구 광안동 116-32 (두리아 탁구교실 옆) 광안로 주차장", "car_count": "2", "imaginary": "0", "is_d2d_car_exportable": "ABLE", "lat": "35.162828", "lng": "129.114664", "parking_name": "광안로 주차장", "region1": "부산광역시", "region2": "수영구", "region3": "광안동", "zone_id": "15007", "zone_name": "수영역 17번출구"},