[{"address": "광주 광산구 하남동 811-0", "first_date": "2023-01-01", "gp_per_car_28d": "184036.0", "hist_car_count": "2.9", "imaginary": "0", "last_date": "2026-01-01", "lat": "35.17926", "lng": "126.806444", "operation_days": "1097", "parking_name": "CGV 광주하남점 옆", "region2": "광산구", "region3": "하남동", "revenue_per_car_28d": "1363882.0", "state": "0", "utilization_rate": "36.1", "zone_id": "14883", "zone_name": "CGV 광주하남점 옆"}, {"address": "광주 광산구 우산동 1589-1 광주무역회관빌딩 지상1층", "first_date": "2023-01-01", "gp_per_car_28d": "337414.0", "hist_car_count": "1.0", "imaginary": "0", "last_date": "2025-05-20", "lat": "35.160674", "lng": "126.811073", "operation_days": "867", "parking_name": "광주 무역회관(운영종료)", "region2": "광산구", "region3": "우산동", "revenue_per_car_28d": "1530436.0", "state": "0", "utilization_rate": "35.4", "zone_id": "15376", "zone_name": "광주 무역회관(운영종료)"}, {"address": "광주 광산구 운남동 456-123 광주21세기병원 광주21세기병원", "first_date": "2023-01-01", "gp_per_car_28d": "243503.0", "hist_car_count": "1.0", "imaginary": "0", "last_date": "2025-10-21", "lat": "35.175961", "lng": "126.818083", "operation_days": "999", "parking_name": "광주21세기병원(운영종료)", "region2": "광산구", "region3": "운남동", "revenue_per_car_28d": "1436266.0", "state": "0", "utilization_rate": "33.4", "zone_id": "12937", "zone_name": "광주21세기병원(운영종료)"}, {"address": "광주 광산구 신촌동 689-1", "first_date": "2023-01-01", "gp_per_car_28d": "220624.0", "hist_car_count": "9.9", "imaginary": "0", "last_date": "2024-07-31", "lat": "35.143669", "lng": "126.810036", "operation_days": "578", "parking_name": "광주공항역 4번출구(운영종료)", "region2": "광산구", "region3": "신촌동", "revenue_per_car_28d": "1144559.0", "state": "0", "utilization_rate": "32.1", "zone_id": "4746", "zone_name": "광주공항역 4번출구(운영종료)"}, {"address": "광주 광산구 송정동 805-4 광산로 제2공영주차장", "first_date": "2024-01-01", "gp_per_car_28d": "-111706.0", "hist_car_count": "1.0", "imaginary": "0", "last_date": "2024-02-27", "lat": "35.139539", "lng": "126.797014", "operation_days": "58", "parking_name": "광산로 제2공영주차장", "region2": "광산구", "region3": "송정동", "revenue_per_car_28d": "604822.0", "state": "0", "utilization_rate": "13.2", "zone_id": "18982", "zone_name": "광주송정 떡갈비골목 옆(운영종료)"}, {"address": "광주 광산구 송정동 818-15", "first_date": "2023-06-02", "gp_per_car_28d": "120638.0", "hist_car_count": "2.0", "imaginary": "0", "last_date": "2023-12-31", "lat": "35.138187", "lng": "126.795005", "operation_days": "213", "parking_name": "광산로 공영주차장", "region2": "광산구", "region3": "송정동", "revenue_per_car_28d": "1112283.0", "state": "0", "utilization_rate": "31.4", "zone_id": "17501", "zone_name": "광주송정 떡갈비골목(운영종료)"}, {"address": "광주 광산구 송정동 949-39", "first_date": "2023-07-17", "gp_per_car_28d": "99258.0", "hist_car_count": "6.8", "imaginary": "0", "last_date": "2024-06-30", "lat": "35.13529", "lng": "126.790465", "operation_days": "350", "parking_name": "광주송정역 전기차(KTX)(운영종료)", "region2": "광산구", "region3": "송정동", "revenue_per_car_28d": "1380972.0", "state": "0", "utilization_rate": "36.0", "zone_id": "17973", "zone_name": "광주송정역 전기차(KTX)(운영종료)"}, {"address": "광주 광산구 송정동 1003-362", "first_date": "2023-01-01", "gp_per_car_28d": "475491.0", "hist_car_count": "2.4", "imaginary": "0", "last_date": "2023-10-31", "lat": "35.139577", "lng": "126.790241", "operation_days": "304", "parking_name": "광주송정역 제5주차장", "region2": "광산구", "region3": "송정동", "revenue_per_car_28d": "1484001.0", "state": "0", "utilization_rate": "35.0", "zone_id": "5585", "zone_name": "광주송정역 제5주차장(KTX)(운영종료)"}, {"address": "광주 광산구 송정동 1128-3", "first_date": "2024-05-04", "gp_per_car_28d": "32771.0", "hist_car_count": "1.4", "imaginary": "0", "last_date": "2024-08-21", "lat": "35.133889", "lng": "126.786184", "operation_days": "110", "parking_name": "광주송정역 주차빌딩 뒤편(KTX)(운영종료)", "region2": "광산구", "region3": "송정동", "revenue_per_car_28d": "955669.0", "state": "0", "utilization_rate": "34.1", "zone_id": "19325", "zone_name": "광주송정역 주차빌딩 뒤편(KTX)(운영종료)"}, {"address": "광주 광산구 송정동 867-16", "first_date": "2023-01-01", "gp_per_car_28d": "529212.0", "hist_car_count": "29.6", "imaginary": "0", "last_date": "2023-07-31", "lat": "35.137075", "lng": "126.793486", "operation_days": "212", "parking_name": "대박주차장", "region2": "광산구", "region3": "송정동", "revenue_per_car_28d": "1664318.0", "state": "0", "utilization_rate": "37.6", "zone_id": "9369", "zone_name": "광주송정역시장 앞(KTX)(운영종료)"}, {"address": "광주 광산구 우산동 1611-1 광주여대A", "first_date": "2023-01-01", "gp_per_car_28d": "250957.0", "hist_car_count": "1.3", "imaginary": "0", "last_date": "2026-03-31", "lat": "35.164835", "lng": "126.801392", "operation_days": "611", "parking_name": "광주여대 입구", "region2": "광산구", "region3": "우산동", "revenue_per_car_28d": "1287072.0", "state": "1", "utilization_rate": "31.9", "zone_id": "2070", "zone_name": "광주여대 입구"}, {"address": "광주광역시 광산구 송정동 917-38 GS파크 송정동", "first_date": "2023-01-01", "gp_per_car_28d": "89056.0", "hist_car_count": "1.7", "imaginary": "0", "last_date": "2023-05-01", "lat": "35.132066", "lng": "126.788548", "operation_days": "121", "parking_name": "케이엠파크 송정동", "region2": "광산구", "region3": "송정동", "revenue_per_car_28d": "909587.0", "state": "0", "utilization_rate": "28.4", "zone_id": "13308", "zone_name": "도산역 1번출구(운영종료)"}, {"address": "광주 광산구 월곡동 316-3", "first_date": "2023-01-01", "gp_per_car_28d": "77692.0", "hist_car_count": "1.0", "imaginary": "0", "last_date": "2024-09-09", "lat": "35.171853", "lng": "126.809006", "operation_days": "618", "parking_name": "롯데 하이마트 광산점(운영종료)", "region2": "광산구", "region3": "월곡동", "revenue_per_car_28d": "1148268.0", "state": "0", "utilization_rate": "27.7", "zone_id": "16564", "zone_name": "롯데 하이마트 광산점(운영종료)"}, {"address": "광주 광산구 오선동 271 G5 주차장", "first_date": "2023-10-12", "gp_per_car_28d": "-174096.0", "hist_car_count": "1.8", "imaginary": "0", "last_date": "2024-03-13", "lat": "35.205871", "lng": "126.81206", "operation_days": "141", "parking_name": "삼성전자 광주 2캠퍼스", "region2": "광산구", "region3": "오선동", "revenue_per_car_28d": "359530.0", "state": "0", "utilization_rate": "7.8", "zone_id": "18475", "zone_name": "삼성전자 광주 2캠퍼스(운영종료)"}, {"address": "광주 광산구 신가동 1064 210동 지하주차장", "first_date": "2023-01-01", "gp_per_car_28d": "384915.0", "hist_car_count": "1.0", "imaginary": "0", "last_date": "2025-01-13", "lat": "35.184959", "lng": "126.823336", "operation_days": "744", "parking_name": "아름마을 휴먼시아2단지아파트(운영종료)", "region2": "광산구", "region3": "신가동", "revenue_per_car_28d": "1619527.0", "state": "0", "utilization_rate": "35.5", "zone_id": "6292", "zone_name": "아름마을 휴먼시아2단지아파트(운영종료)"}, {"address": "광주 광산구 하남동 811 지상 2층~3층", "first_date": "2023-03-08", "gp_per_car_28d": "-351861.0", "hist_car_count": "2.5", "imaginary": "0", "last_date": "2023-03-20", "lat": "35.179449", "lng": "126.80646", "operation_days": "13", "parking_name": "오토핸즈 광주지점", "region2": "광산구", "region3": "하남동", "revenue_per_car_28d": "0.0", "state": "0", "utilization_rate": "0.0", "zone_id": "12129", "zone_name": "오토핸즈 광주지점"}, {"address": "광주 광산구 장덕동 1566", "first_date": "2023-01-07", "gp_per_car_28d": "57694.0", "hist_car_count": "1.0", "imaginary": "0", "last_date": "2023-12-01", "lat": "35.1897", "lng": "126.813281", "operation_days": "329", "parking_name": "엘리시움 주차장", "region2": "광산구", "region3": "장덕동", "revenue_per_car_28d": "1223896.0", "state": "0", "utilization_rate": "30.4", "zone_id": "16947", "zone_name": "장덕공원 옆(운영종료)"}, {"address": "광주 광산구 수완동 933 107동 지상주차장", "first_date": "2023-01-01", "gp_per_car_28d": "277776.0", "hist_car_count": "1.8", "imaginary": "0", "last_date": "2025-06-30", "lat": "35.194399", "lng": "126.82494", "operation_days": "912", "parking_name": "해솔마을 현진에버빌1단지아파트(운영종료)", "region2": "광산구", "region3": "수완동", "revenue_per_car_28d": "1473983.0", "state": "0", "utilization_rate": "32.7", "zone_id": "7943", "zone_name": "해솔마을 현진에버빌1단지아파트(운영종료)"}, {"address": "광주 광산구 우산동 1583-3", "first_date": "2023-01-01", "gp_per_car_28d": "340727.0", "hist_car_count": "2.0", "imaginary": "0", "last_date": "2023-02-28", "lat": "35.162033", "lng": "126.80864", "operation_days": "59", "parking_name": "우산동공영주차장", "region2": "광산구", "region3": "우산동", "revenue_per_car_28d": "1550724.0", "state": "0", "utilization_rate": "39.9", "zone_id": "2887", "zone_name": "호남요양병원 옆(운영종료)"}, {"address": "전남 광양시 중동 1359-1 동광양농협", "first_date": "2024-07-05", "gp_per_car_28d": "-398684.0", "hist_car_count": "1.0", "imaginary": "0", "last_date": "2024-07-05", "lat": "34.940736", "lng": "127.692926", "operation_days": "1", "parking_name": "동광양농협 하나로마트 광영점", "region2": "광양시", "region3": "중동", "revenue_per_car_28d": "0.0", "state": "0", "utilization_rate": "0.0", "zone_id": "19628", "zone_name": "동광양농협 하나로마트 광영점"}, {"address": "전남 광양시 중동 1767-3", "first_date": "2023-01-01", "gp_per_car_28d": "206406.0", "hist_car_count": "1.8", "imaginary": "0", "last_date": "2025-01-20", "lat": "34.934129", "lng": "127.699336", "operation_days": "474", "parking_name": "이순신대교 먹거리타운", "region2": "광양시", "region3": "중동", "revenue_per_car_28d": "1038620.0", "state": "0", "utilization_rate": "37.5", "zone_id": "10287", "zone_name": "이순신대교 먹거리타운"}, {"address": "전남 광양시 중동 1389-1", "first_date": "2023-01-01", "gp_per_car_28d": "111912.0", "hist_car_count": "1.0", "imaginary": "0", "last_date": "2023-12-05", "lat": "34.942131", "lng": "127.688161", "operation_days": "339", "parking_name": "현대원룸", "region2": "광양시", "region3": "중동", "revenue_per_car_28d": "1040227.0", "state": "0", "utilization_rate": "26.3", "zone_id": "15872", "zone_name": "중동 남양파크아파트 옆"}, {"address": "전남 광양시 중동 1367-1", "first_date": "2023-01-01", "gp_per_car_28d": "-35386.0", "hist_car_count": "1.0", "imaginary": "0", "last_date": "2023-03-16", "lat": "34.940556", "lng": "127.686189", "operation_days": "75", "parking_name": "베스트빌", "region2": "광양시", "region3": "중동", "revenue_per_car_28d": "897208.0", "state": "0", "utilization_rate": "28.7", "zone_id": "15877", "zone_name": "중마시영아파트 옆"}, {"address": "전남 나주시 빛가람동 186-1", "first_date": "2023-07-21", "gp_per_car_28d": "110214.0", "hist_car_count": "1.6", "imaginary": "0", "last_date": "2024-07-12", "lat": "35.024209", "lng": "126.781216", "operation_days": "358", "parking_name": "게토333 예술인마을", "region2": "나주시", "region3": "빛가람동", "revenue_per_car_28d": "1146407.0", "state": "0", "utilization_rate": "27.8", "zone_id": "18196", "zone_name": "게토333 예술인마을"}, {"address": "전남 나주시 대호동 177 동신대학교 체육관동", "first_date": "2023-09-27", "gp_per_car_28d": "-22536.0", "hist_car_count": "1.0", "imaginary": "0", "last_date": "2026-04-04", "lat": "35.045389", "lng": "126.717146", "operation_days": "200", "parking_name": "동신대 체육관", "region2": "나주시", "region3": "대호동", "revenue_per_car_28d": "759364.0", "state": "1", "utilization_rate": "27.8", "zone_id": "2073", "zone_name": "동신대 체육관"}, {"address": "전남 나주시 빛가람동 338-4", "first_date": "2023-01-01", "gp_per_car_28d": "199061.0", "hist_car_count": "2.4", "imaginary": "0", "last_date": "2025-04-04", "lat": "35.016293", "lng": "126.784219", "operation_days": "825", "parking_name": "빛가람동 시외버스 정류소 옆", "region2": "나주시", "region3": "빛가람동", "revenue_per_car_28d": "1279280.0", "state": "0", "utilization_rate": "35.7", "zone_id": "16057", "zone_name": "빛가람동 시외버스 정류소 옆"}, {"address": "전남 나주시 빛가람동 194-2", "first_date": "2024-07-10", "gp_per_car_28d": "117443.0", "hist_car_count": "1.3", "imaginary": "0", "last_date": "2025-04-12", "lat": "35.021581", "lng": "126.787907", "operation_days": "277", "parking_name": "빛가람동 행정복지센터 옆", "region2": "나주시", "region3": "빛가람동", "revenue_per_car_28d": "996823.0", "state": "1", "utilization_rate": "43.0", "zone_id": "19677", "zone_name": "빛가람동 행정복지센터 옆"}, {"address": "전남 나주시 빛가람동 199", "first_date": "2023-01-01", "gp_per_car_28d": "391306.0", "hist_car_count": "2.0", "imaginary": "0", "last_date": "2023-03-03", "lat": "35.021888", "lng": "126.788816", "operation_days": "62", "parking_name": "빛가람동 행정복지센터 옆(폐쇄)", "region2": "나주시", "region3": "빛가람동", "revenue_per_car_28d": "1466332.0", "state": "0", "utilization_rate": "37.0", "zone_id": "11690", "zone_name": "빛가람동 행정복지센터 옆(폐쇄)"}, {"address": "전남 나주시 빛가람동 330-9", "first_date": "2023-01-01", "gp_per_car_28d": "172960.0", "hist_car_count": "2.1", "imaginary": "0", "last_date": "2025-09-01", "lat": "35.015249", "lng": "126.794967", "operation_days": "914", "parking_name": "빛가람우체국 앞", "region2": "나주시", "region3": "빛가람동", "revenue_per_car_28d": "1236573.0", "state": "0", "utilization_rate": "32.8", "zone_id": "6639", "zone_name": "빛가람우체국 앞"}, {"address": "전남 나주시 빛가람동 280", "first_date": "2023-01-01", "gp_per_car_28d": "351282.0", "hist_car_count": "1.4", "imaginary": "0", "last_date": "2024-04-19", "lat": "35.020107", "lng": "126.793579", "operation_days": "475", "parking_name": "스페이스코웍", "region2": "나주시", "region3": "빛가람동", "revenue_per_car_28d": "1484365.0", "state": "0", "utilization_rate": "29.1", "zone_id": "4937", "zone_name": "전파진흥원 옆"}, {"address": "광주 남구 봉선동 112", "first_date": "2023-01-01", "gp_per_car_28d": "-53853.0", "hist_car_count": "1.0", "imaginary": "0", "last_date": "2023-03-08", "lat": "35.122911", "lng": "126.913747", "operation_days": "67", "parking_name": "봉선센트럴빌딩", "region2": "남구", "region3": "봉선동", "revenue_per_car_28d": "818658.0", "state": "0", "utilization_rate": "22.1", "zone_id": "15523", "zone_name": "KB국민은행 봉선동지점(운영종료)"}, {"address": "광주 남구 진월동 469-1 광주 씨티병원 부설주차장", "first_date": "2023-01-01", "gp_per_car_28d": "106493.0", "hist_car_count": "1.0", "imaginary": "0", "last_date": "2025-03-28", "lat": "35.117055", "lng": "126.900121", "operation_days": "815", "parking_name": "광주 씨티병원 뒤", "region2": "남구", "region3": "진월동", "revenue_per_car_28d": "1329914.0", "state": "0", "utilization_rate": "25.2", "zone_id": "15909", "zone_name": "광주 씨티병원 뒤"}, {"address": "광주 남구 진월동 299-3 진월동할인매장 지상 2층", "first_date": "2023-01-01", "gp_per_car_28d": "170028.0", "hist_car_count": "2.0", "imaginary": "0", "last_date": "2023-07-10", "lat": "35.122654", "lng": "126.898965", "operation_days": "191", "parking_name": "신진빌딩", "region2": "남구", "region3": "진월동", "revenue_per_car_28d": "1513899.0", "state": "0", "utilization_rate": "37.6", "zone_id": "15342", "zone_name": "광주 파워식자재마트(운영종료)"}, {"address": "광주 남구 구동 1-12", "first_date": "2023-01-01", "gp_per_car_28d": "20684.0", "hist_car_count": "1.0", "imaginary": "0", "last_date": "2023-11-25", "lat": "35.14872", "lng": "126.909164", "operation_days": "329", "parking_name": "영무빌딩 주차장", "region2": "남구", "region3": "구동", "revenue_per_car_28d": "1175429.0", "state": "0", "utilization_rate": "31.1", "zone_id": "3718", "zone_name": "광주공원 앞(운영종료)"}, {"address": "광주 남구 봉선동 161 롯데 슈퍼 센터 옥상층", "first_date": "2023-01-01", "gp_per_car_28d": "185648.0", "hist_car_count": "1.0", "imaginary": "0", "last_date": "2023-12-08", "lat": "35.126134", "lng": "126.913992", "operation_days": "277", "parking_name": "롯데슈퍼 봉선점", "region2": "남구", "region3": "봉선동", "revenue_per_car_28d": "1390361.0", "state": "0", "utilization_rate": "33.3", "zone_id": "11908", "zone_name": "롯데슈퍼 봉선점(운영종료)"}, {"address": "광주 남구 노대동 843", "first_date": "2024-07-06", "gp_per_car_28d": "-347332.0", "hist_car_count": "1.0", "imaginary": "0", "last_date": "2024-08-09", "lat": "35.105792", "lng": "126.905486", "operation_days": "35", "parking_name": "물빛근린공원 옆", "region2": "남구", "region3": "노대동", "revenue_per_car_28d": "282245.0", "state": "0", "utilization_rate": "5.2", "zone_id": "19633", "zone_name": "물빛근린공원 옆"}, {"address": "광주 남구 주월동 543-8 원광대한방병원 나이스파크 주차장", "first_date": "2023-01-01", "gp_per_car_28d": "109244.0", "hist_car_count": "2.0", "imaginary": "0", "last_date": "2025-04-18", "lat": "35.128854", "lng": "126.888166", "operation_days": "839", "parking_name": "원광대 광주한방병원", "region2": "남구", "region3": "주월동", "revenue_per_car_28d": "1291823.0", "state": "1", "utilization_rate": "33.4", "zone_id": "15869", "zone_name": "원광대 광주한방병원"}, {"address": "광주 남구 봉선동 122-1 금호 반점 광주 지성빌딩", "first_date": "2023-05-19", "gp_per_car_28d": "64628.0", "hist_car_count": "1.6", "imaginary": "0", "last_date": "2024-08-09", "lat": "35.125175", "lng": "126.913759", "operation_days": "187", "parking_name": "유안초등학교 옆", "region2": "남구", "region3": "봉선동", "revenue_per_car_28d": "1126486.0", "state": "0", "utilization_rate": "29.0", "zone_id": "17451", "zone_name": "유안초등학교 옆"}, {"address": "광주 남구 주월동 1328 남구주월골드클래스어반시티 주차장 입구(아파트 기준 지하)", "first_date": "2026-03-17", "gp_per_car_28d": "-288629.0", "hist_car_count": "1.0", "imaginary": "0", "last_date": "2026-04-06", "lat": "35.130218", "lng": "126.899566", "operation_days": "21", "parking_name": "주월골드클래스", "region2": "남구", "region3": "주월동", "revenue_per_car_28d": "1114990.0", "state": "0", "utilization_rate": "33.2", "zone_id": "23089", "zone_name": "주월골드클래스"}, {"address": "광주 남구 임암동 730 효천1지구 중흥S클래스 리버티 아파트 105동 옆 지하 1층", "first_date": "2023-01-01", "gp_per_car_28d": "148586.0", "hist_car_count": "1.1", "imaginary": "0", "last_date": "2026-01-22", "lat": "35.104136", "lng": "126.87143", "operation_days": "1118", "parking_name": "중흥S클래스 리버티 아파트", "region2": "남구", "region3": "임암동", "revenue_per_car_28d": "1189220.0", "state": "1", "utilization_rate": "28.9", "zone_id": "10771", "zone_name": "중흥S클래스 리버티 아파트"}, {"address": "광주 남구 행암동 576", "first_date": "2024-05-15", "gp_per_car_28d": "764.0", "hist_car_count": "2.0", "imaginary": "0", "last_date": "2025-04-11", "lat": "35.102771", "lng": "126.889154", "operation_days": "332", "parking_name": "효천LH천년나무 2단지 옆", "region2": "남구", "region3": "행암동", "revenue_per_car_28d": "968203.0", "state": "0", "utilization_rate": "26.2", "zone_id": "7143", "zone_name": "효천LH천년나무 2단지 옆"}, {"address": "전남 담양군 담양읍 객사리 280-1 (주)NH농협은행담양군지부", "first_date": "2024-07-12", "gp_per_car_28d": "-410388.0", "hist_car_count": "1.0", "imaginary": "0", "last_date": "2024-07-23", "lat": "35.320466", "lng": "126.982647", "operation_days": "12", "parking_name": "담양읍사무소 앞", "region2": "담양군", "region3": "담양읍", "revenue_per_car_28d": "212092.0", "state": "0", "utilization_rate": "6.4", "zone_id": "19668", "zone_name": "담양읍사무소 앞"}, {"address": "광주 동구 호남동 75", "first_date": "2023-04-29", "gp_per_car_28d": "71583.0", "hist_car_count": "1.3", "imaginary": "0", "last_date": "2025-03-25", "lat": "35.146989", "lng": "126.914017", "operation_days": "697", "parking_name": "CGV 광주금남로점 앞", "region2": "동구", "region3": "호남동", "revenue_per_car_28d": "1224314.0", "state": "1", "utilization_rate": "25.7", "zone_id": "17331", "zone_name": "CGV 광주금남로점 앞"}, {"address": "광주 동구 계림동 100-11 금호계림주상복합 상가 주차장", "first_date": "2023-09-01", "gp_per_car_28d": "20393.0", "hist_car_count": "1.0", "imaginary": "0", "last_date": "2025-03-28", "lat": "35.163789", "lng": "126.920241", "operation_days": "575", "parking_name": "광주 금호계림주상복합", "region2": "동구", "region3": "계림동", "revenue_per_car_28d": "1075961.0", "state": "0", "utilization_rate": "23.8", "zone_id": "18458", "zone_name": "광주 금호계림주상복합"}, {"address": "광주 동구 계림동 577-7", "first_date": "2024-05-29", "gp_per_car_28d": "24406.0", "hist_car_count": "1.0", "imaginary": "0", "last_date": "2024-11-01", "lat": "35.159355", "lng": "126.918915", "operation_days": "157", "parking_name": "광주고등학교 앞", "region2": "동구", "region3": "계림동", "revenue_per_car_28d": "945710.0", "state": "0", "utilization_rate": "15.7", "zone_id": "1985", "zone_name": "광주고등학교 앞"}, {"address": "광주 동구 불로동 121", "first_date": "2023-01-01", "gp_per_car_28d": "166009.0", "hist_car_count": "1.0", "imaginary": "0", "last_date": "2025-04-17", "lat": "35.145527", "lng": "126.916557", "operation_days": "835", "parking_name": "구시청사거리", "region2": "동구", "region3": "불로동", "revenue_per_car_28d": "1509397.0", "state": "0", "utilization_rate": "33.6", "zone_id": "5104", "zone_name": "구시청사거리"}, {"address": "광주 동구 동명동 143-78", "first_date": "2023-01-01", "gp_per_car_28d": "747193.0", "hist_car_count": "1.0", "imaginary": "0", "last_date": "2023-06-23", "lat": "35.148136", "lng": "126.925835", "operation_days": "174", "parking_name": "아이플렉스 주차장", "region2": "동구", "region3": "동명동", "revenue_per_car_28d": "2121561.0", "state": "0", "utilization_rate": "40.8", "zone_id": "4982", "zone_name": "국립아시아문화전당 뒤(운영종료)"}, {"address": "광주 동구 대인동 85 광주 동구 구성로 194번길 3", "first_date": "2026-02-11", "gp_per_car_28d": "538891.0", "hist_car_count": "2.0", "imaginary": "0", "last_date": "2026-02-24", "lat": "35.152794", "lng": "126.914235", "operation_days": "14", "parking_name": "금남로4가역 3번출구", "region2": "동구", "region3": "대인동", "revenue_per_car_28d": "1654149.0", "state": "0", "utilization_rate": "32.5", "zone_id": "22997", "zone_name": "금남로4가역 3번출구"}, {"address": "광주 동구 계림동 1061", "first_date": "2023-07-12", "gp_per_car_28d": "295571.0", "hist_car_count": "1.0", "imaginary": "0", "last_date": "2023-09-25", "lat": "35.163584", "lng": "126.923439", "operation_days": "76", "parking_name": "지니오토 손세차", "region2": "동구", "region3": "계림동", "revenue_per_car_28d": "1506572.0", "state": "0", "utilization_rate": "32.8", "zone_id": "17828", "zone_name": "금호타운1차아파트 앞(운영종료)"}, {"address": "광주 동구 계림동 100-1 금호타운", "first_date": "2023-01-01", "gp_per_car_28d": "286709.0", "hist_car_count": "1.0", "imaginary": "0", "last_date": "2023-07-27", "lat": "35.163606", "lng": "126.921069", "operation_days": "208", "parking_name": "금호타운1차 101동 앞", "region2": "동구", "region3": "계림동", "revenue_per_car_28d": "1420124.0", "state": "0", "utilization_rate": "31.6", "zone_id": "9126", "zone_name": "금호타운1차아파트(운영종료)"}, {"address": "광주 동구 남동 33", "first_date": "2023-01-01", "gp_per_car_28d": "255351.0", "hist_car_count": "2.0", "imaginary": "0", "last_date": "2023-09-04", "lat": "35.14501", "lng": "126.920361", "operation_days": "247", "parking_name": "문화전당역 1번출구(운영종료)", "region2": "동구", "region3": "남동", "revenue_per_car_28d": "1524645.0", "state": "0", "utilization_rate": "39.9", "zone_id": "14708", "zone_name": "문화전당역 1번출구(운영종료)"}, {"address": "광주 동구 불로동 135 지하 2층", "first_date": "2023-11-10", "gp_per_car_28d": "147993.0", "hist_car_count": "1.2", "imaginary": "0", "last_date": "2025-11-27", "lat": "35.144956", "lng": "126.916362", "operation_days": "749", "parking_name": "문화전당역 엘크루SI타워", "region2": "동구", "region3": "불로동", "revenue_per_car_28d": "1339532.0", "state": "1", "utilization_rate": "26.6", "zone_id": "18834", "zone_name": "문화전당역 엘크루SI타워"}, {"address": "광주 동구 대인동 150 영무 파라드 오피스텔 1차 오피스텔 1차", "first_date": "2023-01-01", "gp_per_car_28d": "-82255.0", "hist_car_count": "1.0", "imaginary": "0", "last_date": "2023-02-10", "lat": "35.152174", "lng": "126.916088", "operation_days": "41", "parking_name": "영무파라드 오피스텔 1차", "region2": "동구", "region3": "대인동", "revenue_per_car_28d": "861781.0", "state": "0", "utilization_rate": "22.4", "zone_id": "14926", "zone_name": "영무파라드 오피스텔 1차(운영종료)"}, {"address": "광주 동구 대인동 148-1 영무 파라드 오피스텔 2차 지하1층", "first_date": "2023-01-01", "gp_per_car_28d": "204128.0", "hist_car_count": "1.0", "imaginary": "0", "last_date": "2024-01-15", "lat": "35.152216", "lng": "126.915762", "operation_days": "374", "parking_name": "영무파라드 오피스텔 2차", "region2": "동구", "region3": "대인동", "revenue_per_car_28d": "1389822.0", "state": "0", "utilization_rate": "31.5", "zone_id": "10865", "zone_name": "영무파라드 오피스텔 2차(운영종료)"}, {"address": "광주 동구 서석동 421 조선대학교부속치과병원", "first_date": "2023-08-26", "gp_per_car_28d": "67779.0", "hist_car_count": "9.2", "imaginary": "0", "last_date": "2023-10-11", "lat": "35.144267", "lng": "126.928408", "operation_days": "47", "parking_name": "조선대 치과병원", "region2": "동구", "region3": "서석동", "revenue_per_car_28d": "1297243.0", "state": "0", "utilization_rate": "27.3", "zone_id": "18430", "zone_name": "조선대 치과병원(운영종료)"}, {"address": "광주 동구 서석동 421-5", "first_date": "2023-10-06", "gp_per_car_28d": "78703.0", "hist_car_count": "6.3", "imaginary": "0", "last_date": "2025-03-30", "lat": "35.144641", "lng": "126.928539", "operation_days": "542", "parking_name": "조선대 후문", "region2": "동구", "region3": "서석동", "revenue_per_car_28d": "1293545.0", "state": "0", "utilization_rate": "31.3", "zone_id": "1115", "zone_name": "조선대 후문"}, {"address": "전남 목포시 용당동 1080-3", "first_date": "2023-04-28", "gp_per_car_28d": "234654.0", "hist_car_count": "1.0", "imaginary": "0", "last_date": "2023-10-26", "lat": "34.805638", "lng": "126.397686", "operation_days": "182", "parking_name": "LG베스트샵 3호광장점", "region2": "목포시", "region3": "용당동", "revenue_per_car_28d": "1314694.0", "state": "0", "utilization_rate": "46.5", "zone_id": "14840", "zone_name": "LG베스트샵 3호 광장점(페쇄)"}, {"address": "전남 목포시 상동 896", "first_date": "2023-04-28", "gp_per_car_28d": "426585.0", "hist_car_count": "1.0", "imaginary": "0", "last_date": "2023-10-30", "lat": "34.802542", "lng": "126.418553", "operation_days": "186", "parking_name": "LG베스트샵 목포상동본점", "region2": "목포시", "region3": "상동", "revenue_per_car_28d": "1678060.0", "state": "0", "utilization_rate": "50.7", "zone_id": "17289", "zone_name": "LG베스트샵 목포상동본점(운영종료)"}, {"address": "전남 목포시 죽동 241", "first_date": "2023-01-01", "gp_per_car_28d": "154269.0", "hist_car_count": "1.0", "imaginary": "0", "last_date": "2025-04-30", "lat": "34.790102", "lng": "126.381387", "operation_days": "851", "parking_name": "달꾸메 게스트하우스", "region2": "목포시", "region3": "죽동", "revenue_per_car_28d": "1105279.0", "state": "0", "utilization_rate": "32.0", "zone_id": "14947", "zone_name": "달꾸메 게스트하우스"}, {"address": "전남 목포시 옥암동 1161", "first_date": "2026-03-12", "gp_per_car_28d": "-226474.0", "hist_car_count": "1.0", "imaginary": "0", "last_date": "2026-04-06", "lat": "34.807671", "lng": "126.438084", "operation_days": "26", "parking_name": "롯데슈퍼 옥암점", "region2": "목포시", "region3": "옥암동", "revenue_per_car_28d": "564604.0", "state": "1", "utilization_rate": "3.6", "zone_id": "23084", "zone_name": "롯데슈퍼 옥암점"}, {"address": "전남 목포시 상동 1130 원형2공영 주차장", "first_date": "2023-01-01", "gp_per_car_28d": "302297.0", "hist_car_count": "2.9", "imaginary": "0", "last_date": "2025-11-23", "lat": "34.799104", "lng": "126.432447", "operation_days": "1058", "parking_name": "롯데시네마 목포점 옆", "region2": "목포시", "region3": "상동", "revenue_per_car_28d": "1424492.0", "state": "1", "utilization_rate": "38.1", "zone_id": "3242", "zone_name": "롯데시네마 목포점 옆"}, {"address": "전남 목포시 연산동 2028", "first_date": "2024-01-10", "gp_per_car_28d": "155519.0", "hist_car_count": "1.9", "imaginary": "0", "last_date": "2026-01-23", "lat": "34.819522", "lng": "126.38995", "operation_days": "669", "parking_name": "목포 백련초등학교 앞", "region2": "목포시", "region3": "연산동", "revenue_per_car_28d": "1164137.0", "state": "1", "utilization_rate": "32.4", "zone_id": "19008", "zone_name": "목포 백련초등학교 앞"}, {"address": "전남 목포시 상동 474-2", "first_date": "2023-01-01", "gp_per_car_28d": "189067.0", "hist_car_count": "1.0", "imaginary": "0", "last_date": "2023-07-27", "lat": "34.811289", "lng": "126.415655", "operation_days": "208", "parking_name": "바다양푼이동태탕 목포터미널점", "region2": "목포시", "region3": "상동", "revenue_per_car_28d": "1256864.0", "state": "0", "utilization_rate": "39.7", "zone_id": "8980", "zone_name": "목포 상동현대아파트 앞"}, {"address": "전남 목포시 용당동 1055-12", "first_date": "2023-01-01", "gp_per_car_28d": "65764.0", "hist_car_count": "2.0", "imaginary": "0", "last_date": "2025-03-28", "lat": "34.803568", "lng": "126.393737", "operation_days": "818", "parking_name": "목포 연동파출소 옆", "region2": "목포시", "region3": "용당동", "revenue_per_car_28d": "1136310.0", "state": "0", "utilization_rate": "32.9", "zone_id": "14059", "zone_name": "목포 연동파출소 옆"}, {"address": "전남 목포시 용해동 236-5", "first_date": "2024-03-04", "gp_per_car_28d": "53572.0", "hist_car_count": "1.0", "imaginary": "0", "last_date": "2024-05-08", "lat": "34.806008", "lng": "126.405317", "operation_days": "66", "parking_name": "박철홍정형외과 주차장", "region2": "목포시", "region3": "용해동", "revenue_per_car_28d": "1066770.0", "state": "0", "utilization_rate": "25.6", "zone_id": "19147", "zone_name": "목포 이로초등학교 옆"}, {"address": "전남 목포시 용당동 1094-1", "first_date": "2024-07-13", "gp_per_car_28d": "-61529.0", "hist_car_count": "1.0", "imaginary": "0", "last_date": "2024-11-08", "lat": "34.806829", "lng": "126.401794", "operation_days": "119", "parking_name": "목포농협 하나로마트 로컬푸드 복합매장", "region2": "목포시", "region3": "용당동", "revenue_per_car_28d": "846560.0", "state": "0", "utilization_rate": "37.3", "zone_id": "19625", "zone_name": "목포농협 하나로마트 로컬푸드 복합매장"}, {"address": "전남 목포시 명륜동 2", "first_date": "2023-01-01", "gp_per_car_28d": "484678.0", "hist_car_count": "1.9", "imaginary": "0", "last_date": "2023-03-05", "lat": "34.793113", "lng": "126.386195", "operation_days": "64", "parking_name": "호텔우인 주차장", "region2": "목포시", "region3": "명륜동", "revenue_per_car_28d": "1386518.0", "state": "0", "utilization_rate": "44.7", "zone_id": "14058", "zone_name": "목포역 앞(KTX)"}, {"address": "전남 목포시 상동 782 동백2공영 주차장", "first_date": "2023-01-01", "gp_per_car_28d": "387555.0", "hist_car_count": "4.0", "imaginary": "0", "last_date": "2025-11-20", "lat": "34.811409", "lng": "126.420291", "operation_days": "1055", "parking_name": "목포종합버스터미널 앞 ", "region2": "목포시", "region3": "상동", "revenue_per_car_28d": "1460584.0", "state": "0", "utilization_rate": "41.7", "zone_id": "11799", "zone_name": "목포종합버스터미널 앞 "}, {"address": "전남 목포시 죽교동 440-4", "first_date": "2024-12-17", "gp_per_car_28d": "-163501.0", "hist_car_count": "1.8", "imaginary": "0", "last_date": "2025-03-20", "lat": "34.785161", "lng": "126.368709", "operation_days": "94", "parking_name": "신안비치호텔", "region2": "목포시", "region3": "죽교동", "revenue_per_car_28d": "658558.0", "state": "0", "utilization_rate": "23.3", "zone_id": "20279", "zone_name": "신안비치호텔"}, {"address": "전남 목포시 산정동 1768 쥬빌리 메디칼센터 101호", "first_date": "2023-12-26", "gp_per_car_28d": "205265.0", "hist_car_count": "1.0", "imaginary": "0", "last_date": "2025-02-21", "lat": "34.806441", "lng": "126.373613", "operation_days": "424", "parking_name": "이마트24 목포산정점", "region2": "목포시", "region3": "산정동", "revenue_per_car_28d": "1302412.0", "state": "0", "utilization_rate": "32.0", "zone_id": "18980", "zone_name": "이마트24 목포산정점"}, {"address": "전남 무안군 망운면 피서리 1050 무안국제공항", "first_date": "2023-07-04", "gp_per_car_28d": "-319643.0", "hist_car_count": "2.2", "imaginary": "0", "last_date": "2023-12-18", "lat": "34.992808", "lng": "126.388215", "operation_days": "168", "parking_name": "무안국제공항 직원주차장", "region2": "무안군", "region3": "망운면", "revenue_per_car_28d": "320694.0", "state": "0", "utilization_rate": "8.9", "zone_id": "13364", "zone_name": "무안국제공항"}, {"address": "전남 무안군 삼향읍 남악리 1487", "first_date": "2023-01-01", "gp_per_car_28d": "185923.0", "hist_car_count": "2.0", "imaginary": "0", "last_date": "2025-03-26", "lat": "34.813508", "lng": "126.467981", "operation_days": "816", "parking_name": "전라남도 교육청 앞", "region2": "무안군", "region3": "삼향읍", "revenue_per_car_28d": "1278386.0", "state": "1", "utilization_rate": "34.9", "zone_id": "7236", "zone_name": "전라남도 교육청 앞"}, {"address": "전남 무안군 무안읍 성남리 419", "first_date": "2025-03-25", "gp_per_car_28d": "10906.0", "hist_car_count": "1.0", "imaginary": "0", "last_date": "2025-05-14", "lat": "34.978455", "lng": "126.472143", "operation_days": "51", "parking_name": "초당대 본관 뒤", "region2": "무안군", "region3": "무안읍", "revenue_per_car_28d": "897826.0", "state": "1", "utilization_rate": "20.4", "zone_id": "20646", "zone_name": "초당대 본관 뒤"}, {"address": "전남 무안군 무안읍 성남리 419 초당대학교", "first_date": "2025-03-20", "gp_per_car_28d": "92627.0", "hist_car_count": "1.0", "imaginary": "0", "last_date": "2026-03-27", "lat": "34.977398", "lng": "126.47354", "operation_days": "146", "parking_name": "초당대학교 다산관", "region2": "무안군", "region3": "무안읍", "revenue_per_car_28d": "941992.0", "state": "1", "utilization_rate": "29.1", "zone_id": "17068", "zone_name": "초당대학교 다산관"}, {"address": "전남 무안군 무안읍 성남리 215-1", "first_date": "2023-09-23", "gp_per_car_28d": "-135995.0", "hist_car_count": "1.0", "imaginary": "0", "last_date": "2023-12-05", "lat": "34.986351", "lng": "126.477248", "operation_days": "74", "parking_name": "티스테이션 무안점", "region2": "무안군", "region3": "무안읍", "revenue_per_car_28d": "643977.0", "state": "0", "utilization_rate": "17.4", "zone_id": "18552", "zone_name": "티스테이션 무안점"}, {"address": "광주 북구 두암동 968-1 율곡타운아파트,두암주공2단지아파트 CU 두암주공점 상가주차장", "first_date": "2023-07-14", "gp_per_car_28d": "102677.0", "hist_car_count": "1.0", "imaginary": "0", "last_date": "2026-04-03", "lat": "35.164002", "lng": "126.935777", "operation_days": "915", "parking_name": "CU 두암주공점", "region2": "북구", "region3": "두암동", "revenue_per_car_28d": "1334724.0", "state": "1", "utilization_rate": "27.6", "zone_id": "17929", "zone_name": "CU 두암주공점"}, {"address": "광주 북구 문흥동 1011-5 문흥 상록 아파트 상가 주차장", "first_date": "2023-07-14", "gp_per_car_28d": "-153317.0", "hist_car_count": "1.0", "imaginary": "0", "last_date": "2023-11-22", "lat": "35.183371", "lng": "126.921833", "operation_days": "132", "parking_name": "CU 문흥상록점", "region2": "북구", "region3": "문흥동", "revenue_per_car_28d": "684965.0", "state": "0", "utilization_rate": "28.8", "zone_id": "17928", "zone_name": "CU 문흥상록점(운영종료)"}, {"address": "광주 북구 중흥동 707-9  아마노 광주역점", "first_date": "2023-11-04", "gp_per_car_28d": "-168257.0", "hist_car_count": "1.0", "imaginary": "3", "last_date": "2023-12-05", "lat": "35.161488", "lng": "126.908667", "operation_days": "32", "parking_name": "아마노코리아 광주역점", "region2": "북구", "region3": "중흥동", "revenue_per_car_28d": "925927.0", "state": "0", "utilization_rate": "27.1", "zone_id": "18810", "zone_name": "[레이 EV] NC백화점 광주역점 앞"}, {"address": "광주 북구 본촌동 130 광신대학교 국제관 앞 주차장", "first_date": "2024-04-06", "gp_per_car_28d": "136327.0", "hist_car_count": "1.0", "imaginary": "0", "last_date": "2025-05-19", "lat": "35.21534", "lng": "126.885295", "operation_days": "409", "parking_name": "광신대 국제관 앞", "region2": "북구", "region3": "본촌동", "revenue_per_car_28d": "1284608.0", "state": "1", "utilization_rate": "23.8", "zone_id": "19243", "zone_name": "광신대 국제관 앞"}, {"address": "광주 북구 본촌동 141 제2주차장", "first_date": "2023-08-11", "gp_per_car_28d": "105863.0", "hist_car_count": "1.5", "imaginary": "0", "last_date": "2024-04-05", "lat": "35.21544", "lng": "126.884139", "operation_days": "239", "parking_name": "광신대학교 앞(운영종료)", "region2": "북구", "region3": "본촌동", "revenue_per_car_28d": "1257056.0", "state": "0", "utilization_rate": "37.7", "zone_id": "18374", "zone_name": "광신대학교 앞(운영종료)"}, {"address": "광주 북구 삼각동 809-8 삼각초등학교앞공영주차장", "first_date": "2023-01-01", "gp_per_car_28d": "165158.0", "hist_car_count": "1.0", "imaginary": "0", "last_date": "2023-07-10", "lat": "35.201227", "lng": "126.901081", "operation_days": "191", "parking_name": "삼각초등학교앞 공영주차장", "region2": "북구", "region3": "삼각동", "revenue_per_car_28d": "1342010.0", "state": "0", "utilization_rate": "33.5", "zone_id": "13487", "zone_name": "광주 삼각초등학교 앞(운영종료)"}, {"address": "광주 북구 신안동 8-6", "first_date": "2023-01-01", "gp_per_car_28d": "187658.0", "hist_car_count": "1.0", "imaginary": "0", "last_date": "2025-04-25", "lat": "35.161961", "lng": "126.905352", "operation_days": "846", "parking_name": "광주 오리요리거리(운영종료)", "region2": "북구", "region3": "신안동", "revenue_per_car_28d": "1268243.0", "state": "0", "utilization_rate": "31.2", "zone_id": "14743", "zone_name": "광주 오리요리거리(운영종료)"}, {"address": "광주 북구 풍향동 603-20", "first_date": "2024-04-03", "gp_per_car_28d": "-56331.0", "hist_car_count": "1.0", "imaginary": "0", "last_date": "2024-06-25", "lat": "35.164797", "lng": "126.920488", "operation_days": "77", "parking_name": "광주교대 인근(운영종료)", "region2": "북구", "region3": "풍향동", "revenue_per_car_28d": "893757.0", "state": "0", "utilization_rate": "20.0", "zone_id": "19191", "zone_name": "광주교대 인근(운영종료)"}, {"address": "광주 북구 두암동 566-8", "first_date": "2023-01-01", "gp_per_car_28d": "152742.0", "hist_car_count": "2.0", "imaginary": "0", "last_date": "2024-10-28", "lat": "35.178741", "lng": "126.928719", "operation_days": "667", "parking_name": "광주병원 앞(운영종료)", "region2": "북구", "region3": "두암동", "revenue_per_car_28d": "1329944.0", "state": "0", "utilization_rate": "33.0", "zone_id": "5336", "zone_name": "광주병원 앞(운영종료)"}, {"address": "광주 북구 신안동 2-10", "first_date": "2023-01-01", "gp_per_car_28d": "132814.0", "hist_car_count": "1.9", "imaginary": "0", "last_date": "2024-05-31", "lat": "35.163979", "lng": "126.907204", "operation_days": "507", "parking_name": "K주차장", "region2": "북구", "region3": "신안동", "revenue_per_car_28d": "1230680.0", "state": "0", "utilization_rate": "31.0", "zone_id": "5333", "zone_name": "광주역 교차로(운영종료)"}, {"address": "광주 북구 두암동 310-1 기산로얄타운", "first_date": "2025-08-06", "gp_per_car_28d": "-68006.0", "hist_car_count": "1.0", "imaginary": "0", "last_date": "2026-04-03", "lat": "35.165519", "lng": "126.932314", "operation_days": "231", "parking_name": "기산로얄타운아파트 상가", "region2": "북구", "region3": "두암동", "revenue_per_car_28d": "996628.0", "state": "1", "utilization_rate": "24.6", "zone_id": "22472", "zone_name": "기산로얄타운아파트 상가"}, {"address": "광주 북구 용두동 311-8 삼성디지털프라자양산점 다이소 주차장", "first_date": "2026-03-17", "gp_per_car_28d": "68360.0", "hist_car_count": "1.0", "imaginary": "0", "last_date": "2026-04-06", "lat": "35.212176", "lng": "126.870185", "operation_days": "21", "parking_name": "다이소 광주양산2호점", "region2": "북구", "region3": "용두동", "revenue_per_car_28d": "1124054.0", "state": "0", "utilization_rate": "27.3", "zone_id": "23091", "zone_name": "다이소 광주양산2호점"}, {"address": "광주 북구 일곡동 829-1 두경보석사우나", "first_date": "2023-01-01", "gp_per_car_28d": "199445.0", "hist_car_count": "2.3", "imaginary": "0", "last_date": "2026-04-03", "lat": "35.204939", "lng": "126.898682", "operation_days": "1189", "parking_name": "두경보석사우나", "region2": "북구", "region3": "일곡동", "revenue_per_car_28d": "1387635.0", "state": "1", "utilization_rate": "31.5", "zone_id": "14244", "zone_name": "두경보석사우나"}, {"address": "광주 북구 문흥동 996-5 지상 3층", "first_date": "2023-01-01", "gp_per_car_28d": "57865.0", "hist_car_count": "1.4", "imaginary": "0", "last_date": "2026-04-03", "lat": "35.186597", "lng": "126.922047", "operation_days": "1188", "parking_name": "롯데슈퍼 문흥점", "region2": "북구", "region3": "문흥동", "revenue_per_car_28d": "1164241.0", "state": "1", "utilization_rate": "25.9", "zone_id": "15532", "zone_name": "롯데슈퍼 문흥점"}, {"address": "광주 북구 우산동 230-1 북구우산생활체육관", "first_date": "2024-04-02", "gp_per_car_28d": "70768.0", "hist_car_count": "1.2", "imaginary": "0", "last_date": "2026-03-31", "lat": "35.175283", "lng": "126.925448", "operation_days": "641", "parking_name": "무등도서관 앞", "region2": "북구", "region3": "우산동", "revenue_per_car_28d": "1001663.0", "state": "1", "utilization_rate": "26.6", "zone_id": "19189", "zone_name": "무등도서관 앞"}, {"address": "광주 북구 매곡동 19-2", "first_date": "2023-01-01", "gp_per_car_28d": "202061.0", "hist_car_count": "1.0", "imaginary": "0", "last_date": "2025-06-19", "lat": "35.188603", "lng": "126.898713", "operation_days": "886", "parking_name": "북부경찰서 앞 교차로 (운영종료)", "region2": "북구", "region3": "매곡동", "revenue_per_car_28d": "1321277.0", "state": "0", "utilization_rate": "32.9", "zone_id": "7210", "zone_name": "북부경찰서 앞 교차로 (운영종료)"}, {"address": "광주 북구 오룡동 1119", "first_date": "2023-10-12", "gp_per_car_28d": "-59847.0", "hist_car_count": "1.1", "imaginary": "0", "last_date": "2024-11-20", "lat": "35.225955", "lng": "126.854106", "operation_days": "388", "parking_name": "삼성전자 광주 3캠퍼스(운영종료)", "region2": "북구", "region3": "오룡동", "revenue_per_car_28d": "668225.0", "state": "0", "utilization_rate": "19.6", "zone_id": "18476", "zone_name": "삼성전자 광주 3캠퍼스(운영종료)"}, {"address": "광주 북구 오치동 949-9 K1 볼링장 주차장", "first_date": "2026-03-14", "gp_per_car_28d": "-267921.0", "hist_car_count": "1.0", "imaginary": "0", "last_date": "2026-04-06", "lat": "35.187711", "lng": "126.90335", "operation_days": "24", "parking_name": "서산초등학교 뒤 K1 볼링장", "region2": "북구", "region3": "오치동", "revenue_per_car_28d": "574202.0", "state": "0", "utilization_rate": "19.6", "zone_id": "23090", "zone_name": "서산초등학교 뒤 K1 볼링장"}, {"address": "광주 북구 임동 887 S-클래스 더 제니스 지하주차장", "first_date": "2026-02-26", "gp_per_car_28d": "-45351.0", "hist_car_count": "1.0", "imaginary": "0", "last_date": "2026-04-03", "lat": "35.157354", "lng": "126.901871", "operation_days": "37", "parking_name": "에스클래스더제니스 오피스텔", "region2": "북구", "region3": "임동", "revenue_per_car_28d": "770248.0", "state": "1", "utilization_rate": "19.2", "zone_id": "23031", "zone_name": "에스클래스더제니스 오피스텔"}, {"address": "광주 북구 운암동 450-3", "first_date": "2023-01-01", "gp_per_car_28d": "120650.0", "hist_car_count": "1.3", "imaginary": "0", "last_date": "2026-04-03", "lat": "35.172972", "lng": "126.883809", "operation_days": "1169", "parking_name": "운암2동 주민센터 앞", "region2": "북구", "region3": "운암동", "revenue_per_car_28d": "1214202.0", "state": "1", "utilization_rate": "31.0", "zone_id": "9432", "zone_name": "운암2동 주민센터 앞"}, {"address": "광주 북구 운암동 1781 운암2차 남양휴튼 지하1층", "first_date": "2023-01-01", "gp_per_car_28d": "144287.0", "hist_car_count": "2.7", "imaginary": "0", "last_date": "2023-12-18", "lat": "35.178505", "lng": "126.877429", "operation_days": "352", "parking_name": "운암 남양휴튼2차상가 주차장", "region2": "북구", "region3": "운암동", "revenue_per_car_28d": "1358984.0", "state": "0", "utilization_rate": "28.0", "zone_id": "14659", "zone_name": "운암2차남양휴튼아파트(운영종료)"}, {"address": "광주 북구 중흥동 279-2 이마트24 전대후문점", "first_date": "2023-01-01", "gp_per_car_28d": "263614.0", "hist_car_count": "1.0", "imaginary": "0", "last_date": "2023-03-23", "lat": "35.174867", "lng": "126.914139", "operation_days": "82", "parking_name": "이마트24 전대후문점", "region2": "북구", "region3": "중흥동", "revenue_per_car_28d": "1431258.0", "state": "0", "utilization_rate": "39.3", "zone_id": "11755", "zone_name": "이마트24 전대후문점(운영종료)"}, {"address": "광주 북구 문흥동 738-8", "first_date": "2024-08-17", "gp_per_car_28d": "32554.0", "hist_car_count": "2.1", "imaginary": "0", "last_date": "2025-05-31", "lat": "35.177418", "lng": "126.916604", "operation_days": "288", "parking_name": "전남대 후문(꿈푸른빌)", "region2": "북구", "region3": "문흥동", "revenue_per_car_28d": "1096503.0", "state": "1", "utilization_rate": "24.4", "zone_id": "19831", "zone_name": "전남대 후문(꿈푸른빌)"}, {"address": "광주 북구 용봉동 151-44", "first_date": "2023-01-01", "gp_per_car_28d": "191645.0", "hist_car_count": "3.0", "imaginary": "0", "last_date": "2024-02-26", "lat": "35.177738", "lng": "126.912933", "operation_days": "422", "parking_name": "호산주차장", "region2": "북구", "region3": "용봉동", "revenue_per_car_28d": "1502023.0", "state": "0", "utilization_rate": "37.6", "zone_id": "1827", "zone_name": "전남대 후문(운영종료)"}, {"address": "광주 북구 중흥동 320-14", "first_date": "2023-01-01", "gp_per_car_28d": "107174.0", "hist_car_count": "1.1", "imaginary": "0", "last_date": "2024-11-08", "lat": "35.172134", "lng": "126.907089", "operation_days": "676", "parking_name": "전남대학교 정문 앞(운영종료)", "region2": "북구", "region3": "중흥동", "revenue_per_car_28d": "1143949.0", "state": "0", "utilization_rate": "34.0", "zone_id": "5030", "zone_name": "전남대학교 정문 앞(운영종료)"}, {"address": "광주 북구 용봉동 1378-1 아이파킹 주차장", "first_date": "2023-01-01", "gp_per_car_28d": "72558.0", "hist_car_count": "1.8", "imaginary": "0", "last_date": "2026-04-03", "lat": "35.179031", "lng": "126.894853", "operation_days": "1187", "parking_name": "전철우 사거리", "region2": "북구", "region3": "용봉동", "revenue_per_car_28d": "1357386.0", "state": "1", "utilization_rate": "34.5", "zone_id": "16019", "zone_name": "전철우 사거리"}, {"address": "광주 서구 풍암동 1106-2 유수빌딩(6층 풍암교당)", "first_date": "2024-07-06", "gp_per_car_28d": "41891.0", "hist_car_count": "1.0", "imaginary": "0", "last_date": "2024-10-31", "lat": "35.127004", "lng": "126.878371", "operation_days": "118", "parking_name": "KB국민은행 풍암점 옆", "region2": "서구", "region3": "풍암동", "revenue_per_car_28d": "954225.0", "state": "0", "utilization_rate": "17.4", "zone_id": "19629", "zone_name": "KB국민은행 풍암점 옆"}, {"address": "광주 서구 광천동 49-1", "first_date": "2023-11-04", "gp_per_car_28d": "-365668.0", "hist_car_count": "1.0", "imaginary": "0", "last_date": "2023-12-04", "lat": "35.16085", "lng": "126.87785", "operation_days": "31", "parking_name": "유스퀘어 터미널주차장", "region2": "서구", "region3": "광천동", "revenue_per_car_28d": "957614.0", "state": "0", "utilization_rate": "29.5", "zone_id": "18809", "zone_name": "[레이 EV] 유스퀘어"}, {"address": "광주 서구 양동 60-37 케이디비생명보험(주) 지하 5층", "first_date": "2023-01-01", "gp_per_car_28d": "115004.0", "hist_car_count": "1.0", "imaginary": "0", "last_date": "2023-08-31", "lat": "35.152005", "lng": "126.904861", "operation_days": "243", "parking_name": "KDB생명빌딩", "region2": "서구", "region3": "양동", "revenue_per_car_28d": "1194006.0", "state": "0", "utilization_rate": "30.0", "zone_id": "16083", "zone_name": "광주 KDB생명빌딩(운영종료)"}, {"address": "광주 서구 화정동 180-28 새우리병원", "first_date": "2024-07-06", "gp_per_car_28d": "1000.0", "hist_car_count": "1.0", "imaginary": "0", "last_date": "2024-09-19", "lat": "35.15361", "lng": "126.88139", "operation_days": "76", "parking_name": "광주 새우리병원(운영종료)", "region2": "서구", "region3": "화정동", "revenue_per_car_28d": "960626.0", "state": "0", "utilization_rate": "16.9", "zone_id": "19632", "zone_name": "광주 새우리병원(운영종료)"}, {"address": "광주 서구 광천동 896 호반 써밋 광주 상가주차장", "first_date": "2024-07-05", "gp_per_car_28d": "123436.0", "hist_car_count": "1.9", "imaginary": "0", "last_date": "2025-04-04", "lat": "35.162229", "lng": "126.880768", "operation_days": "274", "parking_name": "광주 호반써밋", "region2": "서구", "region3": "광천동", "revenue_per_car_28d": "1285528.0", "state": "0", "utilization_rate": "31.7", "zone_id": "19631", "zone_name": "광주 호반써밋"}, {"address": "광주 서구 화정동 305", "first_date": "2023-01-01", "gp_per_car_28d": "241481.0", "hist_car_count": "1.5", "imaginary": "0", "last_date": "2023-04-25", "lat": "35.151492", "lng": "126.874902", "operation_days": "115", "parking_name": "LK메디피아", "region2": "서구", "region3": "화정동", "revenue_per_car_28d": "1456698.0", "state": "0", "utilization_rate": "37.3", "zone_id": "14838", "zone_name": "광주 화정역 2번출구(운영종료)"}, {"address": "광주 서구 화정동 769-15 THE H PARKING", "first_date": "2023-01-01", "gp_per_car_28d": "149915.0", "hist_car_count": "1.2", "imaginary": "0", "last_date": "2026-01-03", "lat": "35.152151", "lng": "126.879312", "operation_days": "1099", "parking_name": "광주 화정역1번출구", "region2": "서구", "region3": "화정동", "revenue_per_car_28d": "1300977.0", "state": "1", "utilization_rate": "35.3", "zone_id": "14128", "zone_name": "광주 화정역1번출구"}, {"address": "광주 서구 풍암동 1116 현인빌딩 지상 4층", "first_date": "2024-07-13", "gp_per_car_28d": "143535.0", "hist_car_count": "1.0", "imaginary": "0", "last_date": "2024-11-04", "lat": "35.126675", "lng": "126.87912", "operation_days": "115", "parking_name": "광주은행 풍암동지점 앞", "region2": "서구", "region3": "풍암동", "revenue_per_car_28d": "1331840.0", "state": "0", "utilization_rate": "29.5", "zone_id": "1200", "zone_name": "광주은행 풍암동지점 앞"}, {"address": "광주광역시 서구 화정동 1705", "first_date": "2023-06-02", "gp_per_car_28d": "168797.0", "hist_car_count": "1.0", "imaginary": "0", "last_date": "2026-03-31", "lat": "35.148659", "lng": "126.877245", "operation_days": "140", "parking_name": "광주중앙교회 앞", "region2": "서구", "region3": "화정동", "revenue_per_car_28d": "1228748.0", "state": "0", "utilization_rate": "25.2", "zone_id": "17471", "zone_name": "광주중앙교회 앞"}, {"address": "광주 서구 유촌동 846", "first_date": "2023-01-01", "gp_per_car_28d": "156369.0", "hist_car_count": "1.0", "imaginary": "0", "last_date": "2025-01-13", "lat": "35.164708", "lng": "126.856603", "operation_days": "744", "parking_name": "극락초등학교 앞", "region2": "서구", "region3": "유촌동", "revenue_per_car_28d": "1256834.0", "state": "0", "utilization_rate": "30.4", "zone_id": "16890", "zone_name": "극락초등학교 앞"}, {"address": "광주광역시 서구 금호동 764", "first_date": "2023-06-02", "gp_per_car_28d": "-72534.0", "hist_car_count": "1.4", "imaginary": "0", "last_date": "2023-09-18", "lat": "35.132424", "lng": "126.857342", "operation_days": "101", "parking_name": "금호동 공영주차장", "region2": "서구", "region3": "금호동", "revenue_per_car_28d": "866432.0", "state": "0", "utilization_rate": "17.3", "zone_id": "17472", "zone_name": "금호동 먹자골목(운영종료)"}, {"address": "광주 서구 화정동 178-48", "first_date": "2025-09-11", "gp_per_car_28d": "71230.0", "hist_car_count": "1.0", "imaginary": "0", "last_date": "2026-03-31", "lat": "35.15537", "lng": "126.882791", "operation_days": "201", "parking_name": "농성역 5번출구", "region2": "서구", "region3": "화정동", "revenue_per_car_28d": "1088965.0", "state": "1", "utilization_rate": "25.9", "zone_id": "22590", "zone_name": "농성역 5번출구"}, {"address": "광주 서구 동천동 599", "first_date": "2023-01-01", "gp_per_car_28d": "30689.0", "hist_car_count": "1.0", "imaginary": "0", "last_date": "2023-03-30", "lat": "35.171197", "lng": "126.866681", "operation_days": "89", "parking_name": "동림헬스사우나 주차장", "region2": "서구", "region3": "동천동", "revenue_per_car_28d": "1242461.0", "state": "0", "utilization_rate": "34.2", "zone_id": "14852", "zone_name": "동천호반베르디움아파트 앞(운영종료)"}, {"address": "광주 서구 치평동 1249 상무광명메이루즈 상가주차장", "first_date": "2023-01-01", "gp_per_car_28d": "377493.0", "hist_car_count": "2.3", "imaginary": "0", "last_date": "2025-09-23", "lat": "35.150877", "lng": "126.850862", "operation_days": "883", "parking_name": "상무 광명메이루즈", "region2": "서구", "region3": "치평동", "revenue_per_car_28d": "1675962.0", "state": "0", "utilization_rate": "36.3", "zone_id": "15207", "zone_name": "상무 광명메이루즈"}, {"address": "광주 서구 치평동 1258-6", "first_date": "2023-01-01", "gp_per_car_28d": "201180.0", "hist_car_count": "3.1", "imaginary": "0", "last_date": "2023-09-22", "lat": "35.149559", "lng": "126.850609", "operation_days": "265", "parking_name": "스마일주차빌딩", "region2": "서구", "region3": "치평동", "revenue_per_car_28d": "1566117.0", "state": "0", "utilization_rate": "35.0", "zone_id": "3259", "zone_name": "상무역 5번출구(운영종료)"}, {"address": "광주 서구 치평동 1192", "first_date": "2023-05-02", "gp_per_car_28d": "15504.0", "hist_car_count": "1.7", "imaginary": "0", "last_date": "2023-09-18", "lat": "35.159842", "lng": "126.846542", "operation_days": "140", "parking_name": "느티나무공원 주차장", "region2": "서구", "region3": "치평동", "revenue_per_car_28d": "917877.0", "state": "0", "utilization_rate": "21.3", "zone_id": "17302", "zone_name": "상무지구 먹자골목(운영종료)"}, {"address": "광주 서구 유촌동 856-4", "first_date": "2026-03-27", "gp_per_car_28d": "132805.0", "hist_car_count": "1.0", "imaginary": "0", "last_date": "2026-04-06", "lat": "35.164755", "lng": "126.858784", "operation_days": "11", "parking_name": "유덕중학교 앞", "region2": "서구", "region3": "유촌동", "revenue_per_car_28d": "1223476.0", "state": "0", "utilization_rate": "23.1", "zone_id": "23132", "zone_name": "유덕중학교 앞"}, {"address": "광주 서구 치평동 1181 삼성리더스빌", "first_date": "2026-03-27", "gp_per_car_28d": "40953.0", "hist_car_count": "1.0", "imaginary": "0", "last_date": "2026-03-31", "lat": "35.152585", "lng": "126.847784", "operation_days": "5", "parking_name": "치평동우체국 앞", "region2": "서구", "region3": "치평동", "revenue_per_car_28d": "860614.0", "state": "0", "utilization_rate": "16.3", "zone_id": "23131", "zone_name": "치평동우체국 앞"}, {"address": "광주 서구 풍암동 1021", "first_date": "2025-11-01", "gp_per_car_28d": "18056.0", "hist_car_count": "1.0", "imaginary": "0", "last_date": "2026-01-16", "lat": "35.124946", "lng": "126.869482", "operation_days": "77", "parking_name": "풍암호수 앞", "region2": "서구", "region3": "풍암동", "revenue_per_car_28d": "943168.0", "state": "1", "utilization_rate": "23.3", "zone_id": "22731", "zone_name": "풍암호수 앞"}, {"address": "광주 서구 쌍촌동 531-5", "first_date": "2026-03-01", "gp_per_car_28d": "-250036.0", "hist_car_count": "1.0", "imaginary": "0", "last_date": "2026-03-31", "lat": "35.147738", "lng": "126.86134", "operation_days": "31", "parking_name": "효사어린이공원", "region2": "서구", "region3": "쌍촌동", "revenue_per_car_28d": "453995.0", "state": "0", "utilization_rate": "9.0", "zone_id": "23036", "zone_name": "효사어린이공원"}, {"address": "전남 순천시 연향동 1326-2 BYC", "first_date": "2024-07-05", "gp_per_car_28d": "97767.0", "hist_car_count": "1.0", "imaginary": "0", "last_date": "2025-04-18", "lat": "34.952488", "lng": "127.519682", "operation_days": "288", "parking_name": "BYC 순천사옥", "region2": "순천시", "region3": "연향동", "revenue_per_car_28d": "1159289.0", "state": "0", "utilization_rate": "27.3", "zone_id": "19623", "zone_name": "BYC 순천사옥"}, {"address": "전남 순천시 덕암동 188-100 순천역", "first_date": "2023-10-12", "gp_per_car_28d": "-338526.0", "hist_car_count": "1.0", "imaginary": "0", "last_date": "2023-10-12", "lat": "34.945646", "lng": "127.503189", "operation_days": "1", "parking_name": "TOUR_순천역", "region2": "순천시", "region3": "덕암동", "revenue_per_car_28d": "697452.0", "state": "0", "utilization_rate": "10.4", "zone_id": "11672", "zone_name": "TOUR_순천역"}, {"address": "전남 순천시 조례동 541-2", "first_date": "2023-01-01", "gp_per_car_28d": "156855.0", "hist_car_count": "1.7", "imaginary": "0", "last_date": "2023-12-06", "lat": "34.960213", "lng": "127.525956", "operation_days": "340", "parking_name": "근로복지공단순천병원 옆", "region2": "순천시", "region3": "조례동", "revenue_per_car_28d": "1192710.0", "state": "0", "utilization_rate": "34.4", "zone_id": "14828", "zone_name": "근로복지공단순천병원 옆"}, {"address": "전남 순천시 연향동 419-16", "first_date": "2023-01-02", "gp_per_car_28d": "69630.0", "hist_car_count": "1.0", "imaginary": "0", "last_date": "2023-10-30", "lat": "34.944069", "lng": "127.513267", "operation_days": "302", "parking_name": "롯데 하이마트 연향점", "region2": "순천시", "region3": "연향동", "revenue_per_car_28d": "1032810.0", "state": "0", "utilization_rate": "31.3", "zone_id": "16742", "zone_name": "롯데 하이마트 연향점"}, {"address": "전남 순천시 조례동 521-1 하이마트", "first_date": "2023-01-01", "gp_per_car_28d": "182425.0", "hist_car_count": "1.0", "imaginary": "0", "last_date": "2025-04-04", "lat": "34.958922", "lng": "127.521922", "operation_days": "825", "parking_name": "롯데 하이마트 조례점", "region2": "순천시", "region3": "조례동", "revenue_per_car_28d": "1173629.0", "state": "0", "utilization_rate": "35.6", "zone_id": "16741", "zone_name": "롯데 하이마트 조례점"}, {"address": "전남 순천시 장천동 54-3", "first_date": "2023-01-01", "gp_per_car_28d": "-74410.0", "hist_car_count": "1.0", "imaginary": "0", "last_date": "2023-03-14", "lat": "34.9507", "lng": "127.48671", "operation_days": "73", "parking_name": "카카오 T 장천동", "region2": "순천시", "region3": "장천동", "revenue_per_car_28d": "759104.0", "state": "0", "utilization_rate": "14.9", "zone_id": "16364", "zone_name": "삼성디지털프라자 시청점"}, {"address": "전남 순천시 석현동 313", "first_date": "2023-01-01", "gp_per_car_28d": "224216.0", "hist_car_count": "1.0", "imaginary": "0", "last_date": "2026-02-05", "lat": "34.968765", "lng": "127.480686", "operation_days": "1107", "parking_name": "순천대 약학대학", "region2": "순천시", "region3": "석현동", "revenue_per_car_28d": "1257276.0", "state": "1", "utilization_rate": "34.4", "zone_id": "7427", "zone_name": "순천대 약학대학"}, {"address": "전남 순천시 연향동 1344", "first_date": "2023-01-01", "gp_per_car_28d": "101437.0", "hist_car_count": "1.0", "imaginary": "0", "last_date": "2025-06-30", "lat": "34.950084", "lng": "127.520191", "operation_days": "912", "parking_name": "순천동부 상설시장 앞", "region2": "순천시", "region3": "연향동", "revenue_per_car_28d": "1067536.0", "state": "0", "utilization_rate": "35.3", "zone_id": "9086", "zone_name": "순천동부 상설시장 앞"}, {"address": "전라남도 순천시 조례동 1708-5", "first_date": "2024-07-05", "gp_per_car_28d": "69301.0", "hist_car_count": "1.0", "imaginary": "0", "last_date": "2025-02-28", "lat": "34.953597", "lng": "127.516479", "operation_days": "239", "parking_name": "순천동산중학교 옆(운영종료)", "region2": "순천시", "region3": "조례동", "revenue_per_car_28d": "1140053.0", "state": "0", "utilization_rate": "23.1", "zone_id": "19621", "zone_name": "순천동산중학교 옆(운영종료)"}, {"address": "전남 순천시 매곡동 115-13", "first_date": "2023-01-01", "gp_per_car_28d": "230219.0", "hist_car_count": "3.5", "imaginary": "0", "last_date": "2025-11-11", "lat": "34.959499", "lng": "127.483788", "operation_days": "1046", "parking_name": "순천북부정류소 앞", "region2": "순천시", "region3": "매곡동", "revenue_per_car_28d": "1360107.0", "state": "0", "utilization_rate": "31.7", "zone_id": "6014", "zone_name": "순천북부정류소 앞"}, {"address": "전남 순천시 풍덕동 880-22", "first_date": "2023-01-01", "gp_per_car_28d": "164849.0", "hist_car_count": "1.0", "imaginary": "0", "last_date": "2024-02-21", "lat": "34.945283", "lng": "127.499675", "operation_days": "417", "parking_name": "터틀장모텔 주차장", "region2": "순천시", "region3": "풍덕동", "revenue_per_car_28d": "1258417.0", "state": "0", "utilization_rate": "34.7", "zone_id": "8894", "zone_name": "순천역 정원요양병원 옆(KTX)"}, {"address": "전남 순천시 장천동 18-35", "first_date": "2025-01-04", "gp_per_car_28d": "-68464.0", "hist_car_count": "1.0", "imaginary": "0", "last_date": "2025-11-20", "lat": "34.948052", "lng": "127.491255", "operation_days": "321", "parking_name": "순천종합버스터미널(전기차)", "region2": "순천시", "region3": "장천동", "revenue_per_car_28d": "1163304.0", "state": "0", "utilization_rate": "40.2", "zone_id": "20351", "zone_name": "순천종합버스터미널(전기차)"}, {"address": "전남 순천시 해룡면 신대리 1975", "first_date": "2024-12-18", "gp_per_car_28d": "-182760.0", "hist_car_count": "1.6", "imaginary": "0", "last_date": "2025-03-28", "lat": "34.935661", "lng": "127.547526", "operation_days": "101", "parking_name": "신대 중흥S클래스 7차 앞", "region2": "순천시", "region3": "해룡면", "revenue_per_car_28d": "670028.0", "state": "0", "utilization_rate": "16.4", "zone_id": "20280", "zone_name": "신대 중흥S클래스 7차 앞"}, {"address": "전남 순천시 해룡면 신대리 1973", "first_date": "2024-07-12", "gp_per_car_28d": "-72687.0", "hist_car_count": "1.9", "imaginary": "0", "last_date": "2025-03-20", "lat": "34.935089", "lng": "127.546417", "operation_days": "248", "parking_name": "신대리 나이스파크 주차장", "region2": "순천시", "region3": "해룡면", "revenue_per_car_28d": "773786.0", "state": "1", "utilization_rate": "22.1", "zone_id": "19620", "zone_name": "신대리 나이스파크 주차장"}, {"address": "전남 순천시 조례동 1594 워터피아", "first_date": "2023-01-01", "gp_per_car_28d": "164728.0", "hist_car_count": "3.1", "imaginary": "0", "last_date": "2025-04-18", "lat": "34.953891", "lng": "127.522595", "operation_days": "839", "parking_name": "에코그라드호텔 뒤", "region2": "순천시", "region3": "조례동", "revenue_per_car_28d": "1198117.0", "state": "0", "utilization_rate": "34.6", "zone_id": "14934", "zone_name": "에코그라드호텔 뒤"}, {"address": "전남 순천시 연향동 1669-8 더조은빌", "first_date": "2023-08-25", "gp_per_car_28d": "174077.0", "hist_car_count": "1.5", "imaginary": "0", "last_date": "2025-04-18", "lat": "34.93358", "lng": "127.514937", "operation_days": "603", "parking_name": "연향3 어린이공원 옆", "region2": "순천시", "region3": "연향동", "revenue_per_car_28d": "1151658.0", "state": "0", "utilization_rate": "32.7", "zone_id": "18451", "zone_name": "연향3 어린이공원 옆"}, {"address": "전남 순천시 오천동 961-5", "first_date": "2023-01-01", "gp_per_car_28d": "181771.0", "hist_car_count": "1.0", "imaginary": "0", "last_date": "2025-11-27", "lat": "34.934506", "lng": "127.495408", "operation_days": "1062", "parking_name": "오천지구 지에이그린웰 아파트 앞", "region2": "순천시", "region3": "오천동", "revenue_per_car_28d": "1091338.0", "state": "1", "utilization_rate": "34.2", "zone_id": "10663", "zone_name": "오천지구 지에이그린웰 아파트 앞"}, {"address": "전남 순천시 연향동 417-4", "first_date": "2023-01-01", "gp_per_car_28d": "145067.0", "hist_car_count": "1.1", "imaginary": "0", "last_date": "2025-11-11", "lat": "34.945683", "lng": "127.514313", "operation_days": "864", "parking_name": "전자랜드 순천점", "region2": "순천시", "region3": "연향동", "revenue_per_car_28d": "1074841.0", "state": "0", "utilization_rate": "32.3", "zone_id": "4512", "zone_name": "전자랜드 순천점"}, {"address": "전남 순천시 해룡면 신대리 1973", "first_date": "2023-01-01", "gp_per_car_28d": "312205.0", "hist_car_count": "3.0", "imaginary": "0", "last_date": "2023-11-30", "lat": "34.935016", "lng": "127.54658", "operation_days": "334", "parking_name": "쿠우쿠우 순천점 옆", "region2": "순천시", "region3": "해룡면", "revenue_per_car_28d": "1440444.0", "state": "0", "utilization_rate": "36.9", "zone_id": "10751", "zone_name": "쿠우쿠우 순천점 옆"}, {"address": "전남 여수시 오림동 500-2", "first_date": "2023-09-13", "gp_per_car_28d": "-6894.0", "hist_car_count": "1.0", "imaginary": "0", "last_date": "2023-12-15", "lat": "34.760058", "lng": "127.710572", "operation_days": "94", "parking_name": "김대중타이어", "region2": "여수시", "region3": "오림동", "revenue_per_car_28d": "927508.0", "state": "0", "utilization_rate": "34.4", "zone_id": "18554", "zone_name": "TTS 김대중타이어점"}, {"address": "전남 여수시 국동 37-16 롯데마트", "first_date": "2023-01-01", "gp_per_car_28d": "183136.0", "hist_car_count": "1.2", "imaginary": "0", "last_date": "2025-11-12", "lat": "34.728804", "lng": "127.720784", "operation_days": "1017", "parking_name": "롯데마트 여수점", "region2": "여수시", "region3": "국동", "revenue_per_car_28d": "1028192.0", "state": "1", "utilization_rate": "30.4", "zone_id": "14307", "zone_name": "롯데마트 여수점"}, {"address": "전남 여수시 화장동 860-3", "first_date": "2023-01-01", "gp_per_car_28d": "318244.0", "hist_car_count": "1.6", "imaginary": "0", "last_date": "2023-08-23", "lat": "34.775337", "lng": "127.643091", "operation_days": "235", "parking_name": "여수시 공영주차장", "region2": "여수시", "region3": "화장동", "revenue_per_car_28d": "1325564.0", "state": "0", "utilization_rate": "40.2", "zone_id": "14155", "zone_name": "무선중학교 앞"}, {"address": "전남 여수시 화장동 886-1", "first_date": "2023-01-01", "gp_per_car_28d": "238995.0", "hist_car_count": "1.5", "imaginary": "0", "last_date": "2023-08-29", "lat": "34.773159", "lng": "127.640676", "operation_days": "241", "parking_name": "성산공원 옆 공영주차장", "region2": "여수시", "region3": "화장동", "revenue_per_car_28d": "1156871.0", "state": "0", "utilization_rate": "35.1", "zone_id": "13988", "zone_name": "성산공원 옆"}, {"address": "전남 여수시 문수동 128-3", "first_date": "2023-06-23", "gp_per_car_28d": "177357.0", "hist_car_count": "1.0", "imaginary": "0", "last_date": "2026-04-03", "lat": "34.75251", "lng": "127.701662", "operation_days": "1016", "parking_name": "여수 문수중학교 옆", "region2": "여수시", "region3": "문수동", "revenue_per_car_28d": "1119603.0", "state": "1", "utilization_rate": "35.7", "zone_id": "17690", "zone_name": "여수 문수중학교 옆"}, {"address": "전남 여수시 돌산읍 평사리 1395-93", "first_date": "2024-01-16", "gp_per_car_28d": "-38113.0", "hist_car_count": "1.1", "imaginary": "0", "last_date": "2025-01-20", "lat": "34.698564", "lng": "127.759145", "operation_days": "371", "parking_name": "여수 시메르리조트", "region2": "여수시", "region3": "돌산읍", "revenue_per_car_28d": "588880.0", "state": "0", "utilization_rate": "19.8", "zone_id": "19013", "zone_name": "여수 시메르리조트"}, {"address": "전남 여수시 소호동 1202-2", "first_date": "2023-06-23", "gp_per_car_28d": "79895.0", "hist_car_count": "1.0", "imaginary": "0", "last_date": "2023-12-10", "lat": "34.748103", "lng": "127.656286", "operation_days": "171", "parking_name": "라희 전용 주차장", "region2": "여수시", "region3": "소호동", "revenue_per_car_28d": "1053746.0", "state": "0", "utilization_rate": "29.0", "zone_id": "17691", "zone_name": "여수 항호공원 옆"}, {"address": "전남 여수시 학동 67-15", "first_date": "2024-04-05", "gp_per_car_28d": "111603.0", "hist_car_count": "1.0", "imaginary": "0", "last_date": "2024-09-04", "lat": "34.761293", "lng": "127.659898", "operation_days": "153", "parking_name": "여수시립 쌍봉도서관 옆", "region2": "여수시", "region3": "학동", "revenue_per_car_28d": "970411.0", "state": "0", "utilization_rate": "37.2", "zone_id": "19236", "zone_name": "여수시립 쌍봉도서관 옆"}, {"address": "전남 여수시 학동 179", "first_date": "2023-04-20", "gp_per_car_28d": "-519750.0", "hist_car_count": "1.0", "imaginary": "0", "last_date": "2023-04-24", "lat": "34.757641", "lng": "127.665062", "operation_days": "5", "parking_name": "여수엑스포(운영종료)", "region2": "여수시", "region3": "학동", "revenue_per_car_28d": "108284.0", "state": "0", "utilization_rate": "5.0", "zone_id": "111", "zone_name": "여수엑스포(운영종료)"}, {"address": "전남 여수시 종화동 458", "first_date": "2023-01-01", "gp_per_car_28d": "171940.0", "hist_car_count": "2.0", "imaginary": "0", "last_date": "2023-11-06", "lat": "34.737543", "lng": "127.747077", "operation_days": "310", "parking_name": "여수해양공원 옆", "region2": "여수시", "region3": "종화동", "revenue_per_car_28d": "1067142.0", "state": "0", "utilization_rate": "32.8", "zone_id": "1970", "zone_name": "여수해양공원 옆"}, {"address": "전남 여수시 화장동 786-1", "first_date": "2023-01-01", "gp_per_car_28d": "337070.0", "hist_car_count": "1.0", "imaginary": "0", "last_date": "2023-08-26", "lat": "34.777547", "lng": "127.647751", "operation_days": "238", "parking_name": "여수시 공영주차장", "region2": "여수시", "region3": "화장동", "revenue_per_car_28d": "1190585.0", "state": "0", "utilization_rate": "37.0", "zone_id": "14068", "zone_name": "여천 시외버스정류장 옆"}, {"address": "전남 여수시 여천동 903-27", "first_date": "2023-01-01", "gp_per_car_28d": "393955.0", "hist_car_count": "3.4", "imaginary": "0", "last_date": "2023-06-01", "lat": "34.779004", "lng": "127.663569", "operation_days": "152", "parking_name": "여천역 제1주차장", "region2": "여수시", "region3": "여천동", "revenue_per_car_28d": "1234972.0", "state": "0", "utilization_rate": "39.7", "zone_id": "10146", "zone_name": "여천역 제1주차장(KTX)"}, {"address": "전남 여수시 여천동 903-19 여천역 제2주차장", "first_date": "2023-01-01", "gp_per_car_28d": "210282.0", "hist_car_count": "3.0", "imaginary": "0", "last_date": "2023-05-31", "lat": "34.779004", "lng": "127.663569", "operation_days": "151", "parking_name": "여천역 제2주차장", "region2": "여수시", "region3": "여천동", "revenue_per_car_28d": "998335.0", "state": "0", "utilization_rate": "42.6", "zone_id": "6532", "zone_name": "여천역 제2주차장(KTX)"}, {"address": "전남 여수시 웅천동 1883-11 웅천 해변공원1 주차장", "first_date": "2026-02-02", "gp_per_car_28d": "-134467.0", "hist_car_count": "1.0", "imaginary": "0", "last_date": "2026-03-27", "lat": "34.739915", "lng": "127.67662", "operation_days": "54", "parking_name": "웅천 해변공원1", "region2": "여수시", "region3": "웅천동", "revenue_per_car_28d": "917445.0", "state": "1", "utilization_rate": "24.6", "zone_id": "22941", "zone_name": "웅천 해변공원1"}, {"address": "전남 여수시 웅천동 1691", "first_date": "2026-02-02", "gp_per_car_28d": "-100516.0", "hist_car_count": "1.0", "imaginary": "0", "last_date": "2026-03-27", "lat": "34.747915", "lng": "127.668883", "operation_days": "53", "parking_name": "웅천친수공원", "region2": "여수시", "region3": "웅천동", "revenue_per_car_28d": "734664.0", "state": "1", "utilization_rate": "15.9", "zone_id": "22940", "zone_name": "웅천친수공원"}, {"address": "전남 여수시 둔덕동 산96-1", "first_date": "2023-01-01", "gp_per_car_28d": "146873.0", "hist_car_count": "2.2", "imaginary": "0", "last_date": "2025-04-06", "lat": "34.772929", "lng": "127.698792", "operation_days": "818", "parking_name": "전남대(여수) 학생회관 옆", "region2": "여수시", "region3": "둔덕동", "revenue_per_car_28d": "1010844.0", "state": "0", "utilization_rate": "31.9", "zone_id": "7117", "zone_name": "전남대(여수) 학생회관 옆"}, {"address": "전남 여수시 소라면 죽림리 1189", "first_date": "2023-01-01", "gp_per_car_28d": "224676.0", "hist_car_count": "1.0", "imaginary": "0", "last_date": "2023-08-22", "lat": "34.764169", "lng": "127.637745", "operation_days": "234", "parking_name": "죽림2공원 앞 공영주차장", "region2": "여수시", "region3": "소라면", "revenue_per_car_28d": "1396504.0", "state": "0", "utilization_rate": "40.6", "zone_id": "14001", "zone_name": "죽림2공원 앞"}, {"address": "전남 여수시 충무동 502-1", "first_date": "2024-07-27", "gp_per_car_28d": "389857.0", "hist_car_count": "1.0", "imaginary": "0", "last_date": "2025-07-02", "lat": "34.741282", "lng": "127.731641", "operation_days": "341", "parking_name": "호텔케니 여수", "region2": "여수시", "region3": "충무동", "revenue_per_car_28d": "1358665.0", "state": "1", "utilization_rate": "31.1", "zone_id": "19779", "zone_name": "호텔케니 여수"}, {"address": "전남 여수시 충무동 252-1 호텔케니여수 야외주차장", "first_date": "2023-02-08", "gp_per_car_28d": "282140.0", "hist_car_count": "1.0", "imaginary": "0", "last_date": "2025-10-29", "lat": "34.742479", "lng": "127.73186", "operation_days": "733", "parking_name": "호텔케니 여수 야외주차장", "region2": "여수시", "region3": "충무동", "revenue_per_car_28d": "1326457.0", "state": "0", "utilization_rate": "35.6", "zone_id": "17013", "zone_name": "호텔케니 여수 야외주차장"}, {"address": "전남 영암군 영암읍 역리 344-1", "first_date": "2024-05-09", "gp_per_car_28d": "-41078.0", "hist_car_count": "1.8", "imaginary": "0", "last_date": "2025-03-14", "lat": "34.805369", "lng": "126.697635", "operation_days": "310", "parking_name": "영암군 청년마을 주차장", "region2": "영암군", "region3": "영암읍", "revenue_per_car_28d": "587190.0", "state": "0", "utilization_rate": "10.6", "zone_id": "19364", "zone_name": "영암군 청년마을 주차장"}, {"address": "전남 화순군 화순읍 삼천리 718 하이마트", "first_date": "2023-01-04", "gp_per_car_28d": "282396.0", "hist_car_count": "1.5", "imaginary": "0", "last_date": "2024-11-05", "lat": "35.057789", "lng": "126.981978", "operation_days": "672", "parking_name": "롯데 하이마트 화순점", "region2": "화순군", "region3": "화순읍", "revenue_per_car_28d": "1417236.0", "state": "0", "utilization_rate": "32.8", "zone_id": "16756", "zone_name": "롯데 하이마트 화순점"}]