[{"lat": 35.167, "lng": 126.863, "access_count": 2639, "reservation_count": 0, "nearest_zone_km": 0.83, "name": "광주광역시 서구 유덕동"}, {"lat": 35.14, "lng": 126.811, "access_count": 2430, "reservation_count": 5, "nearest_zone_km": 1.43, "name": "광주광역시 광산구 신흥동"}, {"lat": 35.122, "lng": 126.932, "access_count": 1837, "reservation_count": 0, "nearest_zone_km": 1.14, "name": "광주광역시 동구"}, {"lat": 35.184, "lng": 126.871, "access_count": 1740, "reservation_count": 0, "nearest_zone_km": 0.92, "name": "광주광역시 북구 동림동"}, {"lat": 35.162, "lng": 126.897, "access_count": 1534, "reservation_count": 0, "nearest_zone_km": 0.87, "name": "광주광역시 북구 임동"}, {"lat": 35.14, "lng": 126.81, "access_count": 941, "reservation_count": 2, "nearest_zone_km": 1.34, "name": "광주광역시 광산구 신흥동"}, {"lat": 35.141, "lng": 126.81, "access_count": 910, "reservation_count": 0, "nearest_zone_km": 1.31, "name": "광주광역시 광산구 신흥동"}, {"lat": 35.185, "lng": 126.871, "access_count": 728, "reservation_count": 2, "nearest_zone_km": 1.0, "name": "광주광역시 북구 운암동"}, {"lat": 34.82, "lng": 126.39, "access_count": 700, "reservation_count": 1, "nearest_zone_km": 2.61, "name": "목포시 연산동"}, {"lat": 35.165, "lng": 126.859, "access_count": 577, "reservation_count": 2, "nearest_zone_km": 1.07, "name": "광주광역시 서구 유덕동"}, {"lat": 34.935, "lng": 127.495, "access_count": 553, "reservation_count": 0, "nearest_zone_km": 1.16, "name": "순천시 오천동"}, {"lat": 34.819, "lng": 126.39, "access_count": 376, "reservation_count": 0, "nearest_zone_km": 2.58, "name": "목포시 연산동"}, {"lat": 34.977, "lng": 126.474, "access_count": 370, "reservation_count": 0, "nearest_zone_km": 8.08, "name": "무안군 성남리"}, {"lat": 35.141, "lng": 126.811, "access_count": 343, "reservation_count": 1, "nearest_zone_km": 1.4, "name": "광주광역시 광산구 신흥동"}, {"lat": 35.129, "lng": 126.888, "access_count": 339, "reservation_count": 0, "nearest_zone_km": 0.84, "name": "광주광역시 남구"}, {"lat": 35.166, "lng": 126.86, "access_count": 306, "reservation_count": 3, "nearest_zone_km": 1.11, "name": "광주광역시 서구 유덕동"}, {"lat": 35.167, "lng": 126.862, "access_count": 275, "reservation_count": 1, "nearest_zone_km": 0.9, "name": "광주광역시 서구 유덕동"}, {"lat": 35.123, "lng": 126.932, "access_count": 256, "reservation_count": 0, "nearest_zone_km": 1.03, "name": "광주광역시 동구 소태동"}, {"lat": 35.14, "lng": 126.809, "access_count": 231, "reservation_count": 0, "nearest_zone_km": 1.25, "name": "광주광역시 광산구 신흥동"}, {"lat": 35.141, "lng": 126.809, "access_count": 220, "reservation_count": 0, "nearest_zone_km": 1.22, "name": "광주광역시 광산구 신흥동"}, {"lat": 35.144, "lng": 126.811, "access_count": 218, "reservation_count": 2, "nearest_zone_km": 1.37, "name": "광주광역시 광산구 신흥동"}, {"lat": 35.164, "lng": 126.862, "access_count": 214, "reservation_count": 1, "nearest_zone_km": 0.91, "name": "광주광역시 서구 유덕동"}, {"lat": 35.142, "lng": 126.81, "access_count": 203, "reservation_count": 0, "nearest_zone_km": 1.29, "name": "광주광역시 광산구 신흥동"}, {"lat": 35.184, "lng": 126.872, "access_count": 202, "reservation_count": 1, "nearest_zone_km": 0.86, "name": "광주광역시 북구"}, {"lat": 35.139, "lng": 126.81, "access_count": 200, "reservation_count": 1, "nearest_zone_km": 1.38, "name": "광주광역시 광산구 신흥동"}, {"lat": 35.142, "lng": 126.811, "access_count": 192, "reservation_count": 0, "nearest_zone_km": 1.38, "name": "광주광역시 광산구 신흥동"}, {"lat": 35.139, "lng": 126.809, "access_count": 190, "reservation_count": 0, "nearest_zone_km": 1.29, "name": "광주광역시 광산구 신흥동"}, {"lat": 35.199, "lng": 126.818, "access_count": 173, "reservation_count": 0, "nearest_zone_km": 0.99, "name": "광주광역시 광산구 수완동"}, {"lat": 35.163, "lng": 126.897, "access_count": 166, "reservation_count": 0, "nearest_zone_km": 0.89, "name": "광주광역시 북구 임동"}, {"lat": 34.934, "lng": 127.495, "access_count": 164, "reservation_count": 0, "nearest_zone_km": 1.25, "name": "순천시 오천동"}, {"lat": 35.144, "lng": 126.81, "access_count": 155, "reservation_count": 0, "nearest_zone_km": 1.28, "name": "광주광역시 광산구 신흥동"}, {"lat": 35.122, "lng": 126.933, "access_count": 144, "reservation_count": 0, "nearest_zone_km": 1.16, "name": "광주광역시 동구 소태동"}, {"lat": 35.166, "lng": 126.862, "access_count": 141, "reservation_count": 1, "nearest_zone_km": 0.97, "name": "광주광역시 서구 유덕동"}, {"lat": 34.78, "lng": 126.382, "access_count": 139, "reservation_count": 0, "nearest_zone_km": 1.08, "name": "목포시 만호동 해안동1가"}, {"lat": 35.171, "lng": 126.807, "access_count": 138, "reservation_count": 1, "nearest_zone_km": 0.82, "name": "광주광역시 광산구 월곡2동"}, {"lat": 35.143, "lng": 126.811, "access_count": 138, "reservation_count": 0, "nearest_zone_km": 1.37, "name": "광주광역시 광산구 신흥동"}, {"lat": 35.207, "lng": 127.468, "access_count": 137, "reservation_count": 0, "nearest_zone_km": 5.06, "name": "구례군 봉동리"}, {"lat": 35.165, "lng": 126.86, "access_count": 136, "reservation_count": 1, "nearest_zone_km": 1.04, "name": "광주광역시 서구 유덕동"}, {"lat": 35.142, "lng": 126.809, "access_count": 133, "reservation_count": 0, "nearest_zone_km": 1.2, "name": "광주광역시 광산구 신흥동"}, {"lat": 35.124, "lng": 126.932, "access_count": 130, "reservation_count": 0, "nearest_zone_km": 0.92, "name": "광주광역시 동구 소태동"}, {"lat": 35.163, "lng": 126.898, "access_count": 129, "reservation_count": 0, "nearest_zone_km": 0.85, "name": "광주광역시 북구 임동"}, {"lat": 35.17, "lng": 126.886, "access_count": 127, "reservation_count": 0, "nearest_zone_km": 0.93, "name": "광주광역시 북구 운암2동"}, {"lat": 35.166, "lng": 126.863, "access_count": 127, "reservation_count": 0, "nearest_zone_km": 0.91, "name": "광주광역시 서구 유덕동"}, {"lat": 35.143, "lng": 126.81, "access_count": 125, "reservation_count": 0, "nearest_zone_km": 1.28, "name": "광주광역시 광산구 신흥동"}, {"lat": 35.139, "lng": 126.811, "access_count": 125, "reservation_count": 0, "nearest_zone_km": 1.46, "name": "광주광역시 광산구 신흥동"}, {"lat": 35.168, "lng": 126.862, "access_count": 124, "reservation_count": 0, "nearest_zone_km": 0.84, "name": "광주광역시 서구 유덕동"}, {"lat": 35.144, "lng": 126.812, "access_count": 124, "reservation_count": 1, "nearest_zone_km": 1.46, "name": "광주광역시 광산구 신흥동"}, {"lat": 35.165, "lng": 126.861, "access_count": 119, "reservation_count": 0, "nearest_zone_km": 1.03, "name": "광주광역시 서구 유덕동"}, {"lat": 35.123, "lng": 126.933, "access_count": 119, "reservation_count": 0, "nearest_zone_km": 1.06, "name": "광주광역시 동구 소태동"}, {"lat": 35.197, "lng": 126.873, "access_count": 118, "reservation_count": 1, "nearest_zone_km": 1.36, "name": "광주광역시 북구 양산동"}]