[{"lat": "34.94521553065998", "lng": "127.49975685893014", "region2": "순천시", "sig_name": "전라남도 순천시", "total_cars": "18", "zone_id": "9514", "zone_name": "순천역KTX"}, {"lat": "34.79392448588614", "lng": "126.38769065700284", "region2": "목포시", "sig_name": "전라남도 목포시", "total_cars": "17", "zone_id": "13493", "zone_name": "목포역KTX"}, {"lat": "34.94517942743273", "lng": "127.49892630879744", "region2": "순천시", "sig_name": "전라남도 순천시", "total_cars": "13", "zone_id": "13777", "zone_name": "순천역KTX 앞"}, {"lat": "34.75206343684918", "lng": "127.74698088752885", "region2": "여수시", "sig_name": "전라남도 여수시", "total_cars": "11", "zone_id": "9997", "zone_name": "여수엑스포역KTX(국제관 B동)"}, {"lat": "34.81258098676307", "lng": "126.41727920737502", "region2": "목포시", "sig_name": "전라남도 목포시", "total_cars": "11", "zone_id": "2417", "zone_name": "목포종합버스터미널"}, {"lat": "35.171415109865954", "lng": "126.9115507124584", "region2": "북구", "sig_name": "광주광역시 북구", "total_cars": "9", "zone_id": "11958", "zone_name": "전남대 후문 옆"}, {"lat": "35.16093113874389", "lng": "126.87786090280717", "region2": "서구", "sig_name": "광주광역시 서구", "total_cars": "9", "zone_id": "5916", "zone_name": "광주버스터미널(유스퀘어)"}, {"lat": "35.13807309075165", "lng": "126.79313300978697", "region2": "광산구", "sig_name": "광주광역시 광산구", "total_cars": "8", "zone_id": "9375", "zone_name": "광주송정역KTX"}, {"lat": "35.136130296261335", "lng": "126.79320371553094", "region2": "광산구", "sig_name": "광주광역시 광산구", "total_cars": "5", "zone_id": "13646", "zone_name": "광주송정역KTX 앞"}, {"lat": "34.91153416660288", "lng": "126.43564348720633", "region2": "무안군", "sig_name": "전라남도 무안군", "total_cars": "4", "zone_id": "8951", "zone_name": "목포대 공동실험실습관"}, {"lat": "34.75394173421404", "lng": "127.74848470422968", "region2": "여수시", "sig_name": "전라남도 여수시", "total_cars": "4", "zone_id": "7983", "zone_name": "여수엑스포역KTX"}, {"lat": "34.978357002321204", "lng": "126.47231843576765", "region2": "무안군", "sig_name": "전라남도 무안군", "total_cars": "4", "zone_id": "11416", "zone_name": "초당대학교"}, {"lat": "35.10788076521393", "lng": "126.89644416820707", "region2": "남구", "sig_name": "광주광역시 남구", "total_cars": "3", "zone_id": "12086", "zone_name": "광주대 정문"}, {"lat": "35.21512989818076", "lng": "126.8464062694266", "region2": "광산구", "sig_name": "광주광역시 광산구", "total_cars": "3", "zone_id": "10172", "zone_name": "첨단먹자골목"}, {"lat": "35.180626150863084", "lng": "126.90256183617632", "region2": "북구", "sig_name": "광주광역시 북구", "total_cars": "3", "zone_id": "8461", "zone_name": "전남대 예대 뒤"}, {"lat": "35.14932282146076", "lng": "126.91253785893012", "region2": "동구", "sig_name": "광주광역시 동구", "total_cars": "3", "zone_id": "9086", "zone_name": "NC웨이브 충장점(지상주차장)"}, {"lat": "34.91282968673932", "lng": "126.4372978879347", "region2": "무안군", "sig_name": "전라남도 무안군", "total_cars": "3", "zone_id": "9144", "zone_name": "목포대 공과대학"}, {"lat": "35.149695870001636", "lng": "126.86122670009813", "region2": "서구", "sig_name": "광주광역시 서구", "total_cars": "3", "zone_id": "13087", "zone_name": "상무2동 원룸촌"}, {"lat": "34.90577351131893", "lng": "126.43232109581318", "region2": "무안군", "sig_name": "전라남도 무안군", "total_cars": "3", "zone_id": "12457", "zone_name": "목포대 예술관"}, {"lat": "35.17933051915975", "lng": "126.81038297790984", "region2": "광산구", "sig_name": "광주광역시 광산구", "total_cars": "2", "zone_id": "6207", "zone_name": "흑석사거리"}, {"lat": "34.75746153453342", "lng": "127.71471166360794", "region2": "여수시", "sig_name": "전라남도 여수시", "total_cars": "2", "zone_id": "12698", "zone_name": "이마트 여수점(여수버스터미널)"}, {"lat": "34.95468557587581", "lng": "127.52538534224867", "region2": "순천시", "sig_name": "전라남도 순천시", "total_cars": "2", "zone_id": "10771", "zone_name": "폴리텍대학 순천캠퍼스 옆"}, {"lat": "35.2153364401145", "lng": "126.849164520631", "region2": "광산구", "sig_name": "광주광역시 광산구", "total_cars": "2", "zone_id": "13610", "zone_name": "첨단 시너지타워"}, {"lat": "35.191375335976204", "lng": "126.83873526011895", "region2": "광산구", "sig_name": "광주광역시 광산구", "total_cars": "2", "zone_id": "8640", "zone_name": "신창부영1차아파트 옆"}, {"lat": "34.74809942857134", "lng": "127.66889111162926", "region2": "여수시", "sig_name": "전라남도 여수시", "total_cars": "2", "zone_id": "12560", "zone_name": "웅천친수공원(L)"}, {"lat": "35.21905458554228", "lng": "126.84410191810461", "region2": "광산구", "sig_name": "광주광역시 광산구", "total_cars": "2", "zone_id": "9528", "zone_name": "첨단1동 주민센터 옆"}, {"lat": "35.19209206136298", "lng": "126.83007567123641", "region2": "광산구", "sig_name": "광주광역시 광산구", "total_cars": "2", "zone_id": "10874", "zone_name": "수완지구 원룸촌"}, {"lat": "34.77045803107804", "lng": "127.70474256831687", "region2": "여수시", "sig_name": "전라남도 여수시", "total_cars": "2", "zone_id": "11200", "zone_name": "여수 진남여중 옆"}, {"lat": "35.15181879616607", "lng": "126.88874333198189", "region2": "서구", "sig_name": "광주광역시 서구", "total_cars": "2", "zone_id": "11307", "zone_name": "광주서구청 앞"}, {"lat": "35.159366971821896", "lng": "126.8843729835241", "region2": "서구", "sig_name": "광주광역시 서구", "total_cars": "2", "zone_id": "10198", "zone_name": "광천동 다나메디컬"}, {"lat": "34.95362610093667", "lng": "127.51653670971156", "region2": "순천시", "sig_name": "전라남도 순천시", "total_cars": "2", "zone_id": "13010", "zone_name": "조례주공1단지아파트 앞"}, {"lat": "35.147737794499", "lng": "126.861340313665", "region2": "서구", "sig_name": "광주광역시 서구", "total_cars": "2", "zone_id": "13888", "zone_name": "효사어린이공원(L)"}, {"lat": "34.84051888190309", "lng": "127.61300087903793", "region2": "여수시", "sig_name": "전라남도 여수시", "total_cars": "2", "zone_id": "1995", "zone_name": "여수공항(C구역)"}, {"lat": "35.152215074037876", "lng": "126.85442224140486", "region2": "서구", "sig_name": "광주광역시 서구", "total_cars": "2", "zone_id": "11502", "zone_name": "상무병원 앞"}, {"lat": "34.81335093293213", "lng": "126.46494057156885", "region2": "무안군", "sig_name": "전라남도 무안군", "total_cars": "2", "zone_id": "9495", "zone_name": "전남도청 앞(영산주차프라자)"}, {"lat": "34.81054151117163", "lng": "126.37765928906924", "region2": "목포시", "sig_name": "전라남도 목포시", "total_cars": "2", "zone_id": "11805", "zone_name": "산정현대아파트 옆(초원식자재마트)"}, {"lat": "35.022037", "lng": "126.7871023", "region2": "나주시", "sig_name": "전라남도 나주시", "total_cars": "2", "zone_id": "7475", "zone_name": "한전KDN 앞"}, {"lat": "35.18242216361958", "lng": "126.91204655575304", "region2": "북구", "sig_name": "광주광역시 북구", "total_cars": "2", "zone_id": "10882", "zone_name": "CGV 광주용봉점"}, {"lat": "35.1334320761166", "lng": "126.929837740953", "region2": "동구", "sig_name": "광주광역시 동구", "total_cars": "2", "zone_id": "13289", "zone_name": "광주 학동증심사입구역 4번출구"}, {"lat": "35.04756106536206", "lng": "126.71851532834582", "region2": "나주시", "sig_name": "전라남도 나주시", "total_cars": "2", "zone_id": "8342", "zone_name": "동신대 첨단강의동"}, {"lat": "35.16976193852449", "lng": "126.92531753082733", "region2": "북구", "sig_name": "광주광역시 북구", "total_cars": "2", "zone_id": "9507", "zone_name": "동강대학교"}, {"lat": "35.14366800496175", "lng": "126.92154882341157", "region2": "동구", "sig_name": "광주광역시 동구", "total_cars": "2", "zone_id": "13851", "zone_name": "전남대병원 옆"}, {"lat": "35.1421216682163", "lng": "126.920229063882", "region2": "동구", "sig_name": "광주광역시 동구", "total_cars": "1", "zone_id": "13868", "zone_name": "전남대병원 앞"}, {"lat": "34.97328464432457", "lng": "127.48972842097797", "region2": "순천시", "sig_name": "전라남도 순천시", "total_cars": "1", "zone_id": "11991", "zone_name": "용당e편한세상 옆"}, {"lat": "35.12461056179215", "lng": "126.89565502939121", "region2": "남구", "sig_name": "광주광역시 남구", "total_cars": "1", "zone_id": "14073", "zone_name": "보이저 진월 뒤(L)"}, {"lat": "35.10511286456671", "lng": "126.89562367106232", "region2": "남구", "sig_name": "광주광역시 남구", "total_cars": "1", "zone_id": "12085", "zone_name": "광주대 호심관"}, {"lat": "35.1251753033006", "lng": "126.913758846359", "region2": "남구", "sig_name": "광주광역시 남구", "total_cars": "1", "zone_id": "13118", "zone_name": "유안초등학교 옆"}, {"lat": "35.13667714229981", "lng": "126.91862996222561", "region2": "남구", "sig_name": "광주광역시 남구", "total_cars": "1", "zone_id": "11837", "zone_name": "학강초등학교 옆(뒤집고)"}, {"lat": "34.93991297764975", "lng": "127.70029610583101", "region2": "광양시", "sig_name": "전라남도 광양시", "total_cars": "1", "zone_id": "10863", "zone_name": "맥도날드 광양점 앞"}, {"lat": "34.93618295944368", "lng": "127.69549761303716", "region2": "광양시", "sig_name": "전라남도 광양시", "total_cars": "1", "zone_id": "12631", "zone_name": "다이소 동광양점 앞"}, {"lat": "34.93410676554117", "lng": "127.69936429118665", "region2": "광양시", "sig_name": "전라남도 광양시", "total_cars": "1", "zone_id": "10431", "zone_name": "이순신대교 먹거리타운"}, {"lat": "35.14333713720953", "lng": "126.92357381993189", "region2": "동구", "sig_name": "광주광역시 동구", "total_cars": "1", "zone_id": "7401", "zone_name": "전남대 의과대학 앞"}, {"lat": "35.158739935892534", "lng": "126.90581049978029", "region2": "북구", "sig_name": "광주광역시 북구", "total_cars": "1", "zone_id": "11176", "zone_name": "해피뷰병원 앞"}, {"lat": "35.17984233888958", "lng": "126.91247063066925", "region2": "북구", "sig_name": "광주광역시 북구", "total_cars": "1", "zone_id": "10510", "zone_name": "전남대 후문(토니커피)"}, {"lat": "35.172275270334005", "lng": "126.86967247856936", "region2": "북구", "sig_name": "광주광역시 북구", "total_cars": "1", "zone_id": "10593", "zone_name": "동천동우체국 건너편"}, {"lat": "35.17898670872436", "lng": "126.8948802330413", "region2": "북구", "sig_name": "광주광역시 북구", "total_cars": "1", "zone_id": "11145", "zone_name": "전철우 사거리"}, {"lat": "35.1579806320803", "lng": "126.91670314100917", "region2": "동구", "sig_name": "광주광역시 동구", "total_cars": "1", "zone_id": "11964", "zone_name": "그랜드센트럴 앞"}, {"lat": "35.15299199003794", "lng": "126.84805392155342", "region2": "서구", "sig_name": "광주광역시 서구", "total_cars": "1", "zone_id": "1480", "zone_name": "치평동우체국 앞"}, {"lat": "35.155486133013774", "lng": "126.8527646604568", "region2": "서구", "sig_name": "광주광역시 서구", "total_cars": "1", "zone_id": "12387", "zone_name": "상무지구 평화공원 옆"}, {"lat": "35.18766482001471", "lng": "126.90336851912123", "region2": "북구", "sig_name": "광주광역시 북구", "total_cars": "1", "zone_id": "12298", "zone_name": "서산초등학교 뒤(K1볼링장)"}, {"lat": "35.1499266376936", "lng": "126.85813016542457", "region2": "서구", "sig_name": "광주광역시 서구", "total_cars": "1", "zone_id": "11756", "zone_name": "운천역 2번출구"}, {"lat": "35.18302439280939", "lng": "126.87114569513918", "region2": "북구", "sig_name": "광주광역시 북구", "total_cars": "1", "zone_id": "10941", "zone_name": "황솔촌 운암점"}, {"lat": "35.19194740574887", "lng": "126.89925005908937", "region2": "북구", "sig_name": "광주광역시 북구", "total_cars": "1", "zone_id": "11901", "zone_name": "고려중학교 앞(아람식자재마트)"}, {"lat": "35.15823784881115", "lng": "126.86768910154218", "region2": "서구", "sig_name": "광주광역시 서구", "total_cars": "1", "zone_id": "10905", "zone_name": "상무한국아델리움"}, {"lat": "35.151261874365865", "lng": "126.87028078524473", "region2": "서구", "sig_name": "광주광역시 서구", "total_cars": "1", "zone_id": "12139", "zone_name": "쌍촌역 1번출구"}, {"lat": "35.13089636415039", "lng": "126.85894796519983", "region2": "서구", "sig_name": "광주광역시 서구", "total_cars": "1", "zone_id": "6029", "zone_name": "서구문화센터 앞"}, {"lat": "35.19642606812292", "lng": "126.89932139390727", "region2": "북구", "sig_name": "광주광역시 북구", "total_cars": "1", "zone_id": "13116", "zone_name": "삼각그린타운아파트 앞"}, {"lat": "35.15212866175181", "lng": "126.8793485971319", "region2": "서구", "sig_name": "광주광역시 서구", "total_cars": "1", "zone_id": "12781", "zone_name": "화정역 1번출구"}, {"lat": "35.20448660041621", "lng": "126.89728002638934", "region2": "북구", "sig_name": "광주광역시 북구", "total_cars": "1", "zone_id": "8152", "zone_name": "이마트에브리데이 일곡동점"}, {"lat": "35.205934850092426", "lng": "126.86024155454633", "region2": "북구", "sig_name": "광주광역시 북구", "total_cars": "1", "zone_id": "14162", "zone_name": "첨단산단 공영주차장(L)"}, {"lat": "35.12711485522491", "lng": "126.87904481532692", "region2": "서구", "sig_name": "광주광역시 서구", "total_cars": "1", "zone_id": "6216", "zone_name": "롯데슈퍼 풍암점"}, {"lat": "35.12679877035084", "lng": "126.8777334182088", "region2": "서구", "sig_name": "광주광역시 서구", "total_cars": "1", "zone_id": "14220", "zone_name": "풍암캐슬온리뷰 옆"}, {"lat": "35.1249459746525", "lng": "126.869481594829", "region2": "서구", "sig_name": "광주광역시 서구", "total_cars": "1", "zone_id": "13867", "zone_name": "풍암호수공원 앞"}, {"lat": "35.17927323182068", "lng": "126.80649900605287", "region2": "광산구", "sig_name": "광주광역시 광산구", "total_cars": "1", "zone_id": "10855", "zone_name": "CGV 광주하남점 옆"}, {"lat": "35.21027585628635", "lng": "126.8756178269555", "region2": "북구", "sig_name": "광주광역시 북구", "total_cars": "1", "zone_id": "13454", "zone_name": "양산명지써밋 뒤"}, {"lat": "35.2149153928855", "lng": "126.882394576787", "region2": "북구", "sig_name": "광주광역시 북구", "total_cars": "1", "zone_id": "14264", "zone_name": "본촌초등학교 앞"}, {"lat": "34.80046064880748", "lng": "126.429887280682", "region2": "목포시", "sig_name": "전라남도 목포시", "total_cars": "1", "zone_id": "9524", "zone_name": "목포 평화광장 앞"}, {"lat": "35.21592222974335", "lng": "126.84430282698361", "region2": "광산구", "sig_name": "광주광역시 광산구", "total_cars": "1", "zone_id": "7663", "zone_name": "첨단2동 주민센터 옆"}, {"lat": "34.80325516262192", "lng": "126.4271667655093", "region2": "목포시", "sig_name": "전라남도 목포시", "total_cars": "1", "zone_id": "11313", "zone_name": "버거킹 목포하당점 옆"}, {"lat": "35.216363284298396", "lng": "126.84702999409784", "region2": "광산구", "sig_name": "광주광역시 광산구", "total_cars": "1", "zone_id": "13596", "zone_name": "첨단지구대 앞"}, {"lat": "35.189001414701934", "lng": "126.83730843097692", "region2": "광산구", "sig_name": "광주광역시 광산구", "total_cars": "1", "zone_id": "8647", "zone_name": "안경나라 신창점"}, {"lat": "34.805638481013304", "lng": "126.4260926215652", "region2": "목포시", "sig_name": "전라남도 목포시", "total_cars": "1", "zone_id": "9057", "zone_name": "하당 스타시티빌딩"}, {"lat": "34.802398356680975", "lng": "126.41815920730949", "region2": "목포시", "sig_name": "전라남도 목포시", "total_cars": "1", "zone_id": "12545", "zone_name": "롯데렌탈 목포지점(B)"}, {"lat": "35.2163562", "lng": "126.85205070000006", "region2": "광산구", "sig_name": "광주광역시 광산구", "total_cars": "1", "zone_id": "7549", "zone_name": "롯데마트 첨단점"}, {"lat": "34.81349391589348", "lng": "126.42181087103182", "region2": "목포시", "sig_name": "전라남도 목포시", "total_cars": "1", "zone_id": "13153", "zone_name": "목포 석현동(대촌)"}, {"lat": "34.79358806020183", "lng": "126.38711266129417", "region2": "목포시", "sig_name": "전라남도 목포시", "total_cars": "1", "zone_id": "13614", "zone_name": "목포역KTX(EV)"}, {"lat": "34.80278396104115", "lng": "126.36848622699274", "region2": "목포시", "sig_name": "전라남도 목포시", "total_cars": "1", "zone_id": "14259", "zone_name": "목포 서부초등학교 옆"}, {"lat": "34.8051367945541", "lng": "126.385730053487", "region2": "목포시", "sig_name": "전라남도 목포시", "total_cars": "1", "zone_id": "13937", "zone_name": "목포우리신협 옆"}, {"lat": "34.8056881048629", "lng": "126.375901288896", "region2": "목포시", "sig_name": "전라남도 목포시", "total_cars": "1", "zone_id": "13940", "zone_name": "목포행운타워"}, {"lat": "34.909500736842894", "lng": "126.43619630094173", "region2": "무안군", "sig_name": "전라남도 무안군", "total_cars": "1", "zone_id": "12458", "zone_name": "목포대 학생회관"}, {"lat": "34.821985663236106", "lng": "126.39369705067622", "region2": "목포시", "sig_name": "전라남도 목포시", "total_cars": "1", "zone_id": "13788", "zone_name": "용해골드디움5차 뒤"}, {"lat": "34.93513381660783", "lng": "127.54627331063773", "region2": "순천시", "sig_name": "전라남도 순천시", "total_cars": "1", "zone_id": "13941", "zone_name": "신대지구 중흥5차아파트 앞"}, {"lat": "34.946825872717234", "lng": "127.5338424493236", "region2": "순천시", "sig_name": "전라남도 순천시", "total_cars": "1", "zone_id": "10287", "zone_name": "순천 순정병원"}, {"lat": "34.83871339068574", "lng": "127.61435451298702", "region2": "여수시", "sig_name": "전라남도 여수시", "total_cars": "1", "zone_id": "14225", "zone_name": "여수공항 P3주차장"}, {"lat": "34.7758954861258", "lng": "127.648138113822", "region2": "여수시", "sig_name": "전라남도 여수시", "total_cars": "1", "zone_id": "14252", "zone_name": "화장동 공영주차장(L)"}, {"lat": "34.77916805679574", "lng": "127.66276033223684", "region2": "여수시", "sig_name": "전라남도 여수시", "total_cars": "1", "zone_id": "9515", "zone_name": "여천역KTX 1주차장"}, {"lat": "34.777205321850595", "lng": "127.69966113009411", "region2": "여수시", "sig_name": "전라남도 여수시", "total_cars": "1", "zone_id": "8331", "zone_name": "전남대(여수) 1공학관 뒤"}, {"lat": "34.77636494808758", "lng": "127.70133248989794", "region2": "여수시", "sig_name": "전라남도 여수시", "total_cars": "1", "zone_id": "9919", "zone_name": "전남대(여수) 제2공학관"}, {"lat": "34.77209396540776", "lng": "127.69891815819699", "region2": "여수시", "sig_name": "전라남도 여수시", "total_cars": "1", "zone_id": "8435", "zone_name": "전남대(여수) 인문사회과학관"}, {"lat": "34.9448591925883", "lng": "127.504203317304", "region2": "순천시", "sig_name": "전라남도 순천시", "total_cars": "1", "zone_id": "12546", "zone_name": "롯데렌탈 순천지점(B)"}, {"lat": "34.948085282576194", "lng": "127.51405113683909", "region2": "순천시", "sig_name": "전라남도 순천시", "total_cars": "1", "zone_id": "13939", "zone_name": "순천오네뜨센트럴 옆"}, {"lat": "34.9514582959578", "lng": "127.517148991164", "region2": "순천시", "sig_name": "전라남도 순천시", "total_cars": "1", "zone_id": "13682", "zone_name": "연향동 동성아파트 옆"}, {"lat": "34.743753214603096", "lng": "127.68346310037612", "region2": "여수시", "sig_name": "전라남도 여수시", "total_cars": "1", "zone_id": "11693", "zone_name": "웅천 이순신공원 옆"}, {"lat": "34.953862636344304", "lng": "127.52273013750502", "region2": "순천시", "sig_name": "전라남도 순천시", "total_cars": "1", "zone_id": "7946", "zone_name": "조례사거리"}, {"lat": "34.954534031423435", "lng": "127.52028118671369", "region2": "순천시", "sig_name": "전라남도 순천시", "total_cars": "1", "zone_id": "10444", "zone_name": "에코그라드호텔 앞"}, {"lat": "35.052699827969846", "lng": "126.7172988436634", "region2": "나주시", "sig_name": "전라남도 나주시", "total_cars": "1", "zone_id": "13705", "zone_name": "동신대 드림학사"}, {"lat": "35.04982351561961", "lng": "126.71786502193558", "region2": "나주시", "sig_name": "전라남도 나주시", "total_cars": "1", "zone_id": "9142", "zone_name": "동신대 중앙도서관"}, {"lat": "34.96876180654926", "lng": "127.52274727691976", "region2": "순천시", "sig_name": "전라남도 순천시", "total_cars": "1", "zone_id": "10248", "zone_name": "왕조지구대 앞"}, {"lat": "35.12577704569425", "lng": "126.89737738050994", "region2": "남구", "sig_name": "광주광역시 남구", "total_cars": "1", "zone_id": "11396", "zone_name": "빅스포 진월점"}]