[{"address": "전남 곡성군 곡성읍 읍내리 124-3 알뜰주유소 뒷편", "car_count": "2", "imaginary": "0", "is_d2d_car_exportable": "ABLE", "lat": "35.283013", "lng": "127.301848", "parking_name": "곡성역(KTX) 알뜰 귀뚜라미주유소 뒷편", "region1": "전라남도", "region2": "곡성군", "region3": "곡성읍", "zone_id": "23155", "zone_name": "곡성역(KTX) 알뜰 귀뚜라미주유소 뒷편"}, {"address": "광주 광산구 송정동 867-30", "car_count": "2", "imaginary": "0", "is_d2d_car_exportable": "ABLE", "lat": "35.137183", "lng": "126.793629", "parking_name": "1913송정역 시장 건너편(KTX)", "region1": "광주광역시", "region2": "광산구", "region3": "송정동", "zone_id": "22651", "zone_name": "1913송정역 시장 건너편(KTX)"}, {"address": "광주 광산구 장덕동 1637 미르주차빌딩", "car_count": "1", "imaginary": "0", "is_d2d_car_exportable": "ABLE", "lat": "35.19018", "lng": "126.816168", "parking_name": "BYC수완 뒤편", "region1": "광주광역시", "region2": "광산구", "region3": "장덕동", "zone_id": "22479", "zone_name": "BYC수완 뒤편"}, {"address": "광주 광산구 소촌동 529-77 GS파크 소촌동 주차장", "car_count": "1", "imaginary": "0", "is_d2d_car_exportable": "ABLE", "lat": "35.141034", "lng": "126.793784", "parking_name": "케이엠파크 소촌동", "region1": "광주광역시", "region2": "광산구", "region3": "소촌동", "zone_id": "11688", "zone_name": "광주 광산구청 앞"}, {"address": "광주 광산구 우산동 1601-10 우산동행정복지센터앞 공영주차장", "car_count": "1", "imaginary": "0", "is_d2d_car_exportable": "ABLE", "lat": "35.159983", "lng": "126.807028", "parking_name": "광주 우산LH1단지아파트 옆", "region1": "광주광역시", "region2": "광산구", "region3": "우산동", "zone_id": "13424", "zone_name": "광주 우산LH1단지아파트 옆"}, {"address": "광주 광산구 송정동 1389", "car_count": "17", "imaginary": "0", "is_d2d_car_exportable": "UNABLE", "lat": "35.138956", "lng": "126.791822", "parking_name": "광주송정역 5번출구(KTX)", "region1": "광주광역시", "region2": "광산구", "region3": "송정동", "zone_id": "5624", "zone_name": "광주송정역 5번출구(KTX)"}, {"address": "광주 광산구 송정동 836-6", "car_count": "3", "imaginary": "0", "is_d2d_car_exportable": "ABLE", "lat": "35.139132", "lng": "126.793078", "parking_name": "광주송정역 떡갈비골목(KTX)", "region1": "광주광역시", "region2": "광산구", "region3": "송정동", "zone_id": "22670", "zone_name": "광주송정역 떡갈비골목(KTX)"}, {"address": "광주 광산구 송정동 1502", "car_count": "30", "imaginary": "0", "is_d2d_car_exportable": "UNABLE", "lat": "35.135953", "lng": "126.790916", "parking_name": "광주송정역 앞(KTX)", "region1": "광주광역시", "region2": "광산구", "region3": "송정동", "zone_id": "1133", "zone_name": "광주송정역 앞(KTX)"}, {"address": "광주 광산구 송정동 968-1", "car_count": "48", "imaginary": "0", "is_d2d_car_exportable": "ABLE", "lat": "35.135092", "lng": "126.790724", "parking_name": "광주송정역 옆(KTX)", "region1": "광주광역시", "region2": "광산구", "region3": "송정동", "zone_id": "7706", "zone_name": "광주송정역 옆(KTX)"}, {"address": "광주 광산구 송정동 949-23", "car_count": "12", "imaginary": "0", "is_d2d_car_exportable": "ABLE", "lat": "35.135004", "lng": "126.790309", "parking_name": "광주송정역 인근(KTX)", "region1": "광주광역시", "region2": "광산구", "region3": "송정동", "zone_id": "19766", "zone_name": "광주송정역 인근(KTX)"}, {"address": "광주 광산구 송정동 949-8", "car_count": "12", "imaginary": "0", "is_d2d_car_exportable": "ABLE", "lat": "35.135011", "lng": "126.789413", "parking_name": "광주송정역 주차빌딩(KTX)", "region1": "광주광역시", "region2": "광산구", "region3": "송정동", "zone_id": "17668", "zone_name": "광주송정역 주차빌딩(KTX)"}, {"address": "광주 광산구 송정동 949-8", "car_count": "2", "imaginary": "0", "is_d2d_car_exportable": "ABLE", "lat": "35.135367", "lng": "126.789648", "parking_name": "광주송정역 주차빌딩(KTX)(전기차)", "region1": "광주광역시", "region2": "광산구", "region3": "송정동", "zone_id": "19485", "zone_name": "광주송정역 주차빌딩(KTX)(전기차)"}, {"address": "광주 광산구 송정동 1496", "car_count": "7", "imaginary": "0", "is_d2d_car_exportable": "ABLE", "lat": "35.136742", "lng": "126.791345", "parking_name": "광주은행 송정지점 옆(KTX)", "region1": "광주광역시", "region2": "광산구", "region3": "송정동", "zone_id": "22649", "zone_name": "광주은행 송정지점 옆(KTX)"}, {"address": "광주 광산구 수완동 1434", "car_count": "5", "imaginary": "5", "is_d2d_car_exportable": "ABLE", "lat": "35.190067", "lng": "126.825236", "parking_name": "기업은행 수완지점 뒤", "region1": "광주광역시", "region2": "광산구", "region3": "수완동", "zone_id": "15463", "zone_name": "기업은행 수완지점 뒤"}, {"address": "광주 광산구 월계동 864-1 남부대 첨단관 앞", "car_count": "3", "imaginary": "0", "is_d2d_car_exportable": "ABLE", "lat": "35.208256", "lng": "126.840516", "parking_name": "남부대 첨단관 앞", "region1": "광주광역시", "region2": "광산구", "region3": "월계동", "zone_id": "15008", "zone_name": "남부대 첨단관 앞"}, {"address": "광주 광산구 쌍암동 694-25 노블스테이호텔", "car_count": "1", "imaginary": "0", "is_d2d_car_exportable": "ABLE", "lat": "35.216764", "lng": "126.849313", "parking_name": "노블스테이호텔", "region1": "광주광역시", "region2": "광산구", "region3": "쌍암동", "zone_id": "10812", "zone_name": "노블스테이호텔"}, {"address": "광주 광산구 쌍암동 694-5", "car_count": "5", "imaginary": "0", "is_d2d_car_exportable": "ABLE", "lat": "35.215336", "lng": "126.849165", "parking_name": "더시너지 첨단", "region1": "광주광역시", "region2": "광산구", "region3": "쌍암동", "zone_id": "20547", "zone_name": "더시너지 첨단"}, {"address": "광주 광산구 장덕동 1668 파킹1주차장", "car_count": "1", "imaginary": "0", "is_d2d_car_exportable": "ABLE", "lat": "35.19013", "lng": "126.817889", "parking_name": "롯데마트 수완점 옆", "region1": "광주광역시", "region2": "광산구", "region3": "장덕동", "zone_id": "12822", "zone_name": "롯데마트 수완점 옆"}, {"address": "광주 광산구 쌍암동 694-3 롯데마트 지상2층", "car_count": "1", "imaginary": "0", "is_d2d_car_exportable": "ABLE", "lat": "35.216538", "lng": "126.851901", "parking_name": "롯데마트 첨단점", "region1": "광주광역시", "region2": "광산구", "region3": "쌍암동", "zone_id": "14265", "zone_name": "롯데마트 첨단점"}, {"address": "광주 광산구 장덕동 1678 롯데쇼핑몰 롯데아울렛 광주 수완점 야외주차장 주차타워", "car_count": "2", "imaginary": "0", "is_d2d_car_exportable": "ABLE", "lat": "35.187637", "lng": "126.819317", "parking_name": "롯데아울렛 수완점_야외주차장", "region1": "광주광역시", "region2": "광산구", "region3": "장덕동", "zone_id": "23041", "zone_name": "롯데아울렛 수완점_야외주차장"}, {"address": "광주 광산구 소촌동 522-100 이디야커피 광주송정DI점", "car_count": "17", "imaginary": "3", "is_d2d_car_exportable": "ABLE", "lat": "35.143518", "lng": "126.795914", "parking_name": "송정공원역 3번출구", "region1": "광주광역시", "region2": "광산구", "region3": "소촌동", "zone_id": "10780", "zone_name": "송정공원역 3번출구"}, {"address": "광주 광산구 수완동 1371", "car_count": "2", "imaginary": "0", "is_d2d_car_exportable": "ABLE", "lat": "35.191341", "lng": "126.829389", "parking_name": "수완지구대 인근", "region1": "광주광역시", "region2": "광산구", "region3": "수완동", "zone_id": "20057", "zone_name": "수완지구대 인근"}, {"address": "광주 광산구 우산동 1585-5", "car_count": "2", "imaginary": "0", "is_d2d_car_exportable": "ABLE", "lat": "35.162541", "lng": "126.810295", "parking_name": "스타벅스 광주하남점", "region1": "광주광역시", "region2": "광산구", "region3": "우산동", "zone_id": "20077", "zone_name": "스타벅스 광주하남점"}, {"address": "광주 광산구 신창동 1222-4 지상4층", "car_count": "5", "imaginary": "0", "is_d2d_car_exportable": "ABLE", "lat": "35.191661", "lng": "126.838829", "parking_name": "광주신창주차타워점", "region1": "광주광역시", "region2": "광산구", "region3": "신창동", "zone_id": "10094", "zone_name": "신창부영1차아파트 옆"}, {"address": "광주 광산구 우산동 1608-5 이현주차장", "car_count": "3", "imaginary": "0", "is_d2d_car_exportable": "ABLE", "lat": "35.161497", "lng": "126.802056", "parking_name": "우산빛여울채아파트 뒤", "region1": "광주광역시", "region2": "광산구", "region3": "우산동", "zone_id": "16041", "zone_name": "우산빛여울채아파트 뒤"}, {"address": "광주 광산구 운남동 387-30 베스트원 빌딩", "car_count": "1", "imaginary": "0", "is_d2d_car_exportable": "ABLE", "lat": "35.173416", "lng": "126.818124", "parking_name": "운남고 인근", "region1": "광주광역시", "region2": "광산구", "region3": "운남동", "zone_id": "21863", "zone_name": "운남고 인근"}, {"address": "광주 광산구 쌍암동 671-2 골드타워 지상2층", "car_count": "2", "imaginary": "0", "is_d2d_car_exportable": "ABLE", "lat": "35.21872", "lng": "126.846699", "parking_name": "첨단 골드타워", "region1": "광주광역시", "region2": "광산구", "region3": "쌍암동", "zone_id": "13616", "zone_name": "첨단 골드타워"}, {"address": "광주 광산구 쌍암동 667-1", "car_count": "3", "imaginary": "5", "is_d2d_car_exportable": "ABLE", "lat": "35.219299", "lng": "126.844299", "parking_name": "첨단1동주민센터 뒤", "region1": "광주광역시", "region2": "광산구", "region3": "쌍암동", "zone_id": "1278", "zone_name": "첨단1동주민센터 뒤"}, {"address": "광주 광산구 월계동 876-1 첨단 아이파킹 주차장", "car_count": "3", "imaginary": "0", "is_d2d_car_exportable": "ABLE", "lat": "35.216339", "lng": "126.844087", "parking_name": "첨단2동행정복지센터 옆", "region1": "광주광역시", "region2": "광산구", "region3": "월계동", "zone_id": "13729", "zone_name": "첨단2동행정복지센터 옆"}, {"address": "광주 광산구 쌍암동 694-35", "car_count": "1", "imaginary": "0", "is_d2d_car_exportable": "ABLE", "lat": "35.216471", "lng": "126.850342", "parking_name": "첨단CGV", "region1": "광주광역시", "region2": "광산구", "region3": "쌍암동", "zone_id": "19525", "zone_name": "첨단CGV"}, {"address": "광주 광산구 월계동 875-11 신영빌딩 신영빌딩", "car_count": "2", "imaginary": "0", "is_d2d_car_exportable": "ABLE", "lat": "35.216107", "lng": "126.842732", "parking_name": "첨단라인1차아파트 옆", "region1": "광주광역시", "region2": "광산구", "region3": "월계동", "zone_id": "14052", "zone_name": "첨단라인1차아파트 옆"}, {"address": "광주 광산구 월계동 885-1 월계동주차빌딩 하이파킹 첨단주차빌딩 지상 3층", "car_count": "2", "imaginary": "0", "is_d2d_car_exportable": "ABLE", "lat": "35.215159", "lng": "126.846373", "parking_name": "첨단먹자골목", "region1": "광주광역시", "region2": "광산구", "region3": "월계동", "zone_id": "12824", "zone_name": "첨단먹자골목"}, {"address": "광주 광산구 월계동 842-7", "car_count": "1", "imaginary": "0", "is_d2d_car_exportable": "ABLE", "lat": "35.208997", "lng": "126.837936", "parking_name": "첨단중학교 옆", "region1": "광주광역시", "region2": "광산구", "region3": "월계동", "zone_id": "16998", "zone_name": "첨단중학교 옆"}, {"address": "광주 광산구 우산동 1363-10", "car_count": "1", "imaginary": "0", "is_d2d_car_exportable": "ABLE", "lat": "35.162528", "lng": "126.812547", "parking_name": "하남콜롬버스 옆", "region1": "광주광역시", "region2": "광산구", "region3": "우산동", "zone_id": "19494", "zone_name": "하남콜롬버스 옆"}, {"address": "광주 광산구 선암동 788 선암주차장", "car_count": "1", "imaginary": "0", "is_d2d_car_exportable": "ABLE", "lat": "35.148714", "lng": "126.768776", "parking_name": "호남대학교 앞", "region1": "광주광역시", "region2": "광산구", "region3": "선암동", "zone_id": "13077", "zone_name": "호남대학교 앞"}, {"address": "광주 광산구 하남동 832 TERRACE56 PICNICMALL", "car_count": "2", "imaginary": "0", "is_d2d_car_exportable": "ABLE", "lat": "35.178322", "lng": "126.806515", "parking_name": "홈플러스 광주하남점 옆", "region1": "광주광역시", "region2": "광산구", "region3": "하남동", "zone_id": "22741", "zone_name": "홈플러스 광주하남점 옆"}, {"address": "광주 광산구 월곡동 679-13 예성빌딩", "car_count": "2", "imaginary": "0", "is_d2d_car_exportable": "ABLE", "lat": "35.179211", "lng": "126.810436", "parking_name": "흑석사거리", "region1": "광주광역시", "region2": "광산구", "region3": "월곡동", "zone_id": "15357", "zone_name": "흑석사거리"}, {"address": "전남 광양시 광양읍 인동리 413 광양버스터미널", "car_count": "3", "imaginary": "0", "is_d2d_car_exportable": "ABLE", "lat": "34.969733", "lng": "127.590301", "parking_name": "다이소 광양터미널점", "region1": "전라남도", "region2": "광양시", "region3": "광양읍", "zone_id": "22360", "zone_name": "다이소 광양터미널점"}, {"address": "전남 광양시 중동 1651", "car_count": "5", "imaginary": "0", "is_d2d_car_exportable": "ABLE", "lat": "34.936254", "lng": "127.695432", "parking_name": "다이소 동광양점 앞", "region1": "전라남도", "region2": "광양시", "region3": "중동", "zone_id": "15587", "zone_name": "다이소 동광양점 앞"}, {"address": "전남 광양시 중동 1568", "car_count": "2", "imaginary": "0", "is_d2d_car_exportable": "ABLE", "lat": "34.950086", "lng": "127.688823", "parking_name": "동광양농협 옆 (사동지점)", "region1": "전라남도", "region2": "광양시", "region3": "중동", "zone_id": "10291", "zone_name": "동광양농협 옆 (사동지점)"}, {"address": "전남 광양시 중동 1768-3", "car_count": "1", "imaginary": "0", "is_d2d_car_exportable": "ABLE", "lat": "34.93335", "lng": "127.698506", "parking_name": "롯데 하이마트 동광양점", "region1": "전라남도", "region2": "광양시", "region3": "중동", "zone_id": "16740", "zone_name": "롯데 하이마트 동광양점"}, {"address": "전남 광양시 중동 1673", "car_count": "2", "imaginary": "0", "is_d2d_car_exportable": "ABLE", "lat": "34.935107", "lng": "127.691543", "parking_name": "중동근린공원", "region1": "전라남도", "region2": "광양시", "region3": "중동", "zone_id": "10288", "zone_name": "중동근린공원"}, {"address": "전남 광양시 중동 1366-2", "car_count": "1", "imaginary": "0", "is_d2d_car_exportable": "ABLE", "lat": "34.941041", "lng": "127.686852", "parking_name": "중마 시영아파트 옆", "region1": "전라남도", "region2": "광양시", "region3": "중동", "zone_id": "19007", "zone_name": "중마 시영아파트 옆"}, {"address": "전남 광양시 중동 1754-14", "car_count": "1", "imaginary": "0", "is_d2d_car_exportable": "ABLE", "lat": "34.937745", "lng": "127.700707", "parking_name": "중마버스터미널 옆", "region1": "전라남도", "region2": "광양시", "region3": "중동", "zone_id": "18629", "zone_name": "중마버스터미널 옆"}, {"address": "전남 광양시 광양읍 덕례리 1690-1 창성골프연습장", "car_count": "3", "imaginary": "0", "is_d2d_car_exportable": "ABLE", "lat": "34.964149", "lng": "127.571016", "parking_name": "효성아파트 옆 공영주차장", "region1": "전라남도", "region2": "광양시", "region3": "광양읍", "zone_id": "13351", "zone_name": "효성아파트 옆"}, {"address": "전남 나주시 중앙동 18", "car_count": "1", "imaginary": "0", "is_d2d_car_exportable": "ABLE", "lat": "35.033596", "lng": "126.720351", "parking_name": "토니모리 건물 주차장", "region1": "전라남도", "region2": "나주시", "region3": "중앙동", "zone_id": "13221", "zone_name": "나주버스터미널 옆"}, {"address": "전남 나주시 송월동 1232 전남 나주시 송월동 1230번지, 1232번지", "car_count": "12", "imaginary": "0", "is_d2d_car_exportable": "ABLE", "lat": "35.018387", "lng": "126.714215", "parking_name": "나주역 앞 쏘카존(KTX)", "region1": "전라남도", "region2": "나주시", "region3": "송월동", "zone_id": "15923", "zone_name": "나주역 앞 쏘카존(KTX)"}, {"address": "전남 나주시 송월동 409-1 나주역 나주역 공영주차장", "car_count": "5", "imaginary": "0", "is_d2d_car_exportable": "ABLE", "lat": "35.014689", "lng": "126.71735", "parking_name": "나주역 옆(KTX)", "region1": "전라남도", "region2": "나주시", "region3": "송월동", "zone_id": "10857", "zone_name": "나주역 옆(KTX)"}, {"address": "전남 나주시 대호동 252 동신대학교 중앙도서관동", "car_count": "1", "imaginary": "0", "is_d2d_car_exportable": "ABLE", "lat": "35.050186", "lng": "126.717875", "parking_name": "동신대 중앙도서관", "region1": "전라남도", "region2": "나주시", "region3": "대호동", "zone_id": "1648", "zone_name": "동신대 중앙도서관"}, {"address": "전남 나주시 대호동 252-12 대정 1관", "car_count": "1", "imaginary": "0", "is_d2d_car_exportable": "ABLE", "lat": "35.04759", "lng": "126.718582", "parking_name": "동신대 첨단강의동", "region1": "전라남도", "region2": "나주시", "region3": "대호동", "zone_id": "17066", "zone_name": "동신대 첨단강의동"}, {"address": "전남 나주시 빛가람동 205-1", "car_count": "1", "imaginary": "0", "is_d2d_car_exportable": "ABLE", "lat": "35.02198", "lng": "126.792107", "parking_name": "빛가람동 행정복지센터 앞", "region1": "전라남도", "region2": "나주시", "region3": "빛가람동", "zone_id": "5660", "zone_name": "빛가람동 행정복지센터 앞"}, {"address": "전남 나주시 성북동 138-12 G마트", "car_count": "2", "imaginary": "0", "is_d2d_car_exportable": "ABLE", "lat": "35.034939", "lng": "126.720747", "parking_name": "성북동 행정복지센터 옆", "region1": "전라남도", "region2": "나주시", "region3": "성북동", "zone_id": "19626", "zone_name": "성북동 행정복지센터 옆"}, {"address": "전남 나주시 빛가람동 190-3", "car_count": "4", "imaginary": "0", "is_d2d_car_exportable": "ABLE", "lat": "35.022057", "lng": "126.787201", "parking_name": "한국전력공사 앞", "region1": "전라남도", "region2": "나주시", "region3": "빛가람동", "zone_id": "2920", "zone_name": "한국전력공사 앞"}, {"address": "전남 나주시 빛가람동 345", "car_count": "3", "imaginary": "0", "is_d2d_car_exportable": "ABLE", "lat": "35.017761", "lng": "126.785141", "parking_name": "한전KPS 앞", "region1": "전라남도", "region2": "나주시", "region3": "빛가람동", "zone_id": "5634", "zone_name": "한전KPS 앞"}, {"address": "광주 남구 월산동 393-2", "car_count": "1", "imaginary": "0", "is_d2d_car_exportable": "ABLE", "lat": "35.149787", "lng": "126.895749", "parking_name": "광주 동신대한방병원", "region1": "광주광역시", "region2": "남구", "region3": "월산동", "zone_id": "22732", "zone_name": "광주 동신대한방병원"}, {"address": "광주 남구 행암동 1", "car_count": "2", "imaginary": "0", "is_d2d_car_exportable": "ABLE", "lat": "35.105309", "lng": "126.897242", "parking_name": "광주대 앞", "region1": "광주광역시", "region2": "남구", "region3": "행암동", "zone_id": "20670", "zone_name": "광주대 앞"}, {"address": "광주 남구 진월동 258-7", "car_count": "1", "imaginary": "0", "is_d2d_car_exportable": "ABLE", "lat": "35.120735", "lng": "126.898499", "parking_name": "설빙진월점 주차장", "region1": "광주광역시", "region2": "남구", "region3": "진월동", "zone_id": "1282", "zone_name": "궁전제과진월점 옆"}, {"address": "광주 남구 주월동 1287-1 창신빌딩 창신빌딩 주차장", "car_count": "2", "imaginary": "0", "is_d2d_car_exportable": "ABLE", "lat": "35.132648", "lng": "126.90167", "parking_name": "창신빌딩", "region1": "광주광역시", "region2": "남구", "region3": "주월동", "zone_id": "13922", "zone_name": "남구청 앞(창신빌딩)"}, {"address": "광주 남구 진월동 304-1", "car_count": "1", "imaginary": "0", "is_d2d_car_exportable": "ABLE", "lat": "35.123151", "lng": "126.897603", "parking_name": "대광여자고등학교 옆", "region1": "광주광역시", "region2": "남구", "region3": "진월동", "zone_id": "19416", "zone_name": "대광여자고등학교 옆"}, {"address": "광주 남구 주월동 1119-3 하이마트", "car_count": "1", "imaginary": "0", "is_d2d_car_exportable": "ABLE", "lat": "35.128361", "lng": "126.904117", "parking_name": "롯데 하이마트 봉선점", "region1": "광주광역시", "region2": "남구", "region3": "주월동", "zone_id": "16565", "zone_name": "롯데 하이마트 봉선점"}, {"address": "광주 남구 주월동 973-6 아이노벨", "car_count": "1", "imaginary": "0", "is_d2d_car_exportable": "ABLE", "lat": "35.133495", "lng": "126.896247", "parking_name": "무등시장입구", "region1": "광주광역시", "region2": "남구", "region3": "주월동", "zone_id": "23064", "zone_name": "무등시장입구"}, {"address": "광주 남구 봉선동 176-2 한성빌딩 뒤편 지하주차장", "car_count": "2", "imaginary": "0", "is_d2d_car_exportable": "ABLE", "lat": "35.126274", "lng": "126.918536", "parking_name": "봉선동 무등1차앞 교차로", "region1": "광주광역시", "region2": "남구", "region3": "봉선동", "zone_id": "18865", "zone_name": "봉선동 무등1차앞 교차로"}, {"address": "광주 남구 양림동 485 뒤집고 주차장", "car_count": "2", "imaginary": "0", "is_d2d_car_exportable": "ABLE", "lat": "35.136578", "lng": "126.918502", "parking_name": "뒤집고 주차장", "region1": "광주광역시", "region2": "남구", "region3": "양림동", "zone_id": "7027", "zone_name": "학강초등학교 옆"}, {"address": "광주 남구 임암동 858", "car_count": "1", "imaginary": "0", "is_d2d_car_exportable": "ABLE", "lat": "35.102422", "lng": "126.874087", "parking_name": "효천 시티프라디움아파트  앞", "region1": "광주광역시", "region2": "남구", "region3": "임암동", "zone_id": "22733", "zone_name": "효천 시티프라디움아파트  앞"}, {"address": "전남 담양군 담양읍 백동리 671-2", "car_count": "3", "imaginary": "0", "is_d2d_car_exportable": "UNABLE", "lat": "35.313943", "lng": "126.982331", "parking_name": "담양공영버스터미널 옆", "region1": "전라남도", "region2": "담양군", "region3": "담양읍", "zone_id": "9509", "zone_name": "담양공영버스터미널 옆"}, {"address": "광주 동구 충장로4가 31-1", "car_count": "6", "imaginary": "0", "is_d2d_car_exportable": "ABLE", "lat": "35.149382", "lng": "126.912518", "parking_name": "광주 NC웨이브 충장점", "region1": "광주광역시", "region2": "동구", "region3": "충장로4가", "zone_id": "10187", "zone_name": "광주 NC웨이브 충장점"}, {"address": "광주 동구 계림동 588-11 프라임타워", "car_count": "2", "imaginary": "0", "is_d2d_car_exportable": "ABLE", "lat": "35.157958", "lng": "126.916677", "parking_name": "프라임타워", "region1": "광주광역시", "region2": "동구", "region3": "계림동", "zone_id": "14750", "zone_name": "광주 그랜드센트럴 앞"}, {"address": "광주 동구 금동 30-17 길타워주차장", "car_count": "2", "imaginary": "0", "is_d2d_car_exportable": "ABLE", "lat": "35.144379", "lng": "126.917187", "parking_name": "구시청 먹자골목", "region1": "광주광역시", "region2": "동구", "region3": "금동", "zone_id": "15871", "zone_name": "구시청 먹자골목"}, {"address": "광주 동구 황금동 80 황금주차빌딩", "car_count": "2", "imaginary": "0", "is_d2d_car_exportable": "ABLE", "lat": "35.146382", "lng": "126.916795", "parking_name": "국립아시아문화전당 옆", "region1": "광주광역시", "region2": "동구", "region3": "황금동", "zone_id": "20021", "zone_name": "국립아시아문화전당 옆"}, {"address": "광주광역시 동구 남동 87-2", "car_count": "1", "imaginary": "0", "is_d2d_car_exportable": "ABLE", "lat": "35.143657", "lng": "126.921561", "parking_name": "동구청 앞", "region1": "광주광역시", "region2": "동구", "region3": "남동", "zone_id": "22833", "zone_name": "동구청 앞"}, {"address": "광주 동구 금동 157-3", "car_count": "1", "imaginary": "0", "is_d2d_car_exportable": "ABLE", "lat": "35.142884", "lng": "126.918444", "parking_name": "비테라인테라스 옆", "region1": "광주광역시", "region2": "동구", "region3": "금동", "zone_id": "23134", "zone_name": "비테라인테라스 옆"}, {"address": "광주 동구 불로동 178 스타벅스 광주충장DT점", "car_count": "1", "imaginary": "0", "is_d2d_car_exportable": "ABLE", "lat": "35.144319", "lng": "126.915001", "parking_name": "스타벅스 광주충장DT점", "region1": "광주광역시", "region2": "동구", "region3": "불로동", "zone_id": "11987", "zone_name": "스타벅스 광주충장DT점"}, {"address": "광주 동구 금남로5가 99-6", "car_count": "2", "imaginary": "0", "is_d2d_car_exportable": "ABLE", "lat": "35.152417", "lng": "126.912545", "parking_name": "광주 선진주차장", "region1": "광주광역시", "region2": "동구", "region3": "금남로5가", "zone_id": "19237", "zone_name": "우리은행 광주금융센터 앞"}, {"address": "광주 동구 학동 118", "car_count": "1", "imaginary": "0", "is_d2d_car_exportable": "ABLE", "lat": "35.142122", "lng": "126.920229", "parking_name": "전남대병원 앞", "region1": "광주광역시", "region2": "동구", "region3": "학동", "zone_id": "22589", "zone_name": "전남대병원 앞"}, {"address": "광주 동구 서석동 506-1", "car_count": "2", "imaginary": "0", "is_d2d_car_exportable": "ABLE", "lat": "35.142535", "lng": "126.926426", "parking_name": "조선대 공과대학 제1공학관 앞", "region1": "광주광역시", "region2": "동구", "region3": "서석동", "zone_id": "4837", "zone_name": "조선대 공과대학 제1공학관 앞"}, {"address": "광주 동구 서석동 359-1", "car_count": "2", "imaginary": "0", "is_d2d_car_exportable": "ABLE", "lat": "35.142929", "lng": "126.932304", "parking_name": "조선대 국제관", "region1": "광주광역시", "region2": "동구", "region3": "서석동", "zone_id": "1679", "zone_name": "조선대 국제관"}, {"address": "광주 동구 서석동 416-1 조선대학교 미술대학 앞", "car_count": "2", "imaginary": "0", "is_d2d_car_exportable": "ABLE", "lat": "35.14417", "lng": "126.931124", "parking_name": "조선대 미술대학 앞", "region1": "광주광역시", "region2": "동구", "region3": "서석동", "zone_id": "14951", "zone_name": "조선대 미술대학 앞"}, {"address": "광주광역시 동구 동명동 11-38", "car_count": "3", "imaginary": "0", "is_d2d_car_exportable": "ABLE", "lat": "35.149476", "lng": "126.929855", "parking_name": "태영오피스텔 뒤", "region1": "광주광역시", "region2": "동구", "region3": "동명동", "zone_id": "16887", "zone_name": "태영오피스텔 뒤"}, {"address": "광주 동구 학동 750", "car_count": "2", "imaginary": "0", "is_d2d_car_exportable": "ABLE", "lat": "35.131989", "lng": "126.929169", "parking_name": "유정천사우나 주차장", "region1": "광주광역시", "region2": "동구", "region3": "학동", "zone_id": "3245", "zone_name": "학동증심사입구역 4번출구"}, {"address": "전남 목포시 상동 1133 원형1공영 주차장", "car_count": "5", "imaginary": "0", "is_d2d_car_exportable": "ABLE", "lat": "34.798065", "lng": "126.430271", "parking_name": "원형1주차장", "region1": "전라남도", "region2": "목포시", "region3": "상동", "zone_id": "5316", "zone_name": "롯데마트 목포점 옆"}, {"address": "전남 목포시 옥암동 1161", "car_count": "1", "imaginary": "0", "is_d2d_car_exportable": "ABLE", "lat": "34.807671", "lng": "126.438084", "parking_name": "롯데슈퍼 옥암점", "region1": "전라남도", "region2": "목포시", "region3": "옥암동", "zone_id": "23084", "zone_name": "롯데슈퍼 옥암점"}, {"address": "전남 목포시 상동 981", "car_count": "4", "imaginary": "5", "is_d2d_car_exportable": "ABLE", "lat": "34.800353", "lng": "126.422912", "parking_name": "롯데슈퍼 하당점", "region1": "전라남도", "region2": "목포시", "region3": "상동", "zone_id": "12944", "zone_name": "롯데슈퍼 하당점"}, {"address": "전남 목포시 석현동 1168-25", "car_count": "1", "imaginary": "0", "is_d2d_car_exportable": "ABLE", "lat": "34.813497", "lng": "126.422174", "parking_name": "목포 KD빌리앙뜨아파트 앞", "region1": "전라남도", "region2": "목포시", "region3": "석현동", "zone_id": "22588", "zone_name": "목포 KD빌리앙뜨아파트 앞"}, {"address": "전남 목포시 상동 869-3", "car_count": "1", "imaginary": "0", "is_d2d_car_exportable": "ABLE", "lat": "34.805656", "lng": "126.426025", "parking_name": "목포 스타시티빌딩", "region1": "전라남도", "region2": "목포시", "region3": "상동", "zone_id": "6065", "zone_name": "목포 스타시티빌딩"}, {"address": "전남 목포시 삼학로 27", "car_count": "1", "imaginary": "5", "is_d2d_car_exportable": "ABLE", "lat": "34.790911", "lng": "126.389031", "parking_name": "호남주차장", "region1": "전라남도", "region2": "목포시", "region3": "호남동", "zone_id": "1559", "zone_name": "목포역 뒤(KTX)"}, {"address": "전남 목포시 호남동 101", "car_count": "41", "imaginary": "0", "is_d2d_car_exportable": "ABLE", "lat": "34.793263", "lng": "126.38701", "parking_name": "목포역 옆(KTX)", "region1": "전라남도", "region2": "목포시", "region3": "호남동", "zone_id": "9079", "zone_name": "목포역 옆(KTX)"}, {"address": "전남 목포시 호남동 101", "car_count": "4", "imaginary": "0", "is_d2d_car_exportable": "ABLE", "lat": "34.793705", "lng": "126.387162", "parking_name": "목포역 옆(KTX)(전기차)", "region1": "전라남도", "region2": "목포시", "region3": "호남동", "zone_id": "17417", "zone_name": "목포역 옆(KTX)(전기차)"}, {"address": "전남 목포시 상락동1가 11-1", "car_count": "14", "imaginary": "0", "is_d2d_car_exportable": "ABLE", "lat": "34.788828", "lng": "126.386887", "parking_name": "목포역(KTX)", "region1": "전라남도", "region2": "목포시", "region3": "상락동1가", "zone_id": "9306", "zone_name": "목포역(KTX)"}, {"address": "전남 목포시 상동 220", "car_count": "6", "imaginary": "0", "is_d2d_car_exportable": "ABLE", "lat": "34.812721", "lng": "126.417198", "parking_name": "목포버스터미널 주차장", "region1": "전라남도", "region2": "목포시", "region3": "상동", "zone_id": "2313", "zone_name": "목포종합버스터미널"}, {"address": "전남 목포시 상동 1000-6", "car_count": "2", "imaginary": "0", "is_d2d_car_exportable": "ABLE", "lat": "34.803181", "lng": "126.426986", "parking_name": "목원주차장(버거킹 목포하당점)", "region1": "전라남도", "region2": "목포시", "region3": "상동", "zone_id": "15873", "zone_name": "버거킹 목포하당점"}, {"address": "전남 목포시 상동 927-5", "car_count": "2", "imaginary": "0", "is_d2d_car_exportable": "ABLE", "lat": "34.802475", "lng": "126.417", "parking_name": "전자랜드 목포점 주차장", "region1": "전라남도", "region2": "목포시", "region3": "상동", "zone_id": "1983", "zone_name": "전자랜드 목포점"}, {"address": "전남 목포시 상동 1032-1", "car_count": "2", "imaginary": "0", "is_d2d_car_exportable": "ABLE", "lat": "34.800582", "lng": "126.430277", "parking_name": "호텔야자 목포평화광장점", "region1": "전라남도", "region2": "목포시", "region3": "상동", "zone_id": "16426", "zone_name": "호텔야자 목포평화광장점"}, {"address": "전남 무안군 청계면 도림리61", "car_count": "1", "imaginary": "0", "is_d2d_car_exportable": "ABLE", "lat": "34.908489", "lng": "126.434264", "parking_name": " 목포대 대학본부 앞", "region1": "전라남도", "region2": "무안군", "region3": "청계면", "zone_id": "1650", "zone_name": " 목포대 대학본부 앞"}, {"address": "전남 무안군 청계면 도림리61", "car_count": "1", "imaginary": "0", "is_d2d_car_exportable": "ABLE", "lat": "34.911678", "lng": "126.435273", "parking_name": "목포대 공동실험실습관", "region1": "전라남도", "region2": "무안군", "region3": "청계면", "zone_id": "7121", "zone_name": "목포대 공동실험실습관"}, {"address": "전남 무안군 삼향읍 남악리 2075", "car_count": "2", "imaginary": "0", "is_d2d_car_exportable": "ABLE", "lat": "34.813966", "lng": "126.458745", "parking_name": "전남개발공사 옆", "region1": "전라남도", "region2": "무안군", "region3": "삼향읍", "zone_id": "14843", "zone_name": "전남개발공사 옆"}, {"address": "전남 무안군 삼향읍 남악리 2123 제일파킹프라자", "car_count": "2", "imaginary": "0", "is_d2d_car_exportable": "ABLE", "lat": "34.813322", "lng": "126.461258", "parking_name": "전남도청 앞", "region1": "전라남도", "region2": "무안군", "region3": "삼향읍", "zone_id": "15516", "zone_name": "전남도청 앞"}, {"address": "전남 무안군 삼향읍 남악리 2133", "car_count": "1", "imaginary": "0", "is_d2d_car_exportable": "ABLE", "lat": "34.813512", "lng": "126.464043", "parking_name": "한솔문고 남악점", "region1": "전라남도", "region2": "무안군", "region3": "삼향읍", "zone_id": "22729", "zone_name": "한솔문고 남악점"}, {"address": "광주 북구 용봉동 17-1 하미스포렉스", "car_count": "6", "imaginary": "0", "is_d2d_car_exportable": "ABLE", "lat": "35.182731", "lng": "126.911805", "parking_name": "CGV 광주용봉점", "region1": "광주광역시", "region2": "북구", "region3": "용봉동", "zone_id": "14882", "zone_name": "CGV 광주용봉점"}, {"address": "광주 북구 중흥동 707-9  아마노 광주역점", "car_count": "1", "imaginary": "0", "is_d2d_car_exportable": "ABLE", "lat": "35.161339", "lng": "126.908387", "parking_name": "NC백화점 광주역점 앞", "region1": "광주광역시", "region2": "북구", "region3": "중흥동", "zone_id": "12936", "zone_name": "NC백화점 광주역점 앞"}, {"address": "광주 북구 두암동 174-6 SM마트 두암점", "car_count": "1", "imaginary": "0", "is_d2d_car_exportable": "ABLE", "lat": "35.167416", "lng": "126.936795", "parking_name": "SM마트 두암점", "region1": "광주광역시", "region2": "북구", "region3": "두암동", "zone_id": "14426", "zone_name": "SM마트 두암점"}, {"address": "광주 북구 문흥동 957-1 문정초등학교앞 공영주차장", "car_count": "1", "imaginary": "0", "is_d2d_car_exportable": "ABLE", "lat": "35.188335", "lng": "126.921161", "parking_name": "광주 문정초등학교 앞", "region1": "광주광역시", "region2": "북구", "region3": "문흥동", "zone_id": "13488", "zone_name": "광주 문정초등학교 앞"}, {"address": "광주 북구 신용동 859 대성건설 주차장 지상3층", "car_count": "1", "imaginary": "0", "is_d2d_car_exportable": "ABLE", "lat": "35.207299", "lng": "126.864856", "parking_name": "대성건설 주차장", "region1": "광주광역시", "region2": "북구", "region3": "신용동", "zone_id": "13934", "zone_name": "광주 첨단2지구대성베르힐 옆"}, {"address": "광주광역시 북구 중흥동 611-15", "car_count": "2", "imaginary": "0", "is_d2d_car_exportable": "ABLE", "lat": "35.165548", "lng": "126.907617", "parking_name": "광주역 옆", "region1": "광주광역시", "region2": "북구", "region3": "중흥동", "zone_id": "1185", "zone_name": "광주역 옆"}, {"address": "광주 북구 두암동 712 동강대학,동신중.고,동신여중.고등학교 동강대학교 후문", "car_count": "2", "imaginary": "0", "is_d2d_car_exportable": "ABLE", "lat": "35.169613", "lng": "126.92541", "parking_name": "동강대학교", "region1": "광주광역시", "region2": "북구", "region3": "두암동", "zone_id": "13676", "zone_name": "동강대학교"}, {"address": "광주 북구 동림동 885-3 신광빌딩 1층 주차장", "car_count": "1", "imaginary": "0", "is_d2d_car_exportable": "ABLE", "lat": "35.172025", "lng": "126.869765", "parking_name": "동천동 우체국 건너편", "region1": "광주광역시", "region2": "북구", "region3": "동림동", "zone_id": "4442", "zone_name": "동천동 우체국 건너편"}, {"address": "광주 북구 두암동 575-10 동광주하이마트", "car_count": "1", "imaginary": "0", "is_d2d_car_exportable": "ABLE", "lat": "35.1789", "lng": "126.929792", "parking_name": "롯데 하이마트 동광주점", "region1": "광주광역시", "region2": "북구", "region3": "두암동", "zone_id": "16566", "zone_name": "롯데 하이마트 동광주점"}, {"address": "광주 북구 매곡동 468-2", "car_count": "1", "imaginary": "5", "is_d2d_car_exportable": "ABLE", "lat": "35.188018", "lng": "126.89845", "parking_name": "매곡동 동남아파트 앞", "region1": "광주광역시", "region2": "북구", "region3": "매곡동", "zone_id": "17335", "zone_name": "매곡동 동남아파트 앞"}, {"address": "광주 북구 매곡동 15-3", "car_count": "2", "imaginary": "0", "is_d2d_car_exportable": "ABLE", "lat": "35.189531", "lng": "126.898675", "parking_name": "비와이씨 매곡점", "region1": "광주광역시", "region2": "북구", "region3": "매곡동", "zone_id": "17444", "zone_name": "비와이씨 매곡점"}, {"address": "광주 북구 운암동 1792 센트럴운암모아엘가트레뷰", "car_count": "1", "imaginary": "0", "is_d2d_car_exportable": "ABLE", "lat": "35.178068", "lng": "126.878091", "parking_name": "센트럴운암모아엘가트레뷰", "region1": "광주광역시", "region2": "북구", "region3": "운암동", "zone_id": "22829", "zone_name": "센트럴운암모아엘가트레뷰"}, {"address": "광주 북구 양산동 801", "car_count": "2", "imaginary": "0", "is_d2d_car_exportable": "ABLE", "lat": "35.210253", "lng": "126.875563", "parking_name": "양산명지써밋 뒤편", "region1": "광주광역시", "region2": "북구", "region3": "양산동", "zone_id": "20141", "zone_name": "양산명지써밋 뒤편"}, {"address": "광주 북구 용봉동 1401-2", "car_count": "1", "imaginary": "0", "is_d2d_car_exportable": "ABLE", "lat": "35.177395", "lng": "126.896561", "parking_name": "용봉모아아파트 옆", "region1": "광주광역시", "region2": "북구", "region3": "용봉동", "zone_id": "5245", "zone_name": "용봉모아아파트 옆"}, {"address": "광주 북구 용봉동 1377-2", "car_count": "2", "imaginary": "0", "is_d2d_car_exportable": "ABLE", "lat": "35.179091", "lng": "126.893812", "parking_name": "용봉아이파크 인근", "region1": "광주광역시", "region2": "북구", "region3": "용봉동", "zone_id": "19188", "zone_name": "용봉아이파크 인근"}, {"address": "광주 북구 용봉동 1229 빅토리 주차장", "car_count": "2", "imaginary": "0", "is_d2d_car_exportable": "ABLE", "lat": "35.18057", "lng": "126.900057", "parking_name": "용주초등학교 뒤", "region1": "광주광역시", "region2": "북구", "region3": "용봉동", "zone_id": "18721", "zone_name": "용주초등학교 뒤"}, {"address": "광주 북구 일곡동 845-1", "car_count": "2", "imaginary": "0", "is_d2d_car_exportable": "ABLE", "lat": "35.204514", "lng": "126.897224", "parking_name": "이마트에브리데이 일곡동점", "region1": "광주광역시", "region2": "북구", "region3": "일곡동", "zone_id": "1878", "zone_name": "이마트에브리데이 일곡동점"}, {"address": "광주 북구 용봉동 1226-3", "car_count": "3", "imaginary": "0", "is_d2d_car_exportable": "ABLE", "lat": "35.180648", "lng": "126.902482", "parking_name": "전일카센터 주차장", "region1": "광주광역시", "region2": "북구", "region3": "용봉동", "zone_id": "1508", "zone_name": "전남대 예대 뒤"}, {"address": "광주 북구 신안동 473-20", "car_count": "2", "imaginary": "0", "is_d2d_car_exportable": "ABLE", "lat": "35.170771", "lng": "126.899285", "parking_name": "전남대 치과병원 앞", "region1": "광주광역시", "region2": "북구", "region3": "신안동", "zone_id": "3308", "zone_name": "전남대 치과병원 앞"}, {"address": "광주 북구 문흥동 737-24 시그니처", "car_count": "2", "imaginary": "0", "is_d2d_car_exportable": "ABLE", "lat": "35.177841", "lng": "126.915872", "parking_name": "전남대 후문(시그니처)", "region1": "광주광역시", "region2": "북구", "region3": "문흥동", "zone_id": "18720", "zone_name": "전남대 후문(시그니처)"}, {"address": "광주 북구 문흥동 742-15", "car_count": "2", "imaginary": "0", "is_d2d_car_exportable": "ABLE", "lat": "35.176787", "lng": "126.916713", "parking_name": "전남대 후문(어울림)", "region1": "광주광역시", "region2": "북구", "region3": "문흥동", "zone_id": "16946", "zone_name": "전남대 후문(어울림)"}, {"address": "광주 북구 용봉동 145-28", "car_count": "1", "imaginary": "0", "is_d2d_car_exportable": "ABLE", "lat": "35.178713", "lng": "126.91474", "parking_name": "전남대 후문(에베레스트)", "region1": "광주광역시", "region2": "북구", "region3": "용봉동", "zone_id": "19809", "zone_name": "전남대 후문(에베레스트)"}, {"address": "광주 북구 용봉동 126-3 대연빌딩 주차장", "car_count": "1", "imaginary": "0", "is_d2d_car_exportable": "ABLE", "lat": "35.179914", "lng": "126.912397", "parking_name": "전대후문 대연빌딩 주차장", "region1": "광주광역시", "region2": "북구", "region3": "용봉동", "zone_id": "23024", "zone_name": "전대후문 대연빌딩 주차장"}, {"address": "광주광역시 북구 연제동 1026-1", "car_count": "2", "imaginary": "0", "is_d2d_car_exportable": "ABLE", "lat": "35.205973", "lng": "126.860266", "parking_name": "첨단 휴먼시아 앞", "region1": "광주광역시", "region2": "북구", "region3": "연제동", "zone_id": "19187", "zone_name": "첨단 휴먼시아 앞"}, {"address": "광주 북구 중흥동 331-58", "car_count": "1", "imaginary": "0", "is_d2d_car_exportable": "ABLE", "lat": "35.171322", "lng": "126.909558", "parking_name": "평화볼링센터 앞", "region1": "광주광역시", "region2": "북구", "region3": "중흥동", "zone_id": "16615", "zone_name": "평화볼링센터 앞"}, {"address": "광주 북구 유동 109-17 청운주차장", "car_count": "1", "imaginary": "0", "is_d2d_car_exportable": "ABLE", "lat": "35.158687", "lng": "126.905693", "parking_name": "해피뷰병원 앞", "region1": "광주광역시", "region2": "북구", "region3": "유동", "zone_id": "14111", "zone_name": "해피뷰병원 앞"}, {"address": "광주 서구 치평동 1210-5 상무주차장", "car_count": "2", "imaginary": "0", "is_d2d_car_exportable": "ABLE", "lat": "35.156295", "lng": "126.850435", "parking_name": "CMB 광주방송 앞", "region1": "광주광역시", "region2": "서구", "region3": "치평동", "zone_id": "19736", "zone_name": "CMB 광주방송 앞"}, {"address": "광주 서구 풍암동 685", "car_count": "1", "imaginary": "0", "is_d2d_car_exportable": "ABLE", "lat": "35.118384", "lng": "126.866299", "parking_name": "광주 SM식자재마트풍암점", "region1": "광주광역시", "region2": "서구", "region3": "풍암동", "zone_id": "19630", "zone_name": "광주 SM식자재마트풍암점"}, {"address": "광주 서구 쌍촌동 1252", "car_count": "1", "imaginary": "0", "is_d2d_car_exportable": "ABLE", "lat": "35.141244", "lng": "126.858162", "parking_name": "광주 금호지플레이스", "region1": "광주광역시", "region2": "서구", "region3": "쌍촌동", "zone_id": "22535", "zone_name": "광주 금호지플레이스"}, {"address": "광주 서구 광천동 54-38", "car_count": "1", "imaginary": "0", "is_d2d_car_exportable": "ABLE", "lat": "35.162676", "lng": "126.881143", "parking_name": "광주 호반써밋 뒤", "region1": "광주광역시", "region2": "서구", "region3": "광천동", "zone_id": "18375", "zone_name": "광주 호반써밋 뒤"}, {"address": "광주 서구 치평동 1166-11", "car_count": "1", "imaginary": "0", "is_d2d_car_exportable": "ABLE", "lat": "35.155388", "lng": "126.84697", "parking_name": "광주평화방송", "region1": "광주광역시", "region2": "서구", "region3": "치평동", "zone_id": "2847", "zone_name": "광주평화방송"}, {"address": "광주 서구 화정동 23-38", "car_count": "1", "imaginary": "0", "is_d2d_car_exportable": "ABLE", "lat": "35.157776", "lng": "126.878296", "parking_name": "무등주차장", "region1": "광주광역시", "region2": "서구", "region3": "화정동", "zone_id": "3693", "zone_name": "금호월드 옆"}, {"address": "광주 서구 내방동 407 동강빌라", "car_count": "1", "imaginary": "0", "is_d2d_car_exportable": "ABLE", "lat": "35.154029", "lng": "126.871163", "parking_name": "내방주공아파트 옆", "region1": "광주광역시", "region2": "서구", "region3": "내방동", "zone_id": "18722", "zone_name": "내방주공아파트 옆"}, {"address": "광주 서구 풍암동 1109-1 롯데슈퍼센터 롯데슈퍼 풍암점 지상3층", "car_count": "3", "imaginary": "0", "is_d2d_car_exportable": "ABLE", "lat": "35.127204", "lng": "126.879073", "parking_name": "롯데슈퍼 풍암점", "region1": "광주광역시", "region2": "서구", "region3": "풍암동", "zone_id": "11907", "zone_name": "롯데슈퍼 풍암점"}, {"address": "광주 서구 농성동 644-12 한림빌딩", "car_count": "1", "imaginary": "0", "is_d2d_car_exportable": "ABLE", "lat": "35.150581", "lng": "126.88702", "parking_name": "바른초밥 광주본점", "region1": "광주광역시", "region2": "서구", "region3": "농성동", "zone_id": "17443", "zone_name": "바른초밥 광주본점"}, {"address": "광주 서구 치평동 278-9 제2주차장", "car_count": "2", "imaginary": "0", "is_d2d_car_exportable": "ABLE", "lat": "35.147975", "lng": "126.852792", "parking_name": "상무SK뷰아파트 옆", "region1": "광주광역시", "region2": "서구", "region3": "치평동", "zone_id": "15879", "zone_name": "상무SK뷰아파트 옆"}, {"address": "광주 서구 쌍촌동 1286", "car_count": "8", "imaginary": "0", "is_d2d_car_exportable": "ABLE", "lat": "35.155879", "lng": "126.86275", "parking_name": "상무힐스테이트아파트 앞", "region1": "광주광역시", "region2": "서구", "region3": "쌍촌동", "zone_id": "3746", "zone_name": "상무힐스테이트아파트 앞"}, {"address": "광주 서구 금호동 799", "car_count": "4", "imaginary": "5", "is_d2d_car_exportable": "ABLE", "lat": "35.130901", "lng": "126.858795", "parking_name": "금호사우나 주차장", "region1": "광주광역시", "region2": "서구", "region3": "금호동", "zone_id": "1196", "zone_name": "서구문화센터 앞"}, {"address": "광주 서구 농성동 641-24 농성주차장", "car_count": "2", "imaginary": "0", "is_d2d_car_exportable": "ABLE", "lat": "35.151787", "lng": "126.888606", "parking_name": "농성주차장", "region1": "광주광역시", "region2": "서구", "region3": "농성동", "zone_id": "12777", "zone_name": "서구청 앞"}, {"address": "광주 서구 쌍촌동 1002-6 장성강정형외과 옥외 주차장", "car_count": "4", "imaginary": "0", "is_d2d_car_exportable": "ABLE", "lat": "35.151351", "lng": "126.870413", "parking_name": "쌍촌역 1번출구", "region1": "광주광역시", "region2": "서구", "region3": "쌍촌동", "zone_id": "14842", "zone_name": "쌍촌역 1번출구"}, {"address": "광주 서구 쌍촌동 888-3", "car_count": "2", "imaginary": "0", "is_d2d_car_exportable": "ABLE", "lat": "35.146229", "lng": "126.855652", "parking_name": "안디옥교회 주차장", "region1": "광주광역시", "region2": "서구", "region3": "쌍촌동", "zone_id": "4059", "zone_name": "안디옥교회"}, {"address": "광주 서구 치평동 1217-9 영효빌딩", "car_count": "6", "imaginary": "0", "is_d2d_car_exportable": "ABLE", "lat": "35.154688", "lng": "126.849485", "parking_name": "하이파킹 광주영효주차타워점", "region1": "광주광역시", "region2": "서구", "region3": "치평동", "zone_id": "10093", "zone_name": "우리은행 상무점 뒤"}, {"address": "광주광역시 서구 쌍촌동 981-16", "car_count": "3", "imaginary": "0", "is_d2d_car_exportable": "ABLE", "lat": "35.14994", "lng": "126.858173", "parking_name": "운천역 2번출구", "region1": "광주광역시", "region2": "서구", "region3": "쌍촌동", "zone_id": "14719", "zone_name": "운천역 2번출구"}, {"address": "광주 서구 쌍촌동 969-24", "car_count": "3", "imaginary": "0", "is_d2d_car_exportable": "ABLE", "lat": "35.151323", "lng": "126.857079", "parking_name": "운천역 3번출구", "region1": "광주광역시", "region2": "서구", "region3": "쌍촌동", "zone_id": "20278", "zone_name": "운천역 3번출구"}, {"address": "광주 서구 광천동 49-1", "car_count": "20", "imaginary": "0", "is_d2d_car_exportable": "ABLE", "lat": "35.161053", "lng": "126.877655", "parking_name": "유스퀘어", "region1": "광주광역시", "region2": "서구", "region3": "광천동", "zone_id": "1879", "zone_name": "유스퀘어"}, {"address": "광주 서구 광천동 49-1", "car_count": "2", "imaginary": "0", "is_d2d_car_exportable": "ABLE", "lat": "35.160812", "lng": "126.877633", "parking_name": "유스퀘어(전기차)", "region1": "광주광역시", "region2": "서구", "region3": "광천동", "zone_id": "22613", "zone_name": "유스퀘어(전기차)"}, {"address": "광주 서구 마륵동 162-34", "car_count": "1", "imaginary": "0", "is_d2d_car_exportable": "ABLE", "lat": "35.146423", "lng": "126.848991", "parking_name": "전자랜드 상무점", "region1": "광주광역시", "region2": "서구", "region3": "마륵동", "zone_id": "1923", "zone_name": "전자랜드 상무점"}, {"address": "광주 서구 화정동 773-1", "car_count": "1", "imaginary": "0", "is_d2d_car_exportable": "ABLE", "lat": "35.152155", "lng": "126.880826", "parking_name": "중앙병원 뒤", "region1": "광주광역시", "region2": "서구", "region3": "화정동", "zone_id": "20250", "zone_name": "중앙병원 뒤"}, {"address": "광주 서구 치평동 1209-6 (광주 치평주차장) 광주 치평주차장", "car_count": "4", "imaginary": "0", "is_d2d_car_exportable": "ABLE", "lat": "35.155565", "lng": "126.852818", "parking_name": "한국부동산원 광주지사 옆", "region1": "광주광역시", "region2": "서구", "region3": "치평동", "zone_id": "15791", "zone_name": "한국부동산원 광주지사 옆"}, {"address": "광주 서구 농성동 166-12", "car_count": "1", "imaginary": "0", "is_d2d_car_exportable": "ABLE", "lat": "35.150994", "lng": "126.889706", "parking_name": "한국전력공사 서광주지사 앞", "region1": "광주광역시", "region2": "서구", "region3": "농성동", "zone_id": "17519", "zone_name": "한국전력공사 서광주지사 앞"}, {"address": "광주 서구 화정동 23-20 해광샹그릴라 센트럴337 지하2층", "car_count": "1", "imaginary": "0", "is_d2d_car_exportable": "ABLE", "lat": "35.157752", "lng": "126.87757", "parking_name": "해광샹그릴라센트럴", "region1": "광주광역시", "region2": "서구", "region3": "화정동", "zone_id": "13658", "zone_name": "해광샹그릴라센트럴"}, {"address": "광주 서구 풍암동 423-24", "car_count": "4", "imaginary": "0", "is_d2d_car_exportable": "ABLE", "lat": "35.136101", "lng": "126.874233", "parking_name": "화정엘리체퍼스티지 옆", "region1": "광주광역시", "region2": "서구", "region3": "풍암동", "zone_id": "19508", "zone_name": "화정엘리체퍼스티지 옆"}, {"address": "광주 서구 화정동 628 어반스퀘어", "car_count": "1", "imaginary": "0", "is_d2d_car_exportable": "ABLE", "lat": "35.145877", "lng": "126.881248", "parking_name": "화정중학교 옆", "region1": "광주광역시", "region2": "서구", "region3": "화정동", "zone_id": "20893", "zone_name": "화정중학교 옆"}, {"address": "전남 순천시 용당동 580-26", "car_count": "1", "imaginary": "0", "is_d2d_car_exportable": "ABLE", "lat": "34.9722", "lng": "127.490107", "parking_name": " 용당하나로마트 앞", "region1": "전라남도", "region2": "순천시", "region3": "용당동", "zone_id": "14703", "zone_name": " 용당하나로마트 앞"}, {"address": "전남 순천시 황전면 선변리 822-1", "car_count": "22", "imaginary": "0", "is_d2d_car_exportable": "ABLE", "lat": "35.162965", "lng": "127.454114", "parking_name": "구례구역 앞(KTX)", "region1": "전라남도", "region2": "순천시", "region3": "황전면", "zone_id": "14322", "zone_name": "구례구역 앞(KTX)"}, {"address": "전남 순천시 황전면 선변리 818", "car_count": "11", "imaginary": "0", "is_d2d_car_exportable": "ABLE", "lat": "35.162142", "lng": "127.454965", "parking_name": "구례구역 옆(KTX)", "region1": "전라남도", "region2": "순천시", "region3": "황전면", "zone_id": "20619", "zone_name": "구례구역 옆(KTX)"}, {"address": "전남 순천시 해룡면 신대리 2030-2", "car_count": "1", "imaginary": "0", "is_d2d_car_exportable": "ABLE", "lat": "34.928244", "lng": "127.551792", "parking_name": "매안초등학교 옆 공영주차장", "region1": "전라남도", "region2": "순천시", "region3": "해룡면", "zone_id": "14002", "zone_name": "매안초등학교 옆"}, {"address": "전남 순천시 연향동 1481-1", "car_count": "5", "imaginary": "0", "is_d2d_car_exportable": "ABLE", "lat": "34.947692", "lng": "127.524559", "parking_name": "순천 동명초등학교 옆", "region1": "전라남도", "region2": "순천시", "region3": "연향동", "zone_id": "17632", "zone_name": "순천 동명초등학교 옆"}, {"address": "전남 순천시 조례동 584-21", "car_count": "2", "imaginary": "0", "is_d2d_car_exportable": "ABLE", "lat": "34.963459", "lng": "127.521964", "parking_name": "그랜드 주차장", "region1": "전라남도", "region2": "순천시", "region3": "조례동", "zone_id": "14837", "zone_name": "순천강남여자고등학교 앞"}, {"address": "전남 순천시 석현동 258-1", "car_count": "1", "imaginary": "0", "is_d2d_car_exportable": "ABLE", "lat": "34.970367", "lng": "127.478104", "parking_name": "순천대 공과대학 1호관", "region1": "전라남도", "region2": "순천시", "region3": "석현동", "zone_id": "5324", "zone_name": "순천대 공과대학 1호관"}, {"address": "전남 순천시 석현동 313", "car_count": "1", "imaginary": "0", "is_d2d_car_exportable": "ABLE", "lat": "34.967945", "lng": "127.47937", "parking_name": "순천대 기초교육관", "region1": "전라남도", "region2": "순천시", "region3": "석현동", "zone_id": "1758", "zone_name": "순천대 기초교육관"}, {"address": "전남 순천시 석현동 118-2", "car_count": "2", "imaginary": "0", "is_d2d_car_exportable": "ABLE", "lat": "34.969494", "lng": "127.482689", "parking_name": "순천대 박물관", "region1": "전라남도", "region2": "순천시", "region3": "석현동", "zone_id": "4762", "zone_name": "순천대 박물관"}, {"address": "전남 순천시 풍덕동 886-11", "car_count": "2", "imaginary": "0", "is_d2d_car_exportable": "ABLE", "lat": "34.943939", "lng": "127.501633", "parking_name": "좋은이웃 노인복지센터 옆", "region1": "전라남도", "region2": "순천시", "region3": "풍덕동", "zone_id": "6510", "zone_name": "순천역 교차로(KTX)"}, {"address": "전남 순천시 풍덕동 886-11", "car_count": "2", "imaginary": "0", "is_d2d_car_exportable": "ABLE", "lat": "34.943904", "lng": "127.501534", "parking_name": "좋은이웃 노인복지센터 옆", "region1": "전라남도", "region2": "순천시", "region3": "풍덕동", "zone_id": "17416", "zone_name": "순천역 교차로(KTX)(전기차)"}, {"address": "전남 순천시 풍덕동 884-4", "car_count": "18", "imaginary": "0", "is_d2d_car_exportable": "ABLE", "lat": "34.944699", "lng": "127.500696", "parking_name": "순천역 앞(KTX)", "region1": "전라남도", "region2": "순천시", "region3": "풍덕동", "zone_id": "9878", "zone_name": "순천역 앞(KTX)"}, {"address": "전남 순천시 덕암동 188-89", "car_count": "5", "imaginary": "0", "is_d2d_car_exportable": "ABLE", "lat": "34.944328", "lng": "127.505463", "parking_name": "순천역 옆(KTX)", "region1": "전라남도", "region2": "순천시", "region3": "덕암동", "zone_id": "1968", "zone_name": "순천역 옆(KTX)"}, {"address": "전남 순천시 조곡동 155-2", "car_count": "2", "imaginary": "0", "is_d2d_car_exportable": "ABLE", "lat": "34.946243", "lng": "127.500099", "parking_name": "순천역 팔마모텔(KTX)", "region1": "전라남도", "region2": "순천시", "region3": "조곡동", "zone_id": "6008", "zone_name": "순천역 팔마모텔(KTX)"}, {"address": "전남 순천시 덕암동 188-35", "car_count": "21", "imaginary": "0", "is_d2d_car_exportable": "UNABLE", "lat": "34.945334", "lng": "127.503622", "parking_name": "순천역(KTX) 모빌리티", "region1": "전라남도", "region2": "순천시", "region3": "덕암동", "zone_id": "17759", "zone_name": "순천역(KTX) 모빌리티"}, {"address": "전남 순천시 덕암동 188-35", "car_count": "3", "imaginary": "0", "is_d2d_car_exportable": "ABLE", "lat": "34.945093", "lng": "127.503448", "parking_name": "순천역(KTX) 모빌리티(전기차)", "region1": "전라남도", "region2": "순천시", "region3": "덕암동", "zone_id": "21856", "zone_name": "순천역(KTX) 모빌리티(전기차)"}, {"address": "전남 순천시 조례동 1246-1", "car_count": "2", "imaginary": "0", "is_d2d_car_exportable": "ABLE", "lat": "34.950743", "lng": "127.515605", "parking_name": "성주빌딩 주차장", "region1": "전라남도", "region2": "순천시", "region3": "조례동", "zone_id": "14929", "zone_name": "순천오네뜨센트럴 앞"}, {"address": "전남 순천시 장천동 18-35", "car_count": "2", "imaginary": "0", "is_d2d_car_exportable": "ABLE", "lat": "34.947845", "lng": "127.491196", "parking_name": "순천종합버스터미널", "region1": "전라남도", "region2": "순천시", "region3": "장천동", "zone_id": "11910", "zone_name": "순천종합버스터미널"}, {"address": "전남 순천시 장천동 32-12", "car_count": "1", "imaginary": "0", "is_d2d_car_exportable": "ABLE", "lat": "34.949039", "lng": "127.490883", "parking_name": "세종각모텔 부속주차장", "region1": "전라남도", "region2": "순천시", "region3": "장천동", "zone_id": "6075", "zone_name": "순천종합버스터미널 옆"}, {"address": "전라남도 순천시 해룡면 신대리 1984-5", "car_count": "1", "imaginary": "0", "is_d2d_car_exportable": "ABLE", "lat": "34.934762", "lng": "127.551428", "parking_name": "신대 119안전센터 앞", "region1": "전라남도", "region2": "순천시", "region3": "해룡면", "zone_id": "22730", "zone_name": "신대 119안전센터 앞"}, {"address": "전남 순천시 조례동 1722-8", "car_count": "5", "imaginary": "5", "is_d2d_car_exportable": "ABLE", "lat": "34.954258", "lng": "127.520325", "parking_name": "에코그라드호텔 앞", "region1": "전라남도", "region2": "순천시", "region3": "조례동", "zone_id": "2999", "zone_name": "에코그라드호텔 앞"}, {"address": "전남 순천시 왕지동 868-1", "car_count": "1", "imaginary": "0", "is_d2d_car_exportable": "ABLE", "lat": "34.968752", "lng": "127.522728", "parking_name": "왕조지구대 앞", "region1": "전라남도", "region2": "순천시", "region3": "왕지동", "zone_id": "22854", "zone_name": "왕조지구대 앞"}, {"address": "전남 순천시 덕암동 146-3", "car_count": "1", "imaginary": "0", "is_d2d_car_exportable": "ABLE", "lat": "34.942175", "lng": "127.5093", "parking_name": "이마트 순천점", "region1": "전라남도", "region2": "순천시", "region3": "덕암동", "zone_id": "9572", "zone_name": "이마트 순천점"}, {"address": "전남 순천시 조례동 1591", "car_count": "1", "imaginary": "0", "is_d2d_car_exportable": "ABLE", "lat": "34.954723", "lng": "127.525368", "parking_name": "메가타워 주차장", "region1": "전라남도", "region2": "순천시", "region3": "조례동", "zone_id": "1920", "zone_name": "폴리텍대학 순천캠퍼스 옆"}, {"address": "전남 여수시 학동 46-4", "car_count": "5", "imaginary": "5", "is_d2d_car_exportable": "ABLE", "lat": "34.76516", "lng": "127.66217", "parking_name": "여수학동주차장", "region1": "전라남도", "region2": "여수시", "region3": "학동", "zone_id": "4814", "zone_name": "농협 신여수지점 뒤"}, {"address": "전남 여수시 학동 36-1", "car_count": "1", "imaginary": "0", "is_d2d_car_exportable": "ABLE", "lat": "34.764732", "lng": "127.66336", "parking_name": "다이소 여수여천점", "region1": "전라남도", "region2": "여수시", "region3": "학동", "zone_id": "8545", "zone_name": "다이소 여수여천점"}, {"address": "전남 여수시 미평동 570-10 하이마트", "car_count": "1", "imaginary": "0", "is_d2d_car_exportable": "ABLE", "lat": "34.766833", "lng": "127.702731", "parking_name": "롯데 하이마트 여수점", "region1": "전라남도", "region2": "여수시", "region3": "미평동", "zone_id": "16753", "zone_name": "롯데 하이마트 여수점"}, {"address": "전남 여수시 학동 67-9", "car_count": "1", "imaginary": "0", "is_d2d_car_exportable": "ABLE", "lat": "34.761561", "lng": "127.662044", "parking_name": "롯데 하이마트 여천점", "region1": "전라남도", "region2": "여수시", "region3": "학동", "zone_id": "16751", "zone_name": "롯데 하이마트 여천점"}, {"address": "전남 여수시 웅천동 1868-4", "car_count": "4", "imaginary": "0", "is_d2d_car_exportable": "ABLE", "lat": "34.741543", "lng": "127.676766", "parking_name": "르컬렉티브 여수", "region1": "전라남도", "region2": "여수시", "region3": "웅천동", "zone_id": "14544", "zone_name": "르컬렉티브 여수"}, {"address": "전남 여수시 화장동 856-6", "car_count": "1", "imaginary": "0", "is_d2d_car_exportable": "ABLE", "lat": "34.775005", "lng": "127.643137", "parking_name": "성산공원 앞", "region1": "전라남도", "region2": "여수시", "region3": "화장동", "zone_id": "18248", "zone_name": "성산공원 앞"}, {"address": "전남 여수시 문수동 128-3", "car_count": "1", "imaginary": "0", "is_d2d_car_exportable": "ABLE", "lat": "34.75251", "lng": "127.701662", "parking_name": "여수 문수중학교 옆", "region1": "전라남도", "region2": "여수시", "region3": "문수동", "zone_id": "17690", "zone_name": "여수 문수중학교 옆"}, {"address": "전남 여수시 남산동 1193", "car_count": "1", "imaginary": "0", "is_d2d_car_exportable": "ABLE", "lat": "34.739758", "lng": "127.728911", "parking_name": "여수 서시장", "region1": "전라남도", "region2": "여수시", "region3": "남산동", "zone_id": "2794", "zone_name": "여수 서시장"}, {"address": "전남 여수시 율촌면 신풍리 1017-1", "car_count": "14", "imaginary": "0", "is_d2d_car_exportable": "ABLE", "lat": "34.841642", "lng": "127.610964", "parking_name": "여수공항 앞(A)", "region1": "전라남도", "region2": "여수시", "region3": "율촌면", "zone_id": "12515", "zone_name": "여수공항 앞(A)"}, {"address": "전남 여수시 율촌면 신풍리 1017-1", "car_count": "2", "imaginary": "0", "is_d2d_car_exportable": "ABLE", "lat": "34.841721", "lng": "127.610933", "parking_name": "여수공항 앞(A)(전기차)", "region1": "전라남도", "region2": "여수시", "region3": "율촌면", "zone_id": "17418", "zone_name": "여수공항 앞(A)(전기차)"}, {"address": "전라남도 여수시 율촌면 신풍리 산 45", "car_count": "27", "imaginary": "3", "is_d2d_car_exportable": "ABLE", "lat": "34.842031", "lng": "127.610673", "parking_name": "여수공항 앞(B)", "region1": "전라남도", "region2": "여수시", "region3": "율촌면", "zone_id": "14945", "zone_name": "여수공항 앞(B)"}, {"address": "전남 여수시 학동 182-4", "car_count": "2", "imaginary": "0", "is_d2d_car_exportable": "ABLE", "lat": "34.756878", "lng": "127.664734", "parking_name": "여수시청 앞", "region1": "전라남도", "region2": "여수시", "region3": "학동", "zone_id": "6196", "zone_name": "여수시청 앞"}, {"address": "전남 여수시 덕충동 2005", "car_count": "6", "imaginary": "5", "is_d2d_car_exportable": "ABLE", "lat": "34.752309", "lng": "127.746594", "parking_name": "여수엑스포역 앞(KTX)", "region1": "전라남도", "region2": "여수시", "region3": "덕충동", "zone_id": "9676", "zone_name": "여수엑스포역 앞(KTX)"}, {"address": "전남 여수시 덕충동 2005", "car_count": "2", "imaginary": "0", "is_d2d_car_exportable": "ABLE", "lat": "34.75226", "lng": "127.746328", "parking_name": "여수엑스포 국제관B동", "region1": "전라남도", "region2": "여수시", "region3": "덕충동", "zone_id": "17367", "zone_name": "여수엑스포역 앞(KTX)(전기차)"}, {"address": "전남 여수시 덕충동 61-57", "car_count": "16", "imaginary": "0", "is_d2d_car_exportable": "UNABLE", "lat": "34.754329", "lng": "127.748495", "parking_name": "여수엑스포역(KTX)", "region1": "전라남도", "region2": "여수시", "region3": "덕충동", "zone_id": "3805", "zone_name": "여수엑스포역(KTX)"}, {"address": "전남 여수시 덕충동 61-124", "car_count": "25", "imaginary": "0", "is_d2d_car_exportable": "ABLE", "lat": "34.753038", "lng": "127.747773", "parking_name": "여수엑스포역(KTX) B", "region1": "전라남도", "region2": "여수시", "region3": "덕충동", "zone_id": "20539", "zone_name": "여수엑스포역(KTX) B"}, {"address": "전남 여수시 돌산읍 우두리 1047-8 오션힐호텔 지하 1층 장애인 주차구역 옆 2칸", "car_count": "1", "imaginary": "0", "is_d2d_car_exportable": "ABLE", "lat": "34.718472", "lng": "127.746493", "parking_name": "여수오션힐 호텔", "region1": "전라남도", "region2": "여수시", "region3": "돌산읍", "zone_id": "11059", "zone_name": "여수오션힐 호텔"}, {"address": "전남 여수시 오림동 390 여수버스터미널", "car_count": "5", "imaginary": "0", "is_d2d_car_exportable": "ABLE", "lat": "34.758171", "lng": "127.71702", "parking_name": "여수종합버스터미널", "region1": "전라남도", "region2": "여수시", "region3": "오림동", "zone_id": "11670", "zone_name": "여수종합버스터미널"}, {"address": "전남 여수시 화장동 795-2", "car_count": "1", "imaginary": "0", "is_d2d_car_exportable": "ABLE", "lat": "34.776257", "lng": "127.648338", "parking_name": "여천시외버스정류장 앞", "region1": "전라남도", "region2": "여수시", "region3": "화장동", "zone_id": "6295", "zone_name": "여천시외버스정류장 앞"}, {"address": "전라남도 여수시 여천동 681-16", "car_count": "5", "imaginary": "0", "is_d2d_car_exportable": "ABLE", "lat": "34.778292", "lng": "127.661795", "parking_name": "여천역 앞(KTX)", "region1": "전라남도", "region2": "여수시", "region3": "여천동", "zone_id": "18468", "zone_name": "여천역 앞(KTX)"}, {"address": "전남 여수시 웅천동 1868-2", "car_count": "1", "imaginary": "0", "is_d2d_car_exportable": "ABLE", "lat": "34.742067", "lng": "127.675961", "parking_name": "웅천퍼스트시티", "region1": "전라남도", "region2": "여수시", "region3": "웅천동", "zone_id": "15646", "zone_name": "웅천퍼스트시티"}, {"address": "전남 여수시 오림동 405-1 이마트", "car_count": "1", "imaginary": "0", "is_d2d_car_exportable": "ABLE", "lat": "34.757928", "lng": "127.715083", "parking_name": "이마트 여수점", "region1": "전라남도", "region2": "여수시", "region3": "오림동", "zone_id": "16209", "zone_name": "이마트 여수점"}, {"address": "전남 여수시 둔덕동 산96-1", "car_count": "1", "imaginary": "0", "is_d2d_car_exportable": "ABLE", "lat": "34.77205", "lng": "127.698875", "parking_name": "전남대(여수) 인문사회과학관 주차장", "region1": "전라남도", "region2": "여수시", "region3": "둔덕동", "zone_id": "7116", "zone_name": "전남대(여수) 인문사회과학관 주차장"}, {"address": "전남 여수시 둔덕동 산96-1", "car_count": "1", "imaginary": "0", "is_d2d_car_exportable": "ABLE", "lat": "34.776465", "lng": "127.70116", "parking_name": "전남대(여수) 제2공학관 앞", "region1": "전라남도", "region2": "여수시", "region3": "둔덕동", "zone_id": "7151", "zone_name": "전남대(여수) 제2공학관 앞"}, {"address": "전남 여수시 미평동 산 101-3", "car_count": "1", "imaginary": "0", "is_d2d_car_exportable": "ABLE", "lat": "34.777147", "lng": "127.699748", "parking_name": "전남대(여수) 청경마루 옆", "region1": "전라남도", "region2": "여수시", "region3": "미평동", "zone_id": "1759", "zone_name": "전남대(여수) 청경마루 옆"}, {"address": "전남 여수시 미평동 574-10", "car_count": "1", "imaginary": "0", "is_d2d_car_exportable": "ABLE", "lat": "34.765495", "lng": "127.703178", "parking_name": "전자랜드 여수점", "region1": "전라남도", "region2": "여수시", "region3": "미평동", "zone_id": "1984", "zone_name": "전자랜드 여수점"}, {"address": "전남 화순군 화순읍 삼천리 611", "car_count": "3", "imaginary": "0", "is_d2d_car_exportable": "ABLE", "lat": "35.057795", "lng": "126.983016", "parking_name": "화순군 보건소 뒤", "region1": "전라남도", "region2": "화순군", "region3": "화순읍", "zone_id": "20681", "zone_name": "화순군 보건소 뒤"}]