[{"lat": "37.413157677352686", "lng": "127.1278374792373", "region1": "경기도", "region2": "성남시　분당구", "sig_name": "경기도 성남시 분당구", "total_cars": "16", "zone_id": "8555", "zone_name": "성남종합버스터미널"}, {"lat": "37.26846390319385", "lng": "127.00221820728116", "region1": "경기도", "region2": "수원시　팔달구", "sig_name": "경기도 수원시 팔달구", "total_cars": "15", "zone_id": "2130", "zone_name": "수원역 7번출구"}, {"lat": "37.5015109026519", "lng": "126.77370710676", "region1": "경기도", "region2": "부천시　원미구", "sig_name": "경기도 부천시 원미구", "total_cars": "14", "zone_id": "1393", "zone_name": "신중동역 3번출구"}, {"lat": "37.2349625292394", "lng": "127.18801752061619", "region1": "경기도", "region2": "용인시　처인구", "sig_name": "경기도 용인시 처인구", "total_cars": "14", "zone_id": "9943", "zone_name": "롯데시네마 용인역북"}, {"lat": "37.27478131892466", "lng": "127.04506016761331", "region1": "경기도", "region2": "수원시　영통구", "sig_name": "경기도 수원시 영통구", "total_cars": "13", "zone_id": "1501", "zone_name": "법원사거리"}, {"lat": "37.4413058058062", "lng": "127.146444242173", "region1": "경기도", "region2": "성남시　수정구", "sig_name": "경기도 성남시 수정구", "total_cars": "13", "zone_id": "12859", "zone_name": "롯데시네마 성남중앙점"}, {"lat": "37.40239137877361", "lng": "126.92177200923147", "region1": "경기도", "region2": "안양시　만안구", "sig_name": "경기도 안양시 만안구", "total_cars": "12", "zone_id": "2287", "zone_name": "엔터식스 안양역점"}, {"lat": "37.61339511102624", "lng": "126.83457936324652", "region1": "경기도", "region2": "고양시　덕양구", "sig_name": "경기도 고양시 덕양구", "total_cars": "12", "zone_id": "11470", "zone_name": "CGV 고양행신"}, {"lat": "37.6634836005214", "lng": "126.768497070396", "region1": "경기도", "region2": "고양시　일산동구", "sig_name": "경기도 고양시 일산동구", "total_cars": "11", "zone_id": "9403", "zone_name": "정발산역 2번출구(삼라마이다스3차)"}, {"lat": "37.64543666394218", "lng": "126.6244525084574", "region1": "경기도", "region2": "김포시", "sig_name": "경기도 김포시", "total_cars": "11", "zone_id": "11260", "zone_name": "구래역 1번출구"}, {"lat": "37.43741939330491", "lng": "127.14186911149524", "region1": "경기도", "region2": "성남시　중원구", "sig_name": "경기도 성남시 중원구", "total_cars": "10", "zone_id": "9022", "zone_name": "수진역 1번출구(수진역 환승주차장)"}, {"lat": "37.41920512313472", "lng": "126.88695010258306", "region1": "경기도", "region2": "광명시", "sig_name": "경기도 광명시", "total_cars": "10", "zone_id": "11717", "zone_name": "광명역C 환승주차장"}, {"lat": "37.7248224299307", "lng": "127.046660009307", "region1": "경기도", "region2": "의정부시", "sig_name": "경기도 의정부시", "total_cars": "10", "zone_id": "6278", "zone_name": "회룡역 3번출구"}, {"lat": "36.98998213777245", "lng": "127.08717375103596", "region1": "경기도", "region2": "평택시", "sig_name": "경기도 평택시", "total_cars": "10", "zone_id": "11648", "zone_name": "평택역 1번출구"}, {"lat": "37.56134899608354", "lng": "127.1923913990688", "region1": "경기도", "region2": "하남시", "sig_name": "경기도 하남시", "total_cars": "9", "zone_id": "11348", "zone_name": "미사 이화주차타워"}, {"lat": "37.39057471097359", "lng": "126.9555456478649", "region1": "경기도", "region2": "안양시　동안구", "sig_name": "경기도 안양시 동안구", "total_cars": "9", "zone_id": "3680", "zone_name": "범계역 3번출구"}, {"lat": "37.277848491509424", "lng": "127.44863402487928", "region1": "경기도", "region2": "이천시", "sig_name": "경기도 이천시", "total_cars": "9", "zone_id": "10167", "zone_name": "이천종합버스터미널 앞"}, {"lat": "37.2001883546837", "lng": "127.097435749075", "region1": "경기도", "region2": "화성시", "sig_name": "경기도 화성시", "total_cars": "8", "zone_id": "12282", "zone_name": "롯데백화점 동탄점"}, {"lat": "37.34117207345366", "lng": "126.81470152119452", "region1": "경기도", "region2": "안산시　단원구", "sig_name": "경기도 안산시 단원구", "total_cars": "8", "zone_id": "10478", "zone_name": "안산 한양스파랜드"}, {"lat": "37.5068295476803", "lng": "126.755061614223", "region1": "경기도", "region2": "부천시　원미구", "sig_name": "경기도 부천시 원미구", "total_cars": "7", "zone_id": "10859", "zone_name": "상동역 7번출구"}, {"lat": "37.73800201399496", "lng": "127.05067539439332", "region1": "경기도", "region2": "의정부시", "sig_name": "경기도 의정부시", "total_cars": "7", "zone_id": "5847", "zone_name": "의정부 송산교차로"}, {"lat": "37.6763052466598", "lng": "126.746208660347", "region1": "경기도", "region2": "고양시　일산서구", "sig_name": "경기도 고양시 일산서구", "total_cars": "7", "zone_id": "9405", "zone_name": "대화역 3번출구"}, {"lat": "37.7125859008259", "lng": "127.187918601157", "region1": "경기도", "region2": "남양주시", "sig_name": "경기도 남양주시", "total_cars": "7", "zone_id": "9771", "zone_name": "진접우체국 뒤(랜드타워)"}, {"lat": "37.31666064020927", "lng": "126.84797165408543", "region1": "경기도", "region2": "안산시　상록구", "sig_name": "경기도 안산시 상록구", "total_cars": "7", "zone_id": "9201", "zone_name": "안산버스터미널"}, {"lat": "37.35773618552059", "lng": "126.93074222185376", "region1": "경기도", "region2": "군포시", "sig_name": "경기도 군포시", "total_cars": "7", "zone_id": "8858", "zone_name": "롯데피트인 산본점"}, {"lat": "37.44687418911771", "lng": "126.79167821395453", "region1": "경기도", "region2": "시흥시", "sig_name": "경기도 시흥시", "total_cars": "7", "zone_id": "11555", "zone_name": "CGV 시흥점"}, {"lat": "37.44983784616789", "lng": "127.12807315967126", "region1": "경기도", "region2": "성남시　수정구", "sig_name": "경기도 성남시 수정구", "total_cars": "7", "zone_id": "11969", "zone_name": "가천대역 1번출구"}, {"lat": "37.35854428580656", "lng": "126.93406395895352", "region1": "경기도", "region2": "군포시", "sig_name": "경기도 군포시", "total_cars": "7", "zone_id": "8580", "zone_name": "산본역 동관주차장"}, {"lat": "37.7114371543666", "lng": "126.760084692424", "region1": "경기도", "region2": "파주시", "sig_name": "경기도 파주시", "total_cars": "6", "zone_id": "9767", "zone_name": "야당역 1번출구"}, {"lat": "37.6941549425389", "lng": "126.760209438354", "region1": "경기도", "region2": "고양시　일산서구", "sig_name": "경기도 고양시 일산서구", "total_cars": "6", "zone_id": "11036", "zone_name": "탄현역 1번출구"}, {"lat": "37.4313895266803", "lng": "127.1297670222675", "region1": "경기도", "region2": "성남시　중원구", "sig_name": "경기도 성남시 중원구", "total_cars": "6", "zone_id": "10278", "zone_name": "모란역 4번출구(메가박스성남모란)"}, {"lat": "37.73698238681673", "lng": "127.04309507033793", "region1": "경기도", "region2": "의정부시", "sig_name": "경기도 의정부시", "total_cars": "6", "zone_id": "1887", "zone_name": "경전철의정부역 1번출구"}, {"lat": "37.71577864057187", "lng": "126.76135989946138", "region1": "경기도", "region2": "파주시", "sig_name": "경기도 파주시", "total_cars": "6", "zone_id": "11770", "zone_name": "야당역 2번출구"}, {"lat": "37.28999427048465", "lng": "127.00039753027453", "region1": "경기도", "region2": "수원시　장안구", "sig_name": "경기도 수원시 장안구", "total_cars": "6", "zone_id": "11229", "zone_name": "수원 정자시장"}, {"lat": "37.14467695590448", "lng": "127.07220341719147", "region1": "경기도", "region2": "오산시", "sig_name": "경기도 오산시", "total_cars": "6", "zone_id": "12609", "zone_name": "오산 영무파라드아파트"}, {"lat": "37.48597998633285", "lng": "126.78009098442624", "region1": "경기도", "region2": "부천시　원미구", "sig_name": "경기도 부천시 원미구", "total_cars": "6", "zone_id": "9487", "zone_name": "부천역 3번출구(프리존 빌딩)"}, {"lat": "37.26703013417973", "lng": "126.9986809385959", "region1": "경기도", "region2": "수원시　팔달구", "sig_name": "경기도 수원시 팔달구", "total_cars": "6", "zone_id": "13164", "zone_name": "수원역 2번출구"}, {"lat": "37.6525622218669", "lng": "126.896613116843", "region1": "경기도", "region2": "고양시　덕양구", "sig_name": "경기도 고양시 덕양구", "total_cars": "6", "zone_id": "10820", "zone_name": "힐스테이트 삼송역"}, {"lat": "36.9942121539901", "lng": "127.13621095322875", "region1": "경기도", "region2": "평택시", "sig_name": "경기도 평택시", "total_cars": "6", "zone_id": "8808", "zone_name": "평택대학교 앞"}, {"lat": "37.589320425632046", "lng": "127.02887511045846", "region1": "경기도", "region2": "이천시", "sig_name": "경기도 이천시", "total_cars": "5", "zone_id": "529", "zone_name": "개운사(고려대)"}, {"lat": "37.56404624024256", "lng": "127.19857971634023", "region1": "경기도", "region2": "하남시", "sig_name": "경기도 하남시", "total_cars": "5", "zone_id": "11773", "zone_name": "하남 롯데캐슬헤븐시티 2차"}, {"lat": "37.525088674622765", "lng": "126.8034479083102", "region1": "경기도", "region2": "부천시　오정구", "sig_name": "경기도 부천시 오정구", "total_cars": "5", "zone_id": "544", "zone_name": "원종사거리"}, {"lat": "37.6448849960553", "lng": "126.670688384682", "region1": "경기도", "region2": "김포시", "sig_name": "경기도 김포시", "total_cars": "5", "zone_id": "6044", "zone_name": "고창초등학교 옆"}, {"lat": "37.41353645805638", "lng": "126.88333544846623", "region1": "경기도", "region2": "광명시", "sig_name": "경기도 광명시", "total_cars": "5", "zone_id": "9583", "zone_name": "광명역KTX(D환승주차장)"}, {"lat": "37.7402167430871", "lng": "127.056032920324", "region1": "경기도", "region2": "의정부시", "sig_name": "경기도 의정부시", "total_cars": "5", "zone_id": "8202", "zone_name": "롯데슈퍼 G신곡점"}, {"lat": "37.3942796422602", "lng": "127.112131255488", "region1": "경기도", "region2": "성남시　분당구", "sig_name": "경기도 성남시 분당구", "total_cars": "5", "zone_id": "11428", "zone_name": "그레이츠 판교"}, {"lat": "37.30267210016845", "lng": "126.97272089862298", "region1": "경기도", "region2": "수원시　장안구", "sig_name": "경기도 수원시 장안구", "total_cars": "5", "zone_id": "13113", "zone_name": "율천파출소 앞"}, {"lat": "37.2745486559315", "lng": "127.115052288184", "region1": "경기도", "region2": "용인시　기흥구", "sig_name": "경기도 용인시 기흥구", "total_cars": "5", "zone_id": "11133", "zone_name": "기흥 롯데캐슬레이시티"}, {"lat": "37.8931009877365", "lng": "127.053226241469", "region1": "경기도", "region2": "동두천시", "sig_name": "경기도 동두천시", "total_cars": "5", "zone_id": "9438", "zone_name": "지행역 2번출구"}, {"lat": "37.2041623967758", "lng": "127.072645070728", "region1": "경기도", "region2": "화성시", "sig_name": "경기도 화성시", "total_cars": "5", "zone_id": "1998", "zone_name": "동탄파라곤오피스텔"}, {"lat": "37.40570553262862", "lng": "126.97149622530004", "region1": "경기도", "region2": "안양시　동안구", "sig_name": "경기도 안양시 동안구", "total_cars": "5", "zone_id": "10290", "zone_name": "인덕원 동편마을사거리"}, {"lat": "37.31608747283609", "lng": "126.83943539947455", "region1": "경기도", "region2": "안산시　단원구", "sig_name": "경기도 안산시 단원구", "total_cars": "5", "zone_id": "11027", "zone_name": "중앙역 1번출구"}, {"lat": "37.29587975737395", "lng": "126.83551121086336", "region1": "경기도", "region2": "안산시　상록구", "sig_name": "경기도 안산시 상록구", "total_cars": "5", "zone_id": "8228", "zone_name": "한양대학교"}, {"lat": "37.39817999000635", "lng": "126.92372837491862", "region1": "경기도", "region2": "안양시　만안구", "sig_name": "경기도 안양시 만안구", "total_cars": "5", "zone_id": "11398", "zone_name": "안양 1번가"}, {"lat": "37.056408249095625", "lng": "127.05342434158018", "region1": "경기도", "region2": "평택시", "sig_name": "경기도 평택시", "total_cars": "5", "zone_id": "9638", "zone_name": "서정리역 1번출구"}, {"lat": "37.395052650326456", "lng": "126.96466180645255", "region1": "경기도", "region2": "안양시　동안구", "sig_name": "경기도 안양시 동안구", "total_cars": "5", "zone_id": "5832", "zone_name": "평촌역 3번출구"}, {"lat": "37.265409663933134", "lng": "127.0316624318188", "region1": "경기도", "region2": "수원시　팔달구", "sig_name": "경기도 수원시 팔달구", "total_cars": "5", "zone_id": "11283", "zone_name": "수원시청 뒤(현진빌딩)"}, {"lat": "37.29117304655912", "lng": "126.97466762262933", "region1": "경기도", "region2": "수원시　장안구", "sig_name": "경기도 수원시 장안구", "total_cars": "5", "zone_id": "12519", "zone_name": "수원 성균관대학교 정문"}, {"lat": "37.30351860161254", "lng": "127.0074980302098", "region1": "경기도", "region2": "수원시　장안구", "sig_name": "경기도 수원시 장안구", "total_cars": "5", "zone_id": "11466", "zone_name": "북수원 패션아울렛"}, {"lat": "37.31596440029322", "lng": "126.82340772570404", "region1": "경기도", "region2": "안산시　단원구", "sig_name": "경기도 안산시 단원구", "total_cars": "5", "zone_id": "309", "zone_name": "고잔역 환승주차장"}, {"lat": "37.6426862887443", "lng": "126.622208640613", "region1": "경기도", "region2": "김포시", "sig_name": "경기도 김포시", "total_cars": "5", "zone_id": "12907", "zone_name": "김포 구래에이스프라자"}, {"lat": "37.81923706545912", "lng": "127.09345510298418", "region1": "경기도", "region2": "양주시", "sig_name": "경기도 양주시", "total_cars": "5", "zone_id": "11859", "zone_name": "양주 폴리타워"}, {"lat": "37.267989742978855", "lng": "127.00136699337432", "region1": "경기도", "region2": "수원시　팔달구", "sig_name": "경기도 수원시 팔달구", "total_cars": "5", "zone_id": "11596", "zone_name": "수원역 로데오거리"}, {"lat": "37.30676540897493", "lng": "126.8506534112788", "region1": "경기도", "region2": "안산시　상록구", "sig_name": "경기도 안산시 상록구", "total_cars": "5", "zone_id": "320", "zone_name": "한대앞역 2번출구"}, {"lat": "36.97682591646127", "lng": "126.9237199539615", "region1": "경기도", "region2": "평택시", "sig_name": "경기도 평택시", "total_cars": "5", "zone_id": "12028", "zone_name": "안중 버스터미널 앞"}, {"lat": "37.5969421085903", "lng": "127.13812686822868", "region1": "경기도", "region2": "구리시", "sig_name": "경기도 구리시", "total_cars": "5", "zone_id": "11533", "zone_name": "구리시립체육공원 옆"}, {"lat": "37.323533180880354", "lng": "127.12423119078007", "region1": "경기도", "region2": "용인시　수지구", "sig_name": "경기도 용인시 수지구", "total_cars": "5", "zone_id": "8321", "zone_name": "단국대학교 앞"}, {"lat": "37.2141360370039", "lng": "127.04363077079", "region1": "경기도", "region2": "화성시", "sig_name": "경기도 화성시", "total_cars": "5", "zone_id": "8606", "zone_name": "병점 태안프라자"}, {"lat": "37.31853241074688", "lng": "126.8392581527134", "region1": "경기도", "region2": "안산시　단원구", "sig_name": "경기도 안산시 단원구", "total_cars": "5", "zone_id": "12037", "zone_name": "롯데시네마 센트럴락점 옆"}, {"lat": "37.60258125192552", "lng": "127.142798726036", "region1": "경기도", "region2": "구리시", "sig_name": "경기도 구리시", "total_cars": "4", "zone_id": "11386", "zone_name": "구리역공원 옆"}, {"lat": "37.2648497192929", "lng": "126.995618023974", "region1": "경기도", "region2": "수원시　권선구", "sig_name": "경기도 수원시 권선구", "total_cars": "4", "zone_id": "12969", "zone_name": "수원역 환승센터 옆"}, {"lat": "37.37266320843287", "lng": "126.94427345852752", "region1": "경기도", "region2": "군포시", "sig_name": "경기도 군포시", "total_cars": "4", "zone_id": "13213", "zone_name": "힐스테이트 금정"}, {"lat": "37.4825207782148", "lng": "126.794779988167", "region1": "경기도", "region2": "부천시　소사구", "sig_name": "경기도 부천시 소사구", "total_cars": "4", "zone_id": "10039", "zone_name": "소사역 1번출구"}, {"lat": "37.45735086033917", "lng": "127.1630658795584", "region1": "경기도", "region2": "성남시　수정구", "sig_name": "경기도 성남시 수정구", "total_cars": "4", "zone_id": "10692", "zone_name": "남한산성입구역(을지대학교)"}, {"lat": "37.32500933181", "lng": "127.108137186845", "region1": "경기도", "region2": "용인시　수지구", "sig_name": "경기도 용인시 수지구", "total_cars": "4", "zone_id": "6152", "zone_name": "죽전역 1번출구(신세계사우스시티)"}, {"lat": "37.8165923284834", "lng": "127.514403037527", "region1": "경기도", "region2": "가평군", "sig_name": "경기도 가평군", "total_cars": "4", "zone_id": "9517", "zone_name": "가평 메밀촌"}, {"lat": "37.1299321756305", "lng": "126.922663845902", "region1": "경기도", "region2": "화성시", "sig_name": "경기도 화성시", "total_cars": "4", "zone_id": "8612", "zone_name": "향남버스터미널 앞"}, {"lat": "37.31483000163442", "lng": "127.0802936753748", "region1": "경기도", "region2": "용인시　수지구", "sig_name": "경기도 용인시 수지구", "total_cars": "4", "zone_id": "11887", "zone_name": "성복역 5번출구"}, {"lat": "37.0203500868047", "lng": "127.09404924447063", "region1": "경기도", "region2": "평택시", "sig_name": "경기도 평택시", "total_cars": "4", "zone_id": "11679", "zone_name": "평택 센트럴파크"}, {"lat": "37.30277398351358", "lng": "127.03466752347242", "region1": "경기도", "region2": "수원시　영통구", "sig_name": "경기도 수원시 영통구", "total_cars": "4", "zone_id": "8320", "zone_name": "경기대"}, {"lat": "37.7366237434633", "lng": "127.087818045795", "region1": "경기도", "region2": "의정부시", "sig_name": "경기도 의정부시", "total_cars": "4", "zone_id": "9590", "zone_name": "송산역 2번출구"}, {"lat": "37.01281883017213", "lng": "127.26188016392776", "region1": "경기도", "region2": "안성시", "sig_name": "경기도 안성시", "total_cars": "4", "zone_id": "8407", "zone_name": "한경대학교(미래융합기술지원센터)"}, {"lat": "37.6444196096747", "lng": "126.621960896432", "region1": "경기도", "region2": "김포시", "sig_name": "경기도 김포시", "total_cars": "4", "zone_id": "13638", "zone_name": "김포 한가람사거리(안강럭스나인)"}, {"lat": "37.15847088236341", "lng": "127.05354347670688", "region1": "경기도", "region2": "오산시", "sig_name": "경기도 오산시", "total_cars": "4", "zone_id": "7954", "zone_name": "오산궐동 피엔피"}, {"lat": "37.47702644108279", "lng": "126.85307235919107", "region1": "경기도", "region2": "광명시", "sig_name": "경기도 광명시", "total_cars": "4", "zone_id": "10580", "zone_name": "광명사거리역 4번출구"}, {"lat": "37.30205399029649", "lng": "126.86379175011838", "region1": "경기도", "region2": "안산시　상록구", "sig_name": "경기도 안산시 상록구", "total_cars": "4", "zone_id": "10595", "zone_name": "상록수역 3번출구"}, {"lat": "37.33376107595203", "lng": "126.81210098773158", "region1": "경기도", "region2": "안산시　단원구", "sig_name": "경기도 안산시 단원구", "total_cars": "4", "zone_id": "7361", "zone_name": "선부광장 서울프라자"}, {"lat": "37.60731198557535", "lng": "126.72706603164696", "region1": "경기도", "region2": "김포시", "sig_name": "경기도 김포시", "total_cars": "4", "zone_id": "13601", "zone_name": "풍무도서관 앞"}, {"lat": "37.60778209908426", "lng": "127.1604208485657", "region1": "경기도", "region2": "남양주시", "sig_name": "경기도 남양주시", "total_cars": "4", "zone_id": "8724", "zone_name": "도농역 환승주차장"}, {"lat": "37.7373548039702", "lng": "127.043945648391", "region1": "경기도", "region2": "의정부시", "sig_name": "경기도 의정부시", "total_cars": "4", "zone_id": "5849", "zone_name": "경전철의정부역 2번출구"}, {"lat": "37.247063757447485", "lng": "127.06188650057469", "region1": "경기도", "region2": "수원시　영통구", "sig_name": "경기도 수원시 영통구", "total_cars": "4", "zone_id": "2507", "zone_name": "망포역 8번출구(롯데프라자)"}, {"lat": "37.7957546944848", "lng": "127.07973658096", "region1": "경기도", "region2": "양주시", "sig_name": "경기도 양주시", "total_cars": "4", "zone_id": "9904", "zone_name": "양주 하모니타워"}, {"lat": "37.643718255545295", "lng": "126.78648839514067", "region1": "경기도", "region2": "고양시　일산동구", "sig_name": "경기도 고양시 일산동구", "total_cars": "4", "zone_id": "10688", "zone_name": "백석역 4번출구(레이크하임오피스텔)"}, {"lat": "37.2191471763823", "lng": "127.058384955436", "region1": "경기도", "region2": "화성시", "sig_name": "경기도 화성시", "total_cars": "4", "zone_id": "9967", "zone_name": "동탄헤리움오피스텔"}, {"lat": "37.29508160407505", "lng": "126.98289157976228", "region1": "경기도", "region2": "수원시　장안구", "sig_name": "경기도 수원시 장안구", "total_cars": "4", "zone_id": "2509", "zone_name": "수원샘내공원 앞"}, {"lat": "37.2494717303313", "lng": "127.0354333883606", "region1": "경기도", "region2": "수원시　권선구", "sig_name": "경기도 수원시 권선구", "total_cars": "4", "zone_id": "2465", "zone_name": "매탄권선역 2번출구"}, {"lat": "37.320034308297146", "lng": "126.83271343068849", "region1": "경기도", "region2": "안산시　단원구", "sig_name": "경기도 안산시 단원구", "total_cars": "4", "zone_id": "7834", "zone_name": "안산시청 앞"}, {"lat": "37.214034637566", "lng": "126.974057913173", "region1": "경기도", "region2": "화성시", "sig_name": "경기도 화성시", "total_cars": "4", "zone_id": "11238", "zone_name": "화성 태천프라자"}, {"lat": "37.38735223728713", "lng": "127.12277529218215", "region1": "경기도", "region2": "성남시　분당구", "sig_name": "경기도 성남시 분당구", "total_cars": "4", "zone_id": "123", "zone_name": "서현역 5번출구(비전월드)"}, {"lat": "37.64333296371648", "lng": "127.12695997157128", "region1": "경기도", "region2": "남양주시", "sig_name": "경기도 남양주시", "total_cars": "4", "zone_id": "13405", "zone_name": "이마트 별내점"}, {"lat": "37.47604741741401", "lng": "126.86411252998371", "region1": "경기도", "region2": "광명시", "sig_name": "경기도 광명시", "total_cars": "4", "zone_id": "6047", "zone_name": "광명시청 앞"}, {"lat": "37.29742760157433", "lng": "126.97077160110597", "region1": "경기도", "region2": "수원시　장안구", "sig_name": "경기도 수원시 장안구", "total_cars": "4", "zone_id": "12468", "zone_name": "성균관대역(율전공영주차장)(L)"}, {"lat": "37.2279707045676", "lng": "127.068611460188", "region1": "경기도", "region2": "화성시", "sig_name": "경기도 화성시", "total_cars": "3", "zone_id": "9794", "zone_name": "신동탄 롯데캐슬아파트"}, {"lat": "37.2759112927009", "lng": "127.151476320116", "region1": "경기도", "region2": "용인시　기흥구", "sig_name": "경기도 용인시 기흥구", "total_cars": "3", "zone_id": "10420", "zone_name": "동백호수공원(쥬네브문월드)"}, {"lat": "37.34177971827216", "lng": "127.17607151692498", "region1": "경기도", "region2": "용인시　처인구", "sig_name": "경기도 용인시 처인구", "total_cars": "3", "zone_id": "12023", "zone_name": "용인 능원초교사거리"}, {"lat": "37.252620781668845", "lng": "127.07094790859834", "region1": "경기도", "region2": "수원시　영통구", "sig_name": "경기도 수원시 영통구", "total_cars": "3", "zone_id": "1818", "zone_name": "영통역 7번출구"}, {"lat": "37.263896005308936", "lng": "127.03131654530824", "region1": "경기도", "region2": "수원시　팔달구", "sig_name": "경기도 수원시 팔달구", "total_cars": "3", "zone_id": "11449", "zone_name": "수원시청역 8번출구(신흥빌딩)"}, {"lat": "37.63674395211444", "lng": "126.64464878354995", "region1": "경기도", "region2": "김포시", "sig_name": "경기도 김포시", "total_cars": "3", "zone_id": "11352", "zone_name": "김포 마산파출소 옆"}, {"lat": "37.26453122880756", "lng": "127.02121279392252", "region1": "경기도", "region2": "수원시　팔달구", "sig_name": "경기도 수원시 팔달구", "total_cars": "3", "zone_id": "9713", "zone_name": "권선초등학교 뒤"}, {"lat": "37.449383683365866", "lng": "126.8895068358974", "region1": "경기도", "region2": "광명시", "sig_name": "경기도 광명시", "total_cars": "3", "zone_id": "11047", "zone_name": "광명 타요키즈카페"}, {"lat": "37.855746379903806", "lng": "126.78792509180606", "region1": "경기도", "region2": "파주시", "sig_name": "경기도 파주시", "total_cars": "3", "zone_id": "8169", "zone_name": "문산역 1번출구"}, {"lat": "37.5016714637065", "lng": "126.791479697436", "region1": "경기도", "region2": "부천시　원미구", "sig_name": "경기도 부천시 원미구", "total_cars": "3", "zone_id": "13474", "zone_name": "롯데렌탈 부천장기영업소(B)"}, {"lat": "37.2494824906233", "lng": "127.590230984972", "region1": "경기도", "region2": "여주시", "sig_name": "경기도 여주시", "total_cars": "3", "zone_id": "13800", "zone_name": "오늘의집 여주물류센터(B)"}, {"lat": "37.30588151415835", "lng": "126.99168958765875", "region1": "경기도", "region2": "수원시　장안구", "sig_name": "경기도 수원시 장안구", "total_cars": "3", "zone_id": "11561", "zone_name": "수원 효자문사거리"}, {"lat": "37.49673670580251", "lng": "126.78626554323662", "region1": "경기도", "region2": "부천시　원미구", "sig_name": "경기도 부천시 원미구", "total_cars": "3", "zone_id": "1764", "zone_name": "원미구청"}, {"lat": "37.48827360846625", "lng": "126.75172588014313", "region1": "경기도", "region2": "부천시　원미구", "sig_name": "경기도 부천시 원미구", "total_cars": "3", "zone_id": "10355", "zone_name": "송내역 2번출구(서촌공원)"}, {"lat": "37.44722899442772", "lng": "126.88186589881136", "region1": "경기도", "region2": "광명시", "sig_name": "경기도 광명시", "total_cars": "3", "zone_id": "2131", "zone_name": "롯데하이마트 소하점"}, {"lat": "37.0383536955784", "lng": "127.047334770425", "region1": "경기도", "region2": "평택시", "sig_name": "경기도 평택시", "total_cars": "3", "zone_id": "13299", "zone_name": "고덕동 썬앤문알파 주차타워"}, {"lat": "37.28401606837386", "lng": "126.97258288269302", "region1": "경기도", "region2": "수원시　권선구", "sig_name": "경기도 수원시 권선구", "total_cars": "3", "zone_id": "9302", "zone_name": "서수원버스터미널 옆"}, {"lat": "37.816491744133", "lng": "127.098719617121", "region1": "경기도", "region2": "양주시", "sig_name": "경기도 양주시", "total_cars": "3", "zone_id": "10509", "zone_name": "양주 제이드웰아파트 앞"}, {"lat": "37.400449473901", "lng": "126.977808899801", "region1": "경기도", "region2": "안양시　동안구", "sig_name": "경기도 안양시 동안구", "total_cars": "3", "zone_id": "14036", "zone_name": "인덕원역 2번출구(인덕원역시그니티타워)"}, {"lat": "37.4730455820146", "lng": "127.141255023923", "region1": "경기도", "region2": "성남시　수정구", "sig_name": "경기도 성남시 수정구", "total_cars": "3", "zone_id": "13891", "zone_name": "위례 오벨리스크 오피스텔"}, {"lat": "37.32401249999999", "lng": "127.0957161", "region1": "경기도", "region2": "용인시　수지구", "sig_name": "경기도 용인시 수지구", "total_cars": "3", "zone_id": "1924", "zone_name": "수지구청 앞"}, {"lat": "37.65260029903839", "lng": "126.8427860807728", "region1": "경기도", "region2": "고양시　덕양구", "sig_name": "경기도 고양시 덕양구", "total_cars": "3", "zone_id": "10586", "zone_name": "원당역 3번출구"}, {"lat": "37.2751472782065", "lng": "126.954791928635", "region1": "경기도", "region2": "수원시　권선구", "sig_name": "경기도 수원시 권선구", "total_cars": "3", "zone_id": "11237", "zone_name": "호매실 딜라이트타워2"}, {"lat": "37.28114102529946", "lng": "127.11250423992176", "region1": "경기도", "region2": "용인시　기흥구", "sig_name": "경기도 용인시 기흥구", "total_cars": "3", "zone_id": "1384", "zone_name": "용인 구갈공원"}, {"lat": "37.2727061", "lng": "127.1272283000007", "region1": "경기도", "region2": "용인시　기흥구", "sig_name": "경기도 용인시 기흥구", "total_cars": "3", "zone_id": "8322", "zone_name": "강남대역 앞"}, {"lat": "37.39002759376075", "lng": "126.95328325208318", "region1": "경기도", "region2": "안양시　동안구", "sig_name": "경기도 안양시 동안구", "total_cars": "3", "zone_id": "13073", "zone_name": "범계역 지구대 옆"}, {"lat": "37.56584123550186", "lng": "127.19121871272718", "region1": "경기도", "region2": "하남시", "sig_name": "경기도 하남시", "total_cars": "3", "zone_id": "10624", "zone_name": "미사 푸르지오시티"}, {"lat": "37.728332915086", "lng": "126.76125915855", "region1": "경기도", "region2": "파주시", "sig_name": "경기도 파주시", "total_cars": "3", "zone_id": "13861", "zone_name": "운정역 1번출구(운정클래스원오피스텔)"}, {"lat": "37.46488030789383", "lng": "127.13993374870132", "region1": "경기도", "region2": "성남시　수정구", "sig_name": "경기도 성남시 수정구", "total_cars": "3", "zone_id": "11838", "zone_name": "남위례역 옆"}, {"lat": "37.486454064895", "lng": "126.782263345996", "region1": "경기도", "region2": "부천시　원미구", "sig_name": "경기도 부천시 원미구", "total_cars": "3", "zone_id": "12423", "zone_name": "부천역 로데오거리"}, {"lat": "37.36881820145421", "lng": "126.72709130971408", "region1": "경기도", "region2": "시흥시", "sig_name": "경기도 시흥시", "total_cars": "3", "zone_id": "12341", "zone_name": "배곧광장 공영주차장"}, {"lat": "37.6492328901458", "lng": "126.874827735308", "region1": "경기도", "region2": "고양시　덕양구", "sig_name": "경기도 고양시 덕양구", "total_cars": "3", "zone_id": "13130", "zone_name": "원흥역 1번출구"}, {"lat": "37.7652614185016", "lng": "126.775166645811", "region1": "경기도", "region2": "파주시", "sig_name": "경기도 파주시", "total_cars": "3", "zone_id": "10668", "zone_name": "금촌역 앞"}, {"lat": "37.737859768630095", "lng": "127.08612875394545", "region1": "경기도", "region2": "의정부시", "sig_name": "경기도 의정부시", "total_cars": "3", "zone_id": "11585", "zone_name": "송산역 1번출구"}, {"lat": "37.14978373211487", "lng": "127.07546208337055", "region1": "경기도", "region2": "오산시", "sig_name": "경기도 오산시", "total_cars": "3", "zone_id": "2041", "zone_name": "오산시청"}, {"lat": "37.47063002118665", "lng": "126.8774305934646", "region1": "경기도", "region2": "광명시", "sig_name": "경기도 광명시", "total_cars": "3", "zone_id": "13074", "zone_name": "세이브존 광명점"}, {"lat": "37.29957215245776", "lng": "126.83418354225688", "region1": "경기도", "region2": "안산시　상록구", "sig_name": "경기도 안산시 상록구", "total_cars": "3", "zone_id": "11668", "zone_name": "한양대학교 학군단 앞"}, {"lat": "37.64790666110719", "lng": "127.14358658672144", "region1": "경기도", "region2": "남양주시", "sig_name": "경기도 남양주시", "total_cars": "3", "zone_id": "8172", "zone_name": "퇴계원역 1번출구"}, {"lat": "37.62310939873612", "lng": "127.1524933266924", "region1": "경기도", "region2": "남양주시", "sig_name": "경기도 남양주시", "total_cars": "3", "zone_id": "10438", "zone_name": "다산퍼스트타워"}, {"lat": "37.4820008216329", "lng": "126.812404320073", "region1": "경기도", "region2": "부천시　소사구", "sig_name": "경기도 부천시 소사구", "total_cars": "3", "zone_id": "13959", "zone_name": "역곡남부시장"}, {"lat": "37.71010062603062", "lng": "127.04642929108267", "region1": "경기도", "region2": "의정부시", "sig_name": "경기도 의정부시", "total_cars": "3", "zone_id": "7837", "zone_name": "망월사역 3번출구(신한대학교)"}, {"lat": "37.296397153487725", "lng": "126.99473862155372", "region1": "경기도", "region2": "수원시　장안구", "sig_name": "경기도 수원시 장안구", "total_cars": "3", "zone_id": "10995", "zone_name": "수원소방서 앞"}, {"lat": "37.396051412618725", "lng": "126.9857365298747", "region1": "경기도", "region2": "의왕시", "sig_name": "경기도 의왕시", "total_cars": "3", "zone_id": "9957", "zone_name": "의왕 포일프라임"}, {"lat": "37.64177730011278", "lng": "126.83140766891628", "region1": "경기도", "region2": "고양시　덕양구", "sig_name": "경기도 고양시 덕양구", "total_cars": "3", "zone_id": "1929", "zone_name": "명지병원"}, {"lat": "37.36785858551296", "lng": "126.726592422198", "region1": "경기도", "region2": "시흥시", "sig_name": "경기도 시흥시", "total_cars": "3", "zone_id": "11060", "zone_name": "배곧 다인오피스텔9차"}, {"lat": "37.756338054044654", "lng": "126.77221722688864", "region1": "경기도", "region2": "파주시", "sig_name": "경기도 파주시", "total_cars": "3", "zone_id": "11961", "zone_name": "금촌동 그린프라자"}, {"lat": "37.60846452438548", "lng": "127.15880986713294", "region1": "경기도", "region2": "남양주시", "sig_name": "경기도 남양주시", "total_cars": "3", "zone_id": "12793", "zone_name": "도농역 1번출구"}, {"lat": "37.81956667788258", "lng": "127.04951603932764", "region1": "경기도", "region2": "양주시", "sig_name": "경기도 양주시", "total_cars": "3", "zone_id": "14004", "zone_name": "덕계역 고원 주차장"}, {"lat": "37.37806282832463", "lng": "127.11243769738384", "region1": "경기도", "region2": "성남시　분당구", "sig_name": "경기도 성남시 분당구", "total_cars": "3", "zone_id": "12629", "zone_name": "수내역 3번출구"}, {"lat": "37.39299258125119", "lng": "126.96228755092623", "region1": "경기도", "region2": "안양시　동안구", "sig_name": "경기도 안양시 동안구", "total_cars": "3", "zone_id": "3744", "zone_name": "평촌역 1번출구"}, {"lat": "37.000842032816585", "lng": "127.22586034851864", "region1": "경기도", "region2": "안성시", "sig_name": "경기도 안성시", "total_cars": "3", "zone_id": "11995", "zone_name": "안성 중앙대학교 앞"}, {"lat": "37.4298065678084", "lng": "126.990636229706", "region1": "경기도", "region2": "과천시", "sig_name": "경기도 과천시", "total_cars": "3", "zone_id": "13598", "zone_name": "힐스테이트 과천중앙(입주민주차장)"}, {"lat": "37.6378210009967", "lng": "126.837744815692", "region1": "경기도", "region2": "고양시　덕양구", "sig_name": "경기도 고양시 덕양구", "total_cars": "3", "zone_id": "14002", "zone_name": "고양시립 화정도서관 옆"}, {"lat": "37.2152482558146", "lng": "127.042743287398", "region1": "경기도", "region2": "화성시", "sig_name": "경기도 화성시", "total_cars": "3", "zone_id": "7698", "zone_name": "병점 로데오거리"}, {"lat": "37.67418886619991", "lng": "126.8077823776411", "region1": "경기도", "region2": "고양시　일산동구", "sig_name": "경기도 고양시 일산동구", "total_cars": "3", "zone_id": "11664", "zone_name": "일산 더파인테라스"}, {"lat": "37.25901376077878", "lng": "127.03024078655064", "region1": "경기도", "region2": "수원시　권선구", "sig_name": "경기도 수원시 권선구", "total_cars": "3", "zone_id": "11335", "zone_name": "수원시청역 3번출구(동수원주차장)"}, {"lat": "37.34964030232263", "lng": "127.11036098900696", "region1": "경기도", "region2": "성남시　분당구", "sig_name": "경기도 성남시 분당구", "total_cars": "3", "zone_id": "9274", "zone_name": "미금역 3번출구(현대벤처빌)"}, {"lat": "37.67237788049783", "lng": "126.7868016163149", "region1": "경기도", "region2": "고양시　일산동구", "sig_name": "경기도 고양시 일산동구", "total_cars": "3", "zone_id": "12922", "zone_name": "풍산역 2번출구"}, {"lat": "37.39038413207991", "lng": "126.94731384921576", "region1": "경기도", "region2": "안양시　동안구", "sig_name": "경기도 안양시 동안구", "total_cars": "3", "zone_id": "1444", "zone_name": "범계역 7번출구"}, {"lat": "37.157548784658445", "lng": "127.05505040265136", "region1": "경기도", "region2": "오산시", "sig_name": "경기도 오산시", "total_cars": "3", "zone_id": "11803", "zone_name": "케이마트 오산점"}, {"lat": "37.05978204769808", "lng": "127.06604167664028", "region1": "경기도", "region2": "평택시", "sig_name": "경기도 평택시", "total_cars": "3", "zone_id": "9985", "zone_name": "평택 이충중학교 옆"}, {"lat": "36.99020701131755", "lng": "127.08771319346752", "region1": "경기도", "region2": "평택시", "sig_name": "경기도 평택시", "total_cars": "3", "zone_id": "12066", "zone_name": "평택버스터미널"}, {"lat": "37.4106281898379", "lng": "127.128197271721", "region1": "경기도", "region2": "성남시　분당구", "sig_name": "경기도 성남시 분당구", "total_cars": "3", "zone_id": "13884", "zone_name": "야탑역 3번출구(아미고타워)"}, {"lat": "37.1642930627242", "lng": "127.105021845065", "region1": "경기도", "region2": "화성시", "sig_name": "경기도 화성시", "total_cars": "3", "zone_id": "12522", "zone_name": "동탄호수공원 리슈빌"}, {"lat": "37.54054871078024", "lng": "127.20710364907384", "region1": "경기도", "region2": "하남시", "sig_name": "경기도 하남시", "total_cars": "3", "zone_id": "2649", "zone_name": "신장초교사거리"}, {"lat": "37.30127587201289", "lng": "126.86294721861954", "region1": "경기도", "region2": "안산시　상록구", "sig_name": "경기도 안산시 상록구", "total_cars": "3", "zone_id": "13363", "zone_name": "본오3동행정복지센터 앞 공영주차장"}, {"lat": "37.5270023842497", "lng": "126.816713153528", "region1": "경기도", "region2": "부천시　오정구", "sig_name": "경기도 부천시 오정구", "total_cars": "3", "zone_id": "13806", "zone_name": "고강동우체국 앞"}, {"lat": "37.29056590068483", "lng": "127.05024989674406", "region1": "경기도", "region2": "수원시　영통구", "sig_name": "경기도 수원시 영통구", "total_cars": "3", "zone_id": "10075", "zone_name": "롯데마트 광교점(아브뉴프랑 광교점)"}, {"lat": "37.48508807476604", "lng": "126.78159399680816", "region1": "경기도", "region2": "부천시　원미구", "sig_name": "경기도 부천시 원미구", "total_cars": "3", "zone_id": "9269", "zone_name": "부천역 3번출구(로얄쇼핑)"}, {"lat": "37.66598341767489", "lng": "127.11852347587796", "region1": "경기도", "region2": "남양주시", "sig_name": "경기도 남양주시", "total_cars": "3", "zone_id": "11790", "zone_name": "별내 에스지타워"}, {"lat": "37.52838944117293", "lng": "126.81541880687782", "region1": "경기도", "region2": "부천시　오정구", "sig_name": "경기도 부천시 오정구", "total_cars": "3", "zone_id": "11118", "zone_name": "고강사거리"}, {"lat": "37.38872994206201", "lng": "126.95056336878656", "region1": "경기도", "region2": "안양시　동안구", "sig_name": "경기도 안양시 동안구", "total_cars": "3", "zone_id": "2293", "zone_name": "롯데백화점 평촌점"}, {"lat": "37.68153359399793", "lng": "126.77860042361324", "region1": "경기도", "region2": "고양시　일산동구", "sig_name": "경기도 고양시 일산동구", "total_cars": "3", "zone_id": "9925", "zone_name": "롯데슈퍼 일산점"}, {"lat": "37.399457727878776", "lng": "127.25196669268482", "region1": "경기도", "region2": "광주시", "sig_name": "경기도 광주시", "total_cars": "3", "zone_id": "10374", "zone_name": "경기광주역(경강선) 1번출구"}, {"lat": "37.33751251516511", "lng": "127.10958429733796", "region1": "경기도", "region2": "성남시　분당구", "sig_name": "경기도 성남시 분당구", "total_cars": "3", "zone_id": "7433", "zone_name": "오리역 3번출구(분당엠타워)"}, {"lat": "37.50209102156512", "lng": "126.76930899654528", "region1": "경기도", "region2": "부천시　원미구", "sig_name": "경기도 부천시 원미구", "total_cars": "3", "zone_id": "10375", "zone_name": "부천 중동 로데오거리"}, {"lat": "37.4842889795291", "lng": "126.774972255038", "region1": "경기도", "region2": "부천시　소사구", "sig_name": "경기도 부천시 소사구", "total_cars": "3", "zone_id": "13971", "zone_name": "다이소 부천심곡본동점"}, {"lat": "37.6354139807556", "lng": "126.83421571728", "region1": "경기도", "region2": "고양시　덕양구", "sig_name": "경기도 고양시 덕양구", "total_cars": "3", "zone_id": "13740", "zone_name": "화정역 4번출구"}, {"lat": "37.36226428605976", "lng": "126.73471913959273", "region1": "경기도", "region2": "시흥시", "sig_name": "경기도 시흥시", "total_cars": "3", "zone_id": "7795", "zone_name": "시화 보성아파트"}, {"lat": "37.29657822095572", "lng": "126.86112299724508", "region1": "경기도", "region2": "안산시　상록구", "sig_name": "경기도 안산시 상록구", "total_cars": "3", "zone_id": "10031", "zone_name": "롯데마트 상록점"}, {"lat": "37.379699912705625", "lng": "126.78351457991192", "region1": "경기도", "region2": "시흥시", "sig_name": "경기도 시흥시", "total_cars": "3", "zone_id": "13413", "zone_name": "진로그린마트 장곡점"}, {"lat": "37.35852878496881", "lng": "126.96625965149909", "region1": "경기도", "region2": "의왕시", "sig_name": "경기도 의왕시", "total_cars": "3", "zone_id": "10237", "zone_name": "의왕 모락로사거리"}, {"lat": "37.27212298821442", "lng": "127.10863820655533", "region1": "경기도", "region2": "용인시　기흥구", "sig_name": "경기도 용인시 기흥구", "total_cars": "3", "zone_id": "10908", "zone_name": "롯데캐슬스카이"}, {"lat": "37.35060345908904", "lng": "126.7413965652856", "region1": "경기도", "region2": "시흥시", "sig_name": "경기도 시흥시", "total_cars": "2", "zone_id": "9710", "zone_name": "정왕역 1번출구(진골감자탕)"}, {"lat": "37.7278104526078", "lng": "126.762021416713", "region1": "경기도", "region2": "파주시", "sig_name": "경기도 파주시", "total_cars": "2", "zone_id": "13763", "zone_name": "운정역 1번출구(송림로데오프라자)"}, {"lat": "37.641842780505", "lng": "126.619709241399", "region1": "경기도", "region2": "김포시", "sig_name": "경기도 김포시", "total_cars": "2", "zone_id": "13723", "zone_name": "김포 아크라시티1차"}, {"lat": "37.54357015168205", "lng": "127.2236741362265", "region1": "경기도", "region2": "하남시", "sig_name": "경기도 하남시", "total_cars": "2", "zone_id": "11211", "zone_name": "하남 주렁주렁"}, {"lat": "37.29042417393985", "lng": "127.0470554456094", "region1": "경기도", "region2": "수원시　영통구", "sig_name": "경기도 수원시 영통구", "total_cars": "2", "zone_id": "2233", "zone_name": "광교1동 주민센터 옆"}, {"lat": "37.25178506712472", "lng": "127.07745669103356", "region1": "경기도", "region2": "수원시　영통구", "sig_name": "경기도 수원시 영통구", "total_cars": "2", "zone_id": "11282", "zone_name": "영통역 아이파크오피스텔"}, {"lat": "37.1167413193071", "lng": "126.911929186795", "region1": "경기도", "region2": "화성시", "sig_name": "경기도 화성시", "total_cars": "2", "zone_id": "12033", "zone_name": "향남 플러스타워"}, {"lat": "37.6882739453176", "lng": "126.59925175755173", "region1": "경기도", "region2": "김포시", "sig_name": "경기도 김포시", "total_cars": "2", "zone_id": "13059", "zone_name": "통진 마송공원 옆"}, {"lat": "37.29611927950194", "lng": "127.06854178976911", "region1": "경기도", "region2": "용인시　수지구", "sig_name": "경기도 용인시 수지구", "total_cars": "2", "zone_id": "1791", "zone_name": "하나로마트 광교점"}, {"lat": "37.4879699708181", "lng": "126.755702921078", "region1": "경기도", "region2": "부천시　원미구", "sig_name": "경기도 부천시 원미구", "total_cars": "2", "zone_id": "13444", "zone_name": "송내역 3번출구"}, {"lat": "37.294080534312776", "lng": "126.87191015153792", "region1": "경기도", "region2": "안산시　상록구", "sig_name": "경기도 안산시 상록구", "total_cars": "2", "zone_id": "7322", "zone_name": "본오도서관 뒤"}, {"lat": "37.23984127753021", "lng": "126.96781716827404", "region1": "경기도", "region2": "수원시　권선구", "sig_name": "경기도 수원시 권선구", "total_cars": "2", "zone_id": "11239", "zone_name": "오목초등학교 옆"}, {"lat": "37.7379766810323", "lng": "127.041122002599", "region1": "경기도", "region2": "의정부시", "sig_name": "경기도 의정부시", "total_cars": "2", "zone_id": "13549", "zone_name": "롯데하이마트 의정부점"}, {"lat": "37.5632070178391", "lng": "127.18978160508736", "region1": "경기도", "region2": "하남시", "sig_name": "경기도 하남시", "total_cars": "2", "zone_id": "11397", "zone_name": "미사 에코브리지2"}, {"lat": "37.41833606868532", "lng": "127.24782190304111", "region1": "경기도", "region2": "광주시", "sig_name": "경기도 광주시", "total_cars": "2", "zone_id": "2137", "zone_name": "롯데하이마트 경기광주점"}, {"lat": "37.27905298172417", "lng": "127.03685449433443", "region1": "경기도", "region2": "수원시　팔달구", "sig_name": "경기도 수원시 팔달구", "total_cars": "2", "zone_id": "7968", "zone_name": "수원우만동 양우 내안애애플"}, {"lat": "37.3982638", "lng": "126.97530949999998", "region1": "경기도", "region2": "안양시　동안구", "sig_name": "경기도 안양시 동안구", "total_cars": "2", "zone_id": "9273", "zone_name": "안양 따복하우스(인덕원역4번)"}, {"lat": "37.45927453684544", "lng": "127.12729805433275", "region1": "경기도", "region2": "성남시　수정구", "sig_name": "경기도 성남시 수정구", "total_cars": "2", "zone_id": "10499", "zone_name": "동서울대학교"}, {"lat": "37.6021205570635", "lng": "127.139728142098", "region1": "경기도", "region2": "구리시", "sig_name": "경기도 구리시", "total_cars": "2", "zone_id": "13381", "zone_name": "구리역"}, {"lat": "37.73507071036745", "lng": "127.05004679665738", "region1": "경기도", "region2": "의정부시", "sig_name": "경기도 의정부시", "total_cars": "2", "zone_id": "5851", "zone_name": "의정부 경의초등학교 앞"}, {"lat": "37.3830908390804", "lng": "127.125488210431", "region1": "경기도", "region2": "성남시　분당구", "sig_name": "경기도 성남시 분당구", "total_cars": "2", "zone_id": "12648", "zone_name": "서현역 2번출구"}, {"lat": "37.2068587380145", "lng": "127.109610709032", "region1": "경기도", "region2": "화성시", "sig_name": "경기도 화성시", "total_cars": "2", "zone_id": "10984", "zone_name": "동탄 에이스케이씨티"}, {"lat": "37.1803369428797", "lng": "127.123740111599", "region1": "경기도", "region2": "화성시", "sig_name": "경기도 화성시", "total_cars": "2", "zone_id": "13295", "zone_name": "동탄9동 DK주차타워"}, {"lat": "37.2031908581894", "lng": "127.097957438634", "region1": "경기도", "region2": "화성시", "sig_name": "경기도 화성시", "total_cars": "2", "zone_id": "13574", "zone_name": "동탄역 1번출구"}, {"lat": "37.252812812030086", "lng": "127.06129217486875", "region1": "경기도", "region2": "수원시　영통구", "sig_name": "경기도 수원시 영통구", "total_cars": "2", "zone_id": "3752", "zone_name": "유신 S-OIL"}, {"lat": "37.6679946733069", "lng": "126.751646859873", "region1": "경기도", "region2": "고양시　일산서구", "sig_name": "경기도 고양시 일산서구", "total_cars": "2", "zone_id": "10983", "zone_name": "일산 레이킨스몰"}, {"lat": "37.5242662802269", "lng": "126.805919700543", "region1": "경기도", "region2": "부천시　오정구", "sig_name": "경기도 부천시 오정구", "total_cars": "2", "zone_id": "14123", "zone_name": "원종역 1번출구"}, {"lat": "37.6010591993466", "lng": "126.720930431965", "region1": "경기도", "region2": "김포시", "sig_name": "경기도 김포시", "total_cars": "2", "zone_id": "14059", "zone_name": "풍무동 행정복지센터 옆"}, {"lat": "37.199961971994", "lng": "127.096048516532", "region1": "경기도", "region2": "화성시", "sig_name": "경기도 화성시", "total_cars": "2", "zone_id": "8626", "zone_name": "동탄역SRT"}, {"lat": "37.68218706469227", "lng": "126.770490020753", "region1": "경기도", "region2": "고양시　일산서구", "sig_name": "경기도 고양시 일산서구", "total_cars": "2", "zone_id": "9940", "zone_name": "일산역 환승주차장"}, {"lat": "37.442530818380526", "lng": "126.7889566257602", "region1": "경기도", "region2": "시흥시", "sig_name": "경기도 시흥시", "total_cars": "2", "zone_id": "8546", "zone_name": "시흥시 복지로2공영주차장"}, {"lat": "37.36216932017806", "lng": "127.11649185714325", "region1": "경기도", "region2": "성남시　분당구", "sig_name": "경기도 성남시 분당구", "total_cars": "2", "zone_id": "7934", "zone_name": "정든한진6차아파트"}, {"lat": "37.74950103648203", "lng": "127.04394057574429", "region1": "경기도", "region2": "의정부시", "sig_name": "경기도 의정부시", "total_cars": "2", "zone_id": "8167", "zone_name": "가능역 2번출구 가능A"}, {"lat": "37.37764549095977", "lng": "126.79097788960706", "region1": "경기도", "region2": "시흥시", "sig_name": "경기도 시흥시", "total_cars": "2", "zone_id": "12961", "zone_name": "시흥 유승한내들 상가주차장"}, {"lat": "37.6401372308501", "lng": "126.62057811708", "region1": "경기도", "region2": "김포시", "sig_name": "경기도 김포시", "total_cars": "2", "zone_id": "13508", "zone_name": "김포 현대썬앤빌더킹"}, {"lat": "37.64571272942563", "lng": "127.30480399610026", "region1": "경기도", "region2": "남양주시", "sig_name": "경기도 남양주시", "total_cars": "2", "zone_id": "13753", "zone_name": "노브랜드 남양주화도점"}, {"lat": "37.37935915205058", "lng": "127.11710556238384", "region1": "경기도", "region2": "성남시　분당구", "sig_name": "경기도 성남시 분당구", "total_cars": "2", "zone_id": "9594", "zone_name": "수내역 1번출구(조이시티타워)"}, {"lat": "37.2361730997037", "lng": "127.060365049525", "region1": "경기도", "region2": "화성시", "sig_name": "경기도 화성시", "total_cars": "2", "zone_id": "9477", "zone_name": "이마트에브리데이 신영통점"}, {"lat": "37.24979571813868", "lng": "127.02162993321562", "region1": "경기도", "region2": "수원시　권선구", "sig_name": "경기도 수원시 권선구", "total_cars": "2", "zone_id": "9951", "zone_name": "이마트 수원점"}, {"lat": "36.98909557728184", "lng": "126.84270185395006", "region1": "경기도", "region2": "평택시", "sig_name": "경기도 평택시", "total_cars": "2", "zone_id": "10311", "zone_name": "여술근린공원 앞"}, {"lat": "37.26783030356496", "lng": "127.21944199364565", "region1": "경기도", "region2": "용인시　처인구", "sig_name": "경기도 용인시 처인구", "total_cars": "2", "zone_id": "7457", "zone_name": "GS더프레시 용인포곡점"}, {"lat": "37.26359486023942", "lng": "126.99724438237106", "region1": "경기도", "region2": "수원시　권선구", "sig_name": "경기도 수원시 권선구", "total_cars": "2", "zone_id": "5871", "zone_name": "롯데몰 수원점"}, {"lat": "37.40128077700192", "lng": "126.91326277486884", "region1": "경기도", "region2": "안양시　만안구", "sig_name": "경기도 안양시 만안구", "total_cars": "2", "zone_id": "6264", "zone_name": "롯데슈퍼 안양점"}, {"lat": "37.5196478", "lng": "126.78757530000009", "region1": "경기도", "region2": "부천시　원미구", "sig_name": "경기도 부천시 원미구", "total_cars": "2", "zone_id": "9272", "zone_name": "도당소공원사거리(은성프라자)"}, {"lat": "37.29414709925865", "lng": "127.6390685332992", "region1": "경기도", "region2": "여주시", "sig_name": "경기도 여주시", "total_cars": "2", "zone_id": "13373", "zone_name": "여흥동공영주차장"}, {"lat": "37.33929766414487", "lng": "127.10073395186748", "region1": "경기도", "region2": "용인시　수지구", "sig_name": "경기도 용인시 수지구", "total_cars": "2", "zone_id": "13161", "zone_name": "동천역 3번출구"}, {"lat": "37.48825873871768", "lng": "126.78251753254084", "region1": "경기도", "region2": "부천시　원미구", "sig_name": "경기도 부천시 원미구", "total_cars": "2", "zone_id": "2000", "zone_name": "부천대 대학로"}, {"lat": "37.65832803497848", "lng": "127.12440442746826", "region1": "경기도", "region2": "남양주시", "sig_name": "경기도 남양주시", "total_cars": "2", "zone_id": "12801", "zone_name": "별내체육공원 옆"}, {"lat": "37.2056310479674", "lng": "127.039175792642", "region1": "경기도", "region2": "화성시", "sig_name": "경기도 화성시", "total_cars": "2", "zone_id": "1508", "zone_name": "다이소 화성병점점"}, {"lat": "37.38999346366822", "lng": "127.23109914268572", "region1": "경기도", "region2": "광주시", "sig_name": "경기도 광주시", "total_cars": "2", "zone_id": "11877", "zone_name": "경기광주 태봉교 옆"}, {"lat": "37.6439898978977", "lng": "126.79033136735669", "region1": "경기도", "region2": "고양시　일산동구", "sig_name": "경기도 고양시 일산동구", "total_cars": "2", "zone_id": "7292", "zone_name": "홈플러스 고양터미널점"}, {"lat": "37.4187317", "lng": "126.910106", "region1": "경기도", "region2": "안양시　만안구", "sig_name": "경기도 안양시 만안구", "total_cars": "2", "zone_id": "7750", "zone_name": "안양석수 대주파크빌아파트"}, {"lat": "37.3880116903295", "lng": "127.123256959839", "region1": "경기도", "region2": "성남시　분당구", "sig_name": "경기도 성남시 분당구", "total_cars": "2", "zone_id": "12673", "zone_name": "서현역 5번출구(서현미래에셋플레이스)"}, {"lat": "37.48027270728519", "lng": "126.79573482032", "region1": "경기도", "region2": "부천시　소사구", "sig_name": "경기도 부천시 소사구", "total_cars": "2", "zone_id": "13513", "zone_name": "소사역 4번출구"}, {"lat": "37.49380465023192", "lng": "127.49178031426524", "region1": "경기도", "region2": "양평군", "sig_name": "경기도 양평군", "total_cars": "2", "zone_id": "9607", "zone_name": "양평역(경의중앙선) 2번출구"}, {"lat": "37.74664550380758", "lng": "127.04247804000232", "region1": "경기도", "region2": "의정부시", "sig_name": "경기도 의정부시", "total_cars": "2", "zone_id": "14052", "zone_name": "가능역 1번출구(가능동 주차장)"}, {"lat": "37.4282808305042", "lng": "126.992531460962", "region1": "경기도", "region2": "과천시", "sig_name": "경기도 과천시", "total_cars": "2", "zone_id": "13580", "zone_name": "정부과천청사역 1번출구"}, {"lat": "37.25936598097696", "lng": "127.04533673089298", "region1": "경기도", "region2": "수원시　영통구", "sig_name": "경기도 수원시 영통구", "total_cars": "2", "zone_id": "2512", "zone_name": "영통구청 앞"}, {"lat": "37.6435878850397", "lng": "126.620912382577", "region1": "경기도", "region2": "김포시", "sig_name": "경기도 김포시", "total_cars": "2", "zone_id": "13928", "zone_name": "김포 나비마을삼거리"}, {"lat": "37.367661326887", "lng": "127.106173564168", "region1": "경기도", "region2": "성남시　분당구", "sig_name": "경기도 성남시 분당구", "total_cars": "2", "zone_id": "14037", "zone_name": "정자역 5번출구(분당역 주차장)"}, {"lat": "37.39286712617912", "lng": "126.9530832085984", "region1": "경기도", "region2": "안양시　동안구", "sig_name": "경기도 안양시 동안구", "total_cars": "2", "zone_id": "207", "zone_name": "동안구청 옆"}, {"lat": "37.30273434154669", "lng": "126.86425525229272", "region1": "경기도", "region2": "안산시　상록구", "sig_name": "경기도 안산시 상록구", "total_cars": "2", "zone_id": "318", "zone_name": "상록수역 환승주차장"}, {"lat": "37.6599366087868", "lng": "126.770935080298", "region1": "경기도", "region2": "고양시　일산동구", "sig_name": "경기도 고양시 일산동구", "total_cars": "2", "zone_id": "13721", "zone_name": "정발산역 2번출구(우림로데오스위트)"}, {"lat": "37.2176576836225", "lng": "127.059229258866", "region1": "경기도", "region2": "화성시", "sig_name": "경기도 화성시", "total_cars": "2", "zone_id": "13288", "zone_name": "동탄 세가프라자"}, {"lat": "37.350699993864", "lng": "127.345519136991", "region1": "경기도", "region2": "광주시", "sig_name": "경기도 광주시", "total_cars": "2", "zone_id": "9754", "zone_name": "곤지암역(경강선) 1번출구"}, {"lat": "37.656565445004624", "lng": "126.77337798934592", "region1": "경기도", "region2": "고양시　일산동구", "sig_name": "경기도 고양시 일산동구", "total_cars": "2", "zone_id": "1395", "zone_name": "정발산역 1번출구"}, {"lat": "37.39523783350803", "lng": "126.9267847554716", "region1": "경기도", "region2": "안양시　만안구", "sig_name": "경기도 안양시 만안구", "total_cars": "2", "zone_id": "10443", "zone_name": "안양우체국 사거리"}, {"lat": "37.44397653647076", "lng": "126.78989935567112", "region1": "경기도", "region2": "시흥시", "sig_name": "경기도 시흥시", "total_cars": "2", "zone_id": "336", "zone_name": "시흥시 복지로1공영주차장"}, {"lat": "37.07940051498315", "lng": "127.0501846993123", "region1": "경기도", "region2": "평택시", "sig_name": "경기도 평택시", "total_cars": "2", "zone_id": "10761", "zone_name": "평택 프로방스레지던스"}, {"lat": "37.362479", "lng": "127.10680550000006", "region1": "경기도", "region2": "성남시　분당구", "sig_name": "경기도 성남시 분당구", "total_cars": "2", "zone_id": "2103", "zone_name": "정자역 3번출구(엠코헤리츠2단지)"}, {"lat": "37.18762555601326", "lng": "127.04253597538504", "region1": "경기도", "region2": "오산시", "sig_name": "경기도 오산시", "total_cars": "2", "zone_id": "9573", "zone_name": "세마역 1번출구"}, {"lat": "37.62561383370617", "lng": "127.15446101109764", "region1": "경기도", "region2": "남양주시", "sig_name": "경기도 남양주시", "total_cars": "2", "zone_id": "11572", "zone_name": "다이소 다산신도시점"}, {"lat": "37.32794899989915", "lng": "126.7882497265084", "region1": "경기도", "region2": "안산시　단원구", "sig_name": "경기도 안산시 단원구", "total_cars": "2", "zone_id": "1331", "zone_name": "안산역 서측 환승공영주차장"}, {"lat": "37.410660640614", "lng": "127.25828732571082", "region1": "경기도", "region2": "광주시", "sig_name": "경기도 광주시", "total_cars": "2", "zone_id": "11261", "zone_name": "경안동 행정복지센터 앞"}, {"lat": "37.6503293007713", "lng": "127.243141667226", "region1": "경기도", "region2": "남양주시", "sig_name": "경기도 남양주시", "total_cars": "2", "zone_id": "11288", "zone_name": "평내동 리치플러스"}, {"lat": "37.5865073508332", "lng": "127.21125447567", "region1": "경기도", "region2": "남양주시", "sig_name": "경기도 남양주시", "total_cars": "2", "zone_id": "10474", "zone_name": "덕소역 1번출구 앞"}, {"lat": "37.2737266700943", "lng": "127.060945467331", "region1": "경기도", "region2": "수원시　영통구", "sig_name": "경기도 수원시 영통구", "total_cars": "2", "zone_id": "13521", "zone_name": "광교 앨리웨이"}, {"lat": "37.753445059069335", "lng": "127.06816419814754", "region1": "경기도", "region2": "의정부시", "sig_name": "경기도 의정부시", "total_cars": "2", "zone_id": "2132", "zone_name": "롯데하이마트 금오점"}, {"lat": "37.59779013349569", "lng": "127.14288440552184", "region1": "경기도", "region2": "구리시", "sig_name": "경기도 구리시", "total_cars": "2", "zone_id": "8894", "zone_name": "구리수택동사거리"}, {"lat": "37.37389731274929", "lng": "126.94372004973752", "region1": "경기도", "region2": "군포시", "sig_name": "경기도 군포시", "total_cars": "2", "zone_id": "6272", "zone_name": "금정역 1번출구(삼성쉐르빌)"}, {"lat": "37.27650204881074", "lng": "127.2299286375174", "region1": "경기도", "region2": "용인시　처인구", "sig_name": "경기도 용인시 처인구", "total_cars": "2", "zone_id": "13036", "zone_name": "포곡농협 하나로마트"}, {"lat": "37.2680530464444", "lng": "127.213900065728", "region1": "경기도", "region2": "용인시　처인구", "sig_name": "경기도 용인시 처인구", "total_cars": "2", "zone_id": "12999", "zone_name": "둔전역 1번출구"}, {"lat": "37.6273577665783", "lng": "126.842190893215", "region1": "경기도", "region2": "고양시　덕양구", "sig_name": "경기도 고양시 덕양구", "total_cars": "2", "zone_id": "8526", "zone_name": "햇빛21단지 대우코오롱아파트"}, {"lat": "37.34471406900112", "lng": "126.7335363367706", "region1": "경기도", "region2": "시흥시", "sig_name": "경기도 시흥시", "total_cars": "2", "zone_id": "9494", "zone_name": "시흥 미관광장"}, {"lat": "37.6325240203546", "lng": "127.116492723148", "region1": "경기도", "region2": "구리시", "sig_name": "경기도 구리시", "total_cars": "2", "zone_id": "11063", "zone_name": "갈매 중앙파크타워"}, {"lat": "37.6532332279625", "lng": "127.243895316561", "region1": "경기도", "region2": "남양주시", "sig_name": "경기도 남양주시", "total_cars": "2", "zone_id": "9712", "zone_name": "평내호평역 1번출구"}, {"lat": "37.6335577067192", "lng": "126.83115150848808", "region1": "경기도", "region2": "고양시　덕양구", "sig_name": "경기도 고양시 덕양구", "total_cars": "2", "zone_id": "9355", "zone_name": "화정역 2번출구"}, {"lat": "37.891960354416085", "lng": "127.05468038040387", "region1": "경기도", "region2": "동두천시", "sig_name": "경기도 동두천시", "total_cars": "2", "zone_id": "11183", "zone_name": "지행역 1번출구"}, {"lat": "37.4948798828909", "lng": "126.784705989986", "region1": "경기도", "region2": "부천시　원미구", "sig_name": "경기도 부천시 원미구", "total_cars": "2", "zone_id": "14071", "zone_name": "원미동 우체국 앞"}, {"lat": "37.27009032244137", "lng": "127.1531779274608", "region1": "경기도", "region2": "용인시　기흥구", "sig_name": "경기도 용인시 기흥구", "total_cars": "2", "zone_id": "12079", "zone_name": "동백역 1번출구"}, {"lat": "37.2212458755988", "lng": "126.951552796168", "region1": "경기도", "region2": "화성시", "sig_name": "경기도 화성시", "total_cars": "2", "zone_id": "10760", "zone_name": "화성 국민체육센터 앞"}, {"lat": "37.2348279502398", "lng": "127.212380831595", "region1": "경기도", "region2": "용인시　처인구", "sig_name": "경기도 용인시 처인구", "total_cars": "2", "zone_id": "11202", "zone_name": "용인 제일교회사거리"}, {"lat": "37.67498332028181", "lng": "126.75085088782538", "region1": "경기도", "region2": "고양시　일산서구", "sig_name": "경기도 고양시 일산서구", "total_cars": "2", "zone_id": "12572", "zone_name": "롯데렌탈 일산지점(B)"}, {"lat": "37.2096769493332", "lng": "126.831321195321", "region1": "경기도", "region2": "화성시", "sig_name": "경기도 화성시", "total_cars": "2", "zone_id": "13037", "zone_name": "DS주차타워"}, {"lat": "37.39656352725645", "lng": "127.11077131899688", "region1": "경기도", "region2": "성남시　분당구", "sig_name": "경기도 성남시 분당구", "total_cars": "2", "zone_id": "1389", "zone_name": "판교역 1번출구(메트로큐브)"}, {"lat": "37.33683168336918", "lng": "126.73000193639794", "region1": "경기도", "region2": "시흥시", "sig_name": "경기도 시흥시", "total_cars": "2", "zone_id": "2478", "zone_name": "롯데마트 시화점"}, {"lat": "37.48557201018937", "lng": "126.77777938150444", "region1": "경기도", "region2": "부천시　원미구", "sig_name": "경기도 부천시 원미구", "total_cars": "2", "zone_id": "13635", "zone_name": "부천 전화국사거리"}, {"lat": "37.35090364390729", "lng": "127.11147057468187", "region1": "경기도", "region2": "성남시　분당구", "sig_name": "경기도 성남시 분당구", "total_cars": "2", "zone_id": "1392", "zone_name": "미금역 2번출구"}, {"lat": "37.611935776649545", "lng": "127.1409195255533", "region1": "경기도", "region2": "구리시", "sig_name": "경기도 구리시", "total_cars": "2", "zone_id": "13999", "zone_name": "롯데마트 그랑그로서리 구리점"}, {"lat": "37.47915627984293", "lng": "126.8577389023152", "region1": "경기도", "region2": "광명시", "sig_name": "경기도 광명시", "total_cars": "2", "zone_id": "11349", "zone_name": "광명사거리역 10번출구"}, {"lat": "37.30819461220891", "lng": "126.85379740394848", "region1": "경기도", "region2": "안산시　상록구", "sig_name": "경기도 안산시 상록구", "total_cars": "2", "zone_id": "1324", "zone_name": "한대앞역 환승공영주차장"}, {"lat": "37.2346461244825", "lng": "127.207292622761", "region1": "경기도", "region2": "용인시　처인구", "sig_name": "경기도 용인시 처인구", "total_cars": "2", "zone_id": "13536", "zone_name": "용인공용버스터미널 사거리"}, {"lat": "37.8186059336756", "lng": "127.05549767713", "region1": "경기도", "region2": "양주시", "sig_name": "경기도 양주시", "total_cars": "2", "zone_id": "13466", "zone_name": "덕계역 제이타워"}, {"lat": "37.4114516886847", "lng": "127.13069591282", "region1": "경기도", "region2": "성남시　분당구", "sig_name": "경기도 성남시 분당구", "total_cars": "2", "zone_id": "13998", "zone_name": "야탑역 2번출구(새벽회어시장)"}, {"lat": "37.4865087594087", "lng": "126.76194603633", "region1": "경기도", "region2": "부천시　소사구", "sig_name": "경기도 부천시 소사구", "total_cars": "2", "zone_id": "11615", "zone_name": "중동역 1번출구(부천 스포츠센터)"}, {"lat": "37.66041805909428", "lng": "126.77210404022028", "region1": "경기도", "region2": "고양시　일산동구", "sig_name": "경기도 고양시 일산동구", "total_cars": "2", "zone_id": "2282", "zone_name": "롯데백화점 일산점"}, {"lat": "37.65302100479569", "lng": "126.89890326945688", "region1": "경기도", "region2": "고양시　덕양구", "sig_name": "경기도 고양시 덕양구", "total_cars": "2", "zone_id": "11557", "zone_name": "삼송역 현대헤리엇 아파트"}, {"lat": "37.01851990615696", "lng": "127.0712045614701", "region1": "경기도", "region2": "평택시", "sig_name": "경기도 평택시", "total_cars": "2", "zone_id": "11433", "zone_name": "지제역 1번출구"}, {"lat": "37.440855596609445", "lng": "127.13291476441806", "region1": "경기도", "region2": "성남시　수정구", "sig_name": "경기도 성남시 수정구", "total_cars": "2", "zone_id": "5766", "zone_name": "성남중앙공설시장 앞"}, {"lat": "37.25135121255435", "lng": "127.0760698290602", "region1": "경기도", "region2": "수원시　영통구", "sig_name": "경기도 수원시 영통구", "total_cars": "2", "zone_id": "573", "zone_name": "영통역 2번출구"}, {"lat": "37.6269662909465", "lng": "126.830688088706", "region1": "경기도", "region2": "고양시　덕양구", "sig_name": "경기도 고양시 덕양구", "total_cars": "2", "zone_id": "13248", "zone_name": "고양경찰서 앞"}, {"lat": "37.2948743824997", "lng": "127.03694591721911", "region1": "경기도", "region2": "수원시　영통구", "sig_name": "경기도 수원시 영통구", "total_cars": "2", "zone_id": "9589", "zone_name": "광교 따복하우스"}, {"lat": "37.5271379066792", "lng": "126.803658477106", "region1": "경기도", "region2": "부천시　오정구", "sig_name": "경기도 부천시 오정구", "total_cars": "2", "zone_id": "11065", "zone_name": "원종고등학교 앞"}, {"lat": "37.732692811929", "lng": "127.04768672495", "region1": "경기도", "region2": "의정부시", "sig_name": "경기도 의정부시", "total_cars": "2", "zone_id": "13475", "zone_name": "의정부역 7번출구"}, {"lat": "37.00675598245341", "lng": "127.26530302783895", "region1": "경기도", "region2": "안성시", "sig_name": "경기도 안성시", "total_cars": "2", "zone_id": "11119", "zone_name": "안성 내혜홀초등학교 뒤"}, {"lat": "37.67516203491293", "lng": "126.7506830921107", "region1": "경기도", "region2": "고양시　일산서구", "sig_name": "경기도 고양시 일산서구", "total_cars": "2", "zone_id": "8680", "zone_name": "대화역 6번출구(신동아노블타워)"}, {"lat": "37.76685214056799", "lng": "126.77624524881192", "region1": "경기도", "region2": "파주시", "sig_name": "경기도 파주시", "total_cars": "2", "zone_id": "11182", "zone_name": "금촌역 2번출구"}, {"lat": "37.14187521662438", "lng": "127.07128062311347", "region1": "경기도", "region2": "오산시", "sig_name": "경기도 오산시", "total_cars": "2", "zone_id": "10998", "zone_name": "원동 르마레시티"}, {"lat": "37.31164677218136", "lng": "126.82778008169724", "region1": "경기도", "region2": "안산시　단원구", "sig_name": "경기도 안산시 단원구", "total_cars": "2", "zone_id": "1396", "zone_name": "수원지방법원 안산지원"}, {"lat": "37.7547493755535", "lng": "127.032473273121", "region1": "경기도", "region2": "의정부시", "sig_name": "경기도 의정부시", "total_cars": "2", "zone_id": "13065", "zone_name": "법무주차장"}, {"lat": "37.89923689985046", "lng": "127.2046856504174", "region1": "경기도", "region2": "포천시", "sig_name": "경기도 포천시", "total_cars": "2", "zone_id": "11451", "zone_name": "포천우체국 옆"}, {"lat": "37.49499542541845", "lng": "126.77719227346697", "region1": "경기도", "region2": "부천시　원미구", "sig_name": "경기도 부천시 원미구", "total_cars": "2", "zone_id": "10363", "zone_name": "부천소방서 사거리"}, {"lat": "37.632683348043024", "lng": "126.7044682021564", "region1": "경기도", "region2": "김포시", "sig_name": "경기도 김포시", "total_cars": "2", "zone_id": "13730", "zone_name": "걸포북변역 1번출구"}, {"lat": "37.4418725714669", "lng": "127.133645384818", "region1": "경기도", "region2": "성남시　수정구", "sig_name": "경기도 성남시 수정구", "total_cars": "2", "zone_id": "12868", "zone_name": "성남 부흥주차장"}, {"lat": "38.02570784521797", "lng": "127.06731069637615", "region1": "경기도", "region2": "연천군", "sig_name": "경기도 연천군", "total_cars": "2", "zone_id": "10946", "zone_name": "전곡시외버스터미널 옆"}, {"lat": "37.4865395025969", "lng": "126.780667918994", "region1": "경기도", "region2": "부천시　원미구", "sig_name": "경기도 부천시 원미구", "total_cars": "2", "zone_id": "13961", "zone_name": "부천대학교 앞"}, {"lat": "37.46827028243", "lng": "126.796570643176", "region1": "경기도", "region2": "부천시　소사구", "sig_name": "경기도 부천시 소사구", "total_cars": "2", "zone_id": "13098", "zone_name": "소새울역 3번출구"}, {"lat": "37.26531540963256", "lng": "127.64011563321723", "region1": "경기도", "region2": "여주시", "sig_name": "경기도 여주시", "total_cars": "2", "zone_id": "12027", "zone_name": "여주대학교 앞"}, {"lat": "37.76111500330541", "lng": "127.04257142765697", "region1": "경기도", "region2": "의정부시", "sig_name": "경기도 의정부시", "total_cars": "2", "zone_id": "9539", "zone_name": "녹양역 1번출구"}, {"lat": "37.7447163988476", "lng": "127.094044810333", "region1": "경기도", "region2": "의정부시", "sig_name": "경기도 의정부시", "total_cars": "2", "zone_id": "13243", "zone_name": "다이소 의정부민락점"}, {"lat": "37.0436699385325", "lng": "127.054900619491", "region1": "경기도", "region2": "평택시", "sig_name": "경기도 평택시", "total_cars": "2", "zone_id": "12879", "zone_name": "평택 삼성전자 앞"}, {"lat": "37.6543072891183", "lng": "126.684209473334", "region1": "경기도", "region2": "김포시", "sig_name": "경기도 김포시", "total_cars": "2", "zone_id": "3665", "zone_name": "김포 운양동(골든스퀘어)"}, {"lat": "37.25173948442268", "lng": "127.10951349084982", "region1": "경기도", "region2": "용인시　기흥구", "sig_name": "경기도 용인시 기흥구", "total_cars": "2", "zone_id": "10955", "zone_name": "용인 보라고등학교 옆"}, {"lat": "37.53745688440717", "lng": "127.20406035678502", "region1": "경기도", "region2": "하남시", "sig_name": "경기도 하남시", "total_cars": "2", "zone_id": "5979", "zone_name": "신장사거리"}, {"lat": "37.48905877476841", "lng": "126.75169727478988", "region1": "경기도", "region2": "부천시　원미구", "sig_name": "경기도 부천시 원미구", "total_cars": "2", "zone_id": "13729", "zone_name": "송내역 2번출구(반달공원)"}, {"lat": "37.0565556103516", "lng": "127.048627642587", "region1": "경기도", "region2": "평택시", "sig_name": "경기도 평택시", "total_cars": "2", "zone_id": "13135", "zone_name": "서정리역 2번출구"}, {"lat": "37.01020220545803", "lng": "127.09408991752537", "region1": "경기도", "region2": "평택시", "sig_name": "경기도 평택시", "total_cars": "2", "zone_id": "9053", "zone_name": "평택 서재제2(공영주차장)"}, {"lat": "37.44975977098038", "lng": "127.14496294820324", "region1": "경기도", "region2": "성남시　수정구", "sig_name": "경기도 성남시 수정구", "total_cars": "2", "zone_id": "11890", "zone_name": "성남 수정구청 옆"}, {"lat": "37.144782423796", "lng": "127.067385110224", "region1": "경기도", "region2": "오산시", "sig_name": "경기도 오산시", "total_cars": "2", "zone_id": "13671", "zone_name": "오산역 광장주차장"}, {"lat": "37.24453024374751", "lng": "127.01413342844684", "region1": "경기도", "region2": "수원시　권선구", "sig_name": "경기도 수원시 권선구", "total_cars": "2", "zone_id": "11589", "zone_name": "세류역 1번출구"}, {"lat": "37.3205916332385", "lng": "127.084096655968", "region1": "경기도", "region2": "용인시　수지구", "sig_name": "경기도 용인시 수지구", "total_cars": "2", "zone_id": "13318", "zone_name": "이마트 수지점 옆"}, {"lat": "37.2769903688992", "lng": "127.447771774495", "region1": "경기도", "region2": "이천시", "sig_name": "경기도 이천시", "total_cars": "2", "zone_id": "13796", "zone_name": "이천터미널"}, {"lat": "37.28629814267382", "lng": "127.0561884701566", "region1": "경기도", "region2": "수원시　영통구", "sig_name": "경기도 수원시 영통구", "total_cars": "2", "zone_id": "9370", "zone_name": "롯데아울렛 광교점"}, {"lat": "37.503590745742606", "lng": "126.75871192446937", "region1": "경기도", "region2": "부천시　원미구", "sig_name": "경기도 부천시 원미구", "total_cars": "2", "zone_id": "1856", "zone_name": "KT중동지사"}, {"lat": "37.24510760807874", "lng": "127.06199533068845", "region1": "경기도", "region2": "수원시　영통구", "sig_name": "경기도 수원시 영통구", "total_cars": "2", "zone_id": "9436", "zone_name": "망포역 1번출구(더판타지움)"}, {"lat": "36.988675068171744", "lng": "127.09041296555417", "region1": "경기도", "region2": "평택시", "sig_name": "경기도 평택시", "total_cars": "2", "zone_id": "9563", "zone_name": "평택 합정주공아파트"}, {"lat": "37.31980374156553", "lng": "127.10971229708228", "region1": "경기도", "region2": "용인시　기흥구", "sig_name": "경기도 용인시 기흥구", "total_cars": "2", "zone_id": "1563", "zone_name": "보정동 카페거리(아이원프라자)"}, {"lat": "37.6457243218596", "lng": "126.627856579337", "region1": "경기도", "region2": "김포시", "sig_name": "경기도 김포시", "total_cars": "2", "zone_id": "13916", "zone_name": "구래역 1번출구(월드에비뉴)"}, {"lat": "37.9005230374362", "lng": "127.205798976569", "region1": "경기도", "region2": "포천시", "sig_name": "경기도 포천시", "total_cars": "2", "zone_id": "11007", "zone_name": "GS더프레시 포천점"}, {"lat": "37.2619510369597", "lng": "127.032735777643", "region1": "경기도", "region2": "수원시　팔달구", "sig_name": "경기도 수원시 팔달구", "total_cars": "2", "zone_id": "14022", "zone_name": "수원시청역 10번출구(NH농협은행경기본부)"}, {"lat": "37.6531880845068", "lng": "127.302242214757", "region1": "경기도", "region2": "남양주시", "sig_name": "경기도 남양주시", "total_cars": "2", "zone_id": "10019", "zone_name": "송라초등학교 앞"}, {"lat": "37.60684188308744", "lng": "126.7234805288344", "region1": "경기도", "region2": "김포시", "sig_name": "경기도 김포시", "total_cars": "2", "zone_id": "11221", "zone_name": "김포 풍무사거리"}, {"lat": "37.650566576905405", "lng": "127.30791030844144", "region1": "경기도", "region2": "남양주시", "sig_name": "경기도 남양주시", "total_cars": "2", "zone_id": "7802", "zone_name": "롯데하이마트 마석점"}, {"lat": "37.6620242837934", "lng": "126.750894829065", "region1": "경기도", "region2": "고양시　일산동구", "sig_name": "경기도 고양시 일산동구", "total_cars": "2", "zone_id": "9598", "zone_name": "소노캄호텔 고양점"}, {"lat": "37.53986282610833", "lng": "127.2156520707172", "region1": "경기도", "region2": "하남시", "sig_name": "경기도 하남시", "total_cars": "2", "zone_id": "10996", "zone_name": "하남시청 뒤"}, {"lat": "37.7210417138502", "lng": "127.20223112587", "region1": "경기도", "region2": "남양주시", "sig_name": "경기도 남양주시", "total_cars": "2", "zone_id": "10512", "zone_name": "진접 종점프라자"}, {"lat": "37.8310167096784", "lng": "127.147489289128", "region1": "경기도", "region2": "포천시", "sig_name": "경기도 포천시", "total_cars": "2", "zone_id": "13472", "zone_name": "송우우체국 옆"}, {"lat": "37.3024076322116", "lng": "126.86121770368754", "region1": "경기도", "region2": "안산시　상록구", "sig_name": "경기도 안산시 상록구", "total_cars": "1", "zone_id": "7323", "zone_name": "본오지구대 옆"}, {"lat": "37.24956122663316", "lng": "127.08079296137704", "region1": "경기도", "region2": "수원시　영통구", "sig_name": "경기도 수원시 영통구", "total_cars": "1", "zone_id": "8253", "zone_name": "경희대 국제캠퍼스 앞"}, {"lat": "37.32547371826887", "lng": "127.12535701873097", "region1": "경기도", "region2": "용인시　수지구", "sig_name": "경기도 용인시 수지구", "total_cars": "1", "zone_id": "12617", "zone_name": "용인 비발디공원 옆"}, {"lat": "37.27370555883649", "lng": "126.9533735471533", "region1": "경기도", "region2": "수원시　권선구", "sig_name": "경기도 수원시 권선구", "total_cars": "1", "zone_id": "10305", "zone_name": "금곡동 행정복지센터 옆(세종타운)"}, {"lat": "37.590585621496", "lng": "127.146709970294", "region1": "경기도", "region2": "구리시", "sig_name": "경기도 구리시", "total_cars": "1", "zone_id": "6150", "zone_name": "토평중학교 앞"}, {"lat": "37.41280412372342", "lng": "126.91785948183669", "region1": "경기도", "region2": "안양시　만안구", "sig_name": "경기도 안양시 만안구", "total_cars": "1", "zone_id": "12579", "zone_name": "안양 CS스포츠"}, {"lat": "37.3310270057012", "lng": "127.112062341733", "region1": "경기도", "region2": "용인시　수지구", "sig_name": "경기도 용인시 수지구", "total_cars": "1", "zone_id": "14050", "zone_name": "이마트에브리데이 죽전점"}, {"lat": "37.2923863368807", "lng": "127.12164021966076", "region1": "경기도", "region2": "용인시　기흥구", "sig_name": "경기도 용인시 기흥구", "total_cars": "1", "zone_id": "8809", "zone_name": "롯데슈퍼 언남점"}, {"lat": "37.82474939639104", "lng": "127.1431803012102", "region1": "경기도", "region2": "포천시", "sig_name": "경기도 포천시", "total_cars": "1", "zone_id": "13551", "zone_name": "롯데하이마트 송우점"}, {"lat": "36.9990976798512", "lng": "127.149095829275", "region1": "경기도", "region2": "평택시", "sig_name": "경기도 평택시", "total_cars": "1", "zone_id": "13064", "zone_name": "예인타워"}, {"lat": "37.68815455383287", "lng": "126.6039149063196", "region1": "경기도", "region2": "김포시", "sig_name": "경기도 김포시", "total_cars": "1", "zone_id": "13528", "zone_name": "김포 통진중고사거리"}, {"lat": "37.6357113681019", "lng": "127.123124885354", "region1": "경기도", "region2": "구리시", "sig_name": "경기도 구리시", "total_cars": "1", "zone_id": "14120", "zone_name": "힐스테이트갈매역스칸센 B동"}, {"lat": "37.17572951515288", "lng": "127.05077899073432", "region1": "경기도", "region2": "오산시", "sig_name": "경기도 오산시", "total_cars": "1", "zone_id": "11446", "zone_name": "W파크타워"}, {"lat": "37.330792345001", "lng": "126.786075309061", "region1": "경기도", "region2": "안산시　단원구", "sig_name": "경기도 안산시 단원구", "total_cars": "1", "zone_id": "14119", "zone_name": "안산월드타워"}, {"lat": "37.7514392672272", "lng": "127.109943705658", "region1": "경기도", "region2": "의정부시", "sig_name": "경기도 의정부시", "total_cars": "1", "zone_id": "2476", "zone_name": "의정부 민락푸르지오"}, {"lat": "37.4027276559461", "lng": "126.95324965277857", "region1": "경기도", "region2": "안양시　동안구", "sig_name": "경기도 안양시 동안구", "total_cars": "1", "zone_id": "7804", "zone_name": "롯데하이마트 비산점"}, {"lat": "37.483036512430445", "lng": "127.59556913305268", "region1": "경기도", "region2": "양평군", "sig_name": "경기도 양평군", "total_cars": "1", "zone_id": "12296", "zone_name": "용문역 2번출구"}, {"lat": "37.35080819038809", "lng": "126.74533515896772", "region1": "경기도", "region2": "시흥시", "sig_name": "경기도 시흥시", "total_cars": "1", "zone_id": "183", "zone_name": "정왕역 공영주차장"}, {"lat": "37.2353784478194", "lng": "127.201100685389", "region1": "경기도", "region2": "용인시　처인구", "sig_name": "경기도 용인시 처인구", "total_cars": "1", "zone_id": "14087", "zone_name": "메디필드한강병원"}, {"lat": "37.33059533913891", "lng": "126.84046584975069", "region1": "경기도", "region2": "안산시　단원구", "sig_name": "경기도 안산시 단원구", "total_cars": "1", "zone_id": "8394", "zone_name": "서울예술대학교"}, {"lat": "37.39320496431714", "lng": "126.963252908956", "region1": "경기도", "region2": "안양시　동안구", "sig_name": "경기도 안양시 동안구", "total_cars": "1", "zone_id": "11714", "zone_name": "평촌역 사우나파크"}, {"lat": "37.3777450993664", "lng": "127.230987602889", "region1": "경기도", "region2": "광주시", "sig_name": "경기도 광주시", "total_cars": "1", "zone_id": "13498", "zone_name": "태전동 칸마트"}, {"lat": "37.39660201071259", "lng": "126.98453085422528", "region1": "경기도", "region2": "의왕시", "sig_name": "경기도 의왕시", "total_cars": "1", "zone_id": "12438", "zone_name": "의왕 물빛근린공원 옆"}, {"lat": "37.293019774895214", "lng": "126.83609402009668", "region1": "경기도", "region2": "안산시　상록구", "sig_name": "경기도 안산시 상록구", "total_cars": "1", "zone_id": "10029", "zone_name": "한양대학교 행복관"}, {"lat": "37.6522476895803", "lng": "127.115063398199", "region1": "경기도", "region2": "남양주시", "sig_name": "경기도 남양주시", "total_cars": "1", "zone_id": "13628", "zone_name": "별내 시민주차타워"}, {"lat": "37.74711857644808", "lng": "127.05339644101022", "region1": "경기도", "region2": "의정부시", "sig_name": "경기도 의정부시", "total_cars": "1", "zone_id": "13168", "zone_name": "의정부 버스터미널 옆"}, {"lat": "37.6284143742637", "lng": "126.702664753456", "region1": "경기도", "region2": "김포시", "sig_name": "경기도 김포시", "total_cars": "1", "zone_id": "10651", "zone_name": "김포 서초등학교 앞"}, {"lat": "37.33405906094745", "lng": "127.09697219396286", "region1": "경기도", "region2": "용인시　수지구", "sig_name": "경기도 용인시 수지구", "total_cars": "1", "zone_id": "13176", "zone_name": "동천체육공원 앞"}, {"lat": "37.2158203857979", "lng": "127.054273421873", "region1": "경기도", "region2": "화성시", "sig_name": "경기도 화성시", "total_cars": "1", "zone_id": "14168", "zone_name": "동탄순길프라자"}, {"lat": "37.6113971938953", "lng": "126.732833817727", "region1": "경기도", "region2": "김포시", "sig_name": "경기도 김포시", "total_cars": "1", "zone_id": "13210", "zone_name": "풍무역 2번출구"}, {"lat": "37.2981490487358", "lng": "127.070525530997", "region1": "경기도", "region2": "용인시　수지구", "sig_name": "경기도 용인시 수지구", "total_cars": "1", "zone_id": "12956", "zone_name": "광교에스비타운"}, {"lat": "37.0580421218106", "lng": "127.061600239295", "region1": "경기도", "region2": "평택시", "sig_name": "경기도 평택시", "total_cars": "1", "zone_id": "13550", "zone_name": "롯데하이마트 송탄점"}, {"lat": "37.217595055459", "lng": "126.959089827351", "region1": "경기도", "region2": "화성시", "sig_name": "경기도 화성시", "total_cars": "1", "zone_id": "14096", "zone_name": "동화초등학교 옆"}, {"lat": "37.6702756780367", "lng": "126.76285309862249", "region1": "경기도", "region2": "고양시　일산서구", "sig_name": "경기도 고양시 일산서구", "total_cars": "1", "zone_id": "1385", "zone_name": "주엽역 8번출구"}, {"lat": "37.7313731461301", "lng": "126.75200775573", "region1": "경기도", "region2": "파주시", "sig_name": "경기도 파주시", "total_cars": "1", "zone_id": "12541", "zone_name": "파주 메디스타워"}, {"lat": "37.56840968190111", "lng": "127.18589955682695", "region1": "경기도", "region2": "하남시", "sig_name": "경기도 하남시", "total_cars": "1", "zone_id": "10288", "zone_name": "미사2동 행복복지센터 뒤"}, {"lat": "37.3214507819139", "lng": "126.944874386274", "region1": "경기도", "region2": "군포시", "sig_name": "경기도 군포시", "total_cars": "1", "zone_id": "13336", "zone_name": "의왕역 1번출구(거성아우룸펠리스3차)"}, {"lat": "37.158687596259", "lng": "127.109294237209", "region1": "경기도", "region2": "화성시", "sig_name": "경기도 화성시", "total_cars": "1", "zone_id": "9793", "zone_name": "동탄 롯데캐슬아파트"}, {"lat": "37.3443673366283", "lng": "126.737316162857", "region1": "경기도", "region2": "시흥시", "sig_name": "경기도 시흥시", "total_cars": "1", "zone_id": "13480", "zone_name": "정왕동 타워주차장"}, {"lat": "37.300657887673424", "lng": "127.04363863011088", "region1": "경기도", "region2": "수원시　영통구", "sig_name": "경기도 수원시 영통구", "total_cars": "1", "zone_id": "13093", "zone_name": "광교역 주차장"}, {"lat": "37.2107600514118", "lng": "127.100315884619", "region1": "경기도", "region2": "화성시", "sig_name": "경기도 화성시", "total_cars": "1", "zone_id": "14106", "zone_name": "화성 메가비즈타워C동"}, {"lat": "37.72365761941718", "lng": "126.71287087751932", "region1": "경기도", "region2": "파주시", "sig_name": "경기도 파주시", "total_cars": "1", "zone_id": "7730", "zone_name": "파주 교하도서관"}, {"lat": "37.6519702788821", "lng": "126.676674009123", "region1": "경기도", "region2": "김포시", "sig_name": "경기도 김포시", "total_cars": "1", "zone_id": "13358", "zone_name": "김포제일고등학교 옆"}, {"lat": "37.92830515913719", "lng": "127.05547078245944", "region1": "경기도", "region2": "동두천시", "sig_name": "경기도 동두천시", "total_cars": "1", "zone_id": "11289", "zone_name": "동두천역 1번출구"}, {"lat": "37.32018969926925", "lng": "127.09206227179298", "region1": "경기도", "region2": "용인시　수지구", "sig_name": "경기도 용인시 수지구", "total_cars": "1", "zone_id": "8522", "zone_name": "신정마을용인수지9단지"}, {"lat": "37.201184770798", "lng": "127.091401996238", "region1": "경기도", "region2": "화성시", "sig_name": "경기도 화성시", "total_cars": "1", "zone_id": "13581", "zone_name": "동탄역(SRT) 유퍼스트 오피스텔"}, {"lat": "37.60019805423035", "lng": "126.77244780518004", "region1": "경기도", "region2": "김포시", "sig_name": "경기도 김포시", "total_cars": "1", "zone_id": "10650", "zone_name": "김포 신곡사거리"}, {"lat": "37.6530684273915", "lng": "126.900850518462", "region1": "경기도", "region2": "고양시　덕양구", "sig_name": "경기도 고양시 덕양구", "total_cars": "1", "zone_id": "13803", "zone_name": "힐스테이트 삼송역 스칸센오피스텔"}, {"lat": "37.25913564458511", "lng": "126.96271222320117", "region1": "경기도", "region2": "수원시　권선구", "sig_name": "경기도 수원시 권선구", "total_cars": "1", "zone_id": "11181", "zone_name": "수원 호매실능실마을"}, {"lat": "37.1707601855178", "lng": "127.107268210462", "region1": "경기도", "region2": "화성시", "sig_name": "경기도 화성시", "total_cars": "1", "zone_id": "11234", "zone_name": "동탄 레이크파로스"}, {"lat": "37.35773095529802", "lng": "127.11955803952664", "region1": "경기도", "region2": "성남시　분당구", "sig_name": "경기도 성남시 분당구", "total_cars": "1", "zone_id": "13554", "zone_name": "이마트 분당점"}, {"lat": "37.65011481709608", "lng": "127.3053659055409", "region1": "경기도", "region2": "남양주시", "sig_name": "경기도 남양주시", "total_cars": "1", "zone_id": "12976", "zone_name": "알파오메가 마석점"}, {"lat": "37.3947767320057", "lng": "127.240221606795", "region1": "경기도", "region2": "광주시", "sig_name": "경기도 광주시", "total_cars": "1", "zone_id": "13333", "zone_name": "장지1통 마을회관 옆"}, {"lat": "37.50274790175855", "lng": "126.76431276559777", "region1": "경기도", "region2": "부천시　원미구", "sig_name": "경기도 부천시 원미구", "total_cars": "1", "zone_id": "10383", "zone_name": "부천시청역 1번출구"}, {"lat": "37.282833690338414", "lng": "127.22127496609151", "region1": "경기도", "region2": "용인시　처인구", "sig_name": "경기도 용인시 처인구", "total_cars": "1", "zone_id": "11357", "zone_name": "에버랜드역 1번출구 옆"}, {"lat": "37.2985654332922", "lng": "127.631550414596", "region1": "경기도", "region2": "여주시", "sig_name": "경기도 여주시", "total_cars": "1", "zone_id": "13370", "zone_name": "하동제일시장주차장"}, {"lat": "37.3949728378077", "lng": "126.960934801787", "region1": "경기도", "region2": "안양시　동안구", "sig_name": "경기도 안양시 동안구", "total_cars": "1", "zone_id": "14101", "zone_name": "평촌역 2번출구"}, {"lat": "37.6329554156685", "lng": "126.83113208241", "region1": "경기도", "region2": "고양시　덕양구", "sig_name": "경기도 고양시 덕양구", "total_cars": "1", "zone_id": "7540", "zone_name": "롯데마트 화정점"}, {"lat": "37.37373252303381", "lng": "127.29929556221384", "region1": "경기도", "region2": "광주시", "sig_name": "경기도 광주시", "total_cars": "1", "zone_id": "8989", "zone_name": "초월역(경강선) 2번출구"}, {"lat": "37.2596882833515", "lng": "127.030584147968", "region1": "경기도", "region2": "수원시　권선구", "sig_name": "경기도 수원시 권선구", "total_cars": "1", "zone_id": "14046", "zone_name": "수원시청역 3번출구(대한적십자사 경기도지사)"}, {"lat": "37.61990306060557", "lng": "126.8203338776108", "region1": "경기도", "region2": "고양시　덕양구", "sig_name": "경기도 고양시 덕양구", "total_cars": "1", "zone_id": "12326", "zone_name": "능곡역 1번출구"}, {"lat": "37.4305453572681", "lng": "127.13050224746628", "region1": "경기도", "region2": "성남시　중원구", "sig_name": "경기도 성남시 중원구", "total_cars": "1", "zone_id": "1390", "zone_name": "모란역 4번출구"}, {"lat": "38.02829855165552", "lng": "127.06634921430188", "region1": "경기도", "region2": "연천군", "sig_name": "경기도 연천군", "total_cars": "1", "zone_id": "12332", "zone_name": "롯데슈퍼 전곡점"}, {"lat": "37.36083827689075", "lng": "126.94652570230537", "region1": "경기도", "region2": "군포시", "sig_name": "경기도 군포시", "total_cars": "1", "zone_id": "12006", "zone_name": "군포 두현타워"}, {"lat": "37.42221348937059", "lng": "126.88356487876332", "region1": "경기도", "region2": "광명시", "sig_name": "경기도 광명시", "total_cars": "1", "zone_id": "12826", "zone_name": "이케아광명점 앞"}, {"lat": "37.65869927991051", "lng": "126.79471148603704", "region1": "경기도", "region2": "고양시　일산동구", "sig_name": "경기도 고양시 일산동구", "total_cars": "1", "zone_id": "8170", "zone_name": "백마역 2번출구"}, {"lat": "37.612604952686766", "lng": "126.84659090035784", "region1": "경기도", "region2": "고양시　덕양구", "sig_name": "경기도 고양시 덕양구", "total_cars": "1", "zone_id": "11628", "zone_name": "강매역 1번출구"}, {"lat": "37.018196284070335", "lng": "127.08848138838256", "region1": "경기도", "region2": "평택시", "sig_name": "경기도 평택시", "total_cars": "1", "zone_id": "13332", "zone_name": "스타주차타워"}, {"lat": "37.61785266727016", "lng": "127.1670757259887", "region1": "경기도", "region2": "남양주시", "sig_name": "경기도 남양주시", "total_cars": "1", "zone_id": "13046", "zone_name": "다산지금경기행복주택아파트"}, {"lat": "37.3065574524878", "lng": "126.816030780631", "region1": "경기도", "region2": "안산시　단원구", "sig_name": "경기도 안산시 단원구", "total_cars": "1", "zone_id": "13506", "zone_name": "초지동 풍경공원 뒤"}, {"lat": "37.6620386411851", "lng": "126.89089378851", "region1": "경기도", "region2": "고양시　덕양구", "sig_name": "경기도 고양시 덕양구", "total_cars": "1", "zone_id": "13595", "zone_name": "고양 신원마을 아파트 앞"}, {"lat": "37.8322912950097", "lng": "127.150758699844", "region1": "경기도", "region2": "포천시", "sig_name": "경기도 포천시", "total_cars": "1", "zone_id": "13473", "zone_name": "포천 강남스포렉스"}, {"lat": "37.7630374310454", "lng": "126.774952642572", "region1": "경기도", "region2": "파주시", "sig_name": "경기도 파주시", "total_cars": "1", "zone_id": "14044", "zone_name": "NH 농협파주시지부점"}, {"lat": "37.61885226100848", "lng": "126.7169287469735", "region1": "경기도", "region2": "김포시", "sig_name": "경기도 김포시", "total_cars": "1", "zone_id": "13529", "zone_name": "사우동 행정복지센터 옆"}, {"lat": "37.352084798218335", "lng": "126.9465431985717", "region1": "경기도", "region2": "군포시", "sig_name": "경기도 군포시", "total_cars": "1", "zone_id": "12809", "zone_name": "군포역 1번출구"}, {"lat": "37.4443425155112", "lng": "126.785478401044", "region1": "경기도", "region2": "시흥시", "sig_name": "경기도 시흥시", "total_cars": "1", "zone_id": "10594", "zone_name": "시흥시 대야파출소 옆"}, {"lat": "37.538821539093256", "lng": "127.20618049213483", "region1": "경기도", "region2": "하남시", "sig_name": "경기도 하남시", "total_cars": "1", "zone_id": "7444", "zone_name": "GS더프레시 하남점"}, {"lat": "37.54597817119044", "lng": "127.32821167714476", "region1": "경기도", "region2": "양평군", "sig_name": "경기도 양평군", "total_cars": "1", "zone_id": "12286", "zone_name": "양수역 1번출구"}, {"lat": "37.163683660379455", "lng": "127.05302266342058", "region1": "경기도", "region2": "오산시", "sig_name": "경기도 오산시", "total_cars": "1", "zone_id": "13091", "zone_name": "물향기수목원 옆"}, {"lat": "37.7516268103377", "lng": "126.766937781934", "region1": "경기도", "region2": "파주시", "sig_name": "경기도 파주시", "total_cars": "1", "zone_id": "13434", "zone_name": "금릉역 2번출구"}, {"lat": "37.31449334375899", "lng": "126.8374730581814", "region1": "경기도", "region2": "안산시　단원구", "sig_name": "경기도 안산시 단원구", "total_cars": "1", "zone_id": "13909", "zone_name": "중앙역 2번출구"}, {"lat": "37.2507644261042", "lng": "127.023086388761", "region1": "경기도", "region2": "수원시　권선구", "sig_name": "경기도 수원시 권선구", "total_cars": "1", "zone_id": "13880", "zone_name": "수원버스터미널 옆"}, {"lat": "37.26361856804041", "lng": "126.99911221025803", "region1": "경기도", "region2": "수원시　권선구", "sig_name": "경기도 수원시 권선구", "total_cars": "1", "zone_id": "9765", "zone_name": "롯데몰 수원점 앞"}, {"lat": "37.28794011088258", "lng": "126.85140106524796", "region1": "경기도", "region2": "안산시　상록구", "sig_name": "경기도 안산시 상록구", "total_cars": "1", "zone_id": "13876", "zone_name": "시곡초등학교 옆"}, {"lat": "37.25949798426737", "lng": "127.489525763471", "region1": "경기도", "region2": "이천시", "sig_name": "경기도 이천시", "total_cars": "1", "zone_id": "10136", "zone_name": "부발역 1번출구(경강선)"}, {"lat": "37.7285964244907", "lng": "126.734137225388", "region1": "경기도", "region2": "파주시", "sig_name": "경기도 파주시", "total_cars": "1", "zone_id": "13784", "zone_name": "파주 산내마을 단지 앞 "}, {"lat": "37.1492994259385", "lng": "127.076040658683", "region1": "경기도", "region2": "오산시", "sig_name": "경기도 오산시", "total_cars": "1", "zone_id": "14097", "zone_name": "오산시청 앞"}, {"lat": "37.3335973995839", "lng": "127.105774334295", "region1": "경기도", "region2": "용인시　수지구", "sig_name": "경기도 용인시 수지구", "total_cars": "1", "zone_id": "14019", "zone_name": "대현초등학교 옆"}, {"lat": "37.49216688839599", "lng": "126.78730528991046", "region1": "경기도", "region2": "부천시　원미구", "sig_name": "경기도 부천시 원미구", "total_cars": "1", "zone_id": "10364", "zone_name": "원미부흥시장"}, {"lat": "37.6610990462953", "lng": "126.766975835738", "region1": "경기도", "region2": "고양시　일산동구", "sig_name": "경기도 고양시 일산동구", "total_cars": "1", "zone_id": "13913", "zone_name": "일산호수공원 옆(삼라마이다스빌2차)"}, {"lat": "37.50253525368991", "lng": "126.7608329910714", "region1": "경기도", "region2": "부천시　원미구", "sig_name": "경기도 부천시 원미구", "total_cars": "1", "zone_id": "12668", "zone_name": "부천시청역 3번출구"}, {"lat": "37.81818070773664", "lng": "127.05620315989653", "region1": "경기도", "region2": "양주시", "sig_name": "경기도 양주시", "total_cars": "1", "zone_id": "12068", "zone_name": "덕계역 1번출구"}, {"lat": "37.5019345810332", "lng": "126.771520771643", "region1": "경기도", "region2": "부천시　원미구", "sig_name": "경기도 부천시 원미구", "total_cars": "1", "zone_id": "13666", "zone_name": "중동 센트럴프라움"}, {"lat": "37.64134822799112", "lng": "126.786866246745", "region1": "경기도", "region2": "고양시　일산동구", "sig_name": "경기도 고양시 일산동구", "total_cars": "1", "zone_id": "8635", "zone_name": "백석역 효성레제스오피스텔"}, {"lat": "37.23574134701969", "lng": "127.2025069345908", "region1": "경기도", "region2": "용인시　처인구", "sig_name": "경기도 용인시 처인구", "total_cars": "1", "zone_id": "7456", "zone_name": "GS더프레시 용인점"}, {"lat": "37.28215301273112", "lng": "127.62797854163412", "region1": "경기도", "region2": "여주시", "sig_name": "경기도 여주시", "total_cars": "1", "zone_id": "9653", "zone_name": "여주역 2번출구"}, {"lat": "37.13632597170908", "lng": "127.0728623161025", "region1": "경기도", "region2": "오산시", "sig_name": "경기도 오산시", "total_cars": "1", "zone_id": "12812", "zone_name": "한전 오산지사 옆"}, {"lat": "37.168589577608806", "lng": "127.06292309230916", "region1": "경기도", "region2": "오산시", "sig_name": "경기도 오산시", "total_cars": "1", "zone_id": "9574", "zone_name": "오산대역 2번출구"}, {"lat": "37.72745777340978", "lng": "126.75929478941352", "region1": "경기도", "region2": "파주시", "sig_name": "경기도 파주시", "total_cars": "1", "zone_id": "12537", "zone_name": "파주 운정동우체국 뒤"}, {"lat": "37.35255382281812", "lng": "126.7218764549959", "region1": "경기도", "region2": "시흥시", "sig_name": "경기도 시흥시", "total_cars": "1", "zone_id": "14040", "zone_name": "정왕동 천마유료주차장"}, {"lat": "37.2031521859169", "lng": "127.096882641124", "region1": "경기도", "region2": "화성시", "sig_name": "경기도 화성시", "total_cars": "1", "zone_id": "11508", "zone_name": "동탄 푸르지오시티"}, {"lat": "37.7442340996329", "lng": "127.096510370142", "region1": "경기도", "region2": "의정부시", "sig_name": "경기도 의정부시", "total_cars": "1", "zone_id": "13725", "zone_name": "의정부 해동본타워"}, {"lat": "37.275349107231456", "lng": "126.97744523280129", "region1": "경기도", "region2": "수원시　권선구", "sig_name": "경기도 수원시 권선구", "total_cars": "1", "zone_id": "10985", "zone_name": "구운중학교 앞"}, {"lat": "37.2310543581918", "lng": "127.18723450472686", "region1": "경기도", "region2": "용인시　처인구", "sig_name": "경기도 용인시 처인구", "total_cars": "1", "zone_id": "11159", "zone_name": "이마트 용인점 옆"}, {"lat": "37.0376579026282", "lng": "127.02639349456", "region1": "경기도", "region2": "평택시", "sig_name": "경기도 평택시", "total_cars": "1", "zone_id": "13303", "zone_name": "평택 애플타워"}, {"lat": "37.28815440310901", "lng": "127.63588848061184", "region1": "경기도", "region2": "여주시", "sig_name": "경기도 여주시", "total_cars": "1", "zone_id": "10339", "zone_name": "여주종합터미널"}, {"lat": "37.74655908482099", "lng": "127.09435077093472", "region1": "경기도", "region2": "의정부시", "sig_name": "경기도 의정부시", "total_cars": "1", "zone_id": "13734", "zone_name": "의정부 미디어주차장"}, {"lat": "37.2771377627166", "lng": "127.152967147058", "region1": "경기도", "region2": "용인시　기흥구", "sig_name": "경기도 용인시 기흥구", "total_cars": "1", "zone_id": "13794", "zone_name": "용인 지스타프라자"}, {"lat": "37.33100749812222", "lng": "126.78395344680428", "region1": "경기도", "region2": "안산시　단원구", "sig_name": "경기도 안산시 단원구", "total_cars": "1", "zone_id": "6106", "zone_name": "내 S-OIL"}, {"lat": "37.36212812413572", "lng": "126.73806227757343", "region1": "경기도", "region2": "시흥시", "sig_name": "경기도 시흥시", "total_cars": "1", "zone_id": "10827", "zone_name": "오이도역 1번출구"}, {"lat": "37.735386053932", "lng": "127.423743649877", "region1": "경기도", "region2": "가평군", "sig_name": "경기도 가평군", "total_cars": "1", "zone_id": "11435", "zone_name": "청평 엘엔비빌딩"}, {"lat": "37.4857566845953", "lng": "126.814180611876", "region1": "경기도", "region2": "부천시　소사구", "sig_name": "경기도 부천시 소사구", "total_cars": "1", "zone_id": "2590", "zone_name": "롯데하이마트 역곡점"}, {"lat": "37.36630978572476", "lng": "126.95771190737037", "region1": "경기도", "region2": "안양시　동안구", "sig_name": "경기도 안양시 동안구", "total_cars": "1", "zone_id": "11070", "zone_name": "안양 호계삼거리"}, {"lat": "37.6501937087171", "lng": "127.113587222487", "region1": "경기도", "region2": "남양주시", "sig_name": "경기도 남양주시", "total_cars": "1", "zone_id": "7507", "zone_name": "GS더프레시 남양주별내점"}, {"lat": "37.2566634586946", "lng": "127.021216280183", "region1": "경기도", "region2": "수원시　권선구", "sig_name": "경기도 수원시 권선구", "total_cars": "1", "zone_id": "13308", "zone_name": "수원 굿파크 주차장"}, {"lat": "37.3865562252796", "lng": "127.121206340497", "region1": "경기도", "region2": "성남시　분당구", "sig_name": "경기도 성남시 분당구", "total_cars": "1", "zone_id": "13765", "zone_name": "서현역 4번출구(스카이파크호텔)"}, {"lat": "37.01924529700682", "lng": "127.06941004525744", "region1": "경기도", "region2": "평택시", "sig_name": "경기도 평택시", "total_cars": "1", "zone_id": "8628", "zone_name": "지제역SRT"}, {"lat": "37.4365278736174", "lng": "127.140228852105", "region1": "경기도", "region2": "성남시　중원구", "sig_name": "경기도 성남시 중원구", "total_cars": "1", "zone_id": "13385", "zone_name": "수진역 2번출구"}, {"lat": "37.65712297419654", "lng": "126.83843185584712", "region1": "경기도", "region2": "고양시　덕양구", "sig_name": "경기도 고양시 덕양구", "total_cars": "1", "zone_id": "10770", "zone_name": "원당농협 성사지점"}, {"lat": "37.36622882132381", "lng": "127.1601623028887", "region1": "경기도", "region2": "광주시", "sig_name": "경기도 광주시", "total_cars": "1", "zone_id": "9479", "zone_name": "이마트에브리데이 오포신현점"}, {"lat": "37.76522252623069", "lng": "126.77330078425888", "region1": "경기도", "region2": "파주시", "sig_name": "경기도 파주시", "total_cars": "1", "zone_id": "9204", "zone_name": "금촌역 1번출구"}, {"lat": "37.75031185685188", "lng": "127.07161342109671", "region1": "경기도", "region2": "의정부시", "sig_name": "경기도 의정부시", "total_cars": "1", "zone_id": "6103", "zone_name": "경기도청북부청사역 1번출구"}, {"lat": "37.1935487207601", "lng": "127.073819890783", "region1": "경기도", "region2": "화성시", "sig_name": "경기도 화성시", "total_cars": "1", "zone_id": "13388", "zone_name": "동탄엔타워"}, {"lat": "37.43925055207554", "lng": "126.78603815212202", "region1": "경기도", "region2": "시흥시", "sig_name": "경기도 시흥시", "total_cars": "1", "zone_id": "14085", "zone_name": "신천역 5번출구"}, {"lat": "37.47119792446768", "lng": "126.80959635243048", "region1": "경기도", "region2": "부천시　소사구", "sig_name": "경기도 부천시 소사구", "total_cars": "1", "zone_id": "13315", "zone_name": "범박동 행정복지센터 옆"}, {"lat": "37.24221176408901", "lng": "126.96265294009302", "region1": "경기도", "region2": "수원시　권선구", "sig_name": "경기도 수원시 권선구", "total_cars": "1", "zone_id": "12529", "zone_name": "오목천역 2번출구"}, {"lat": "37.026645115716", "lng": "127.104696622461", "region1": "경기도", "region2": "평택시", "sig_name": "경기도 평택시", "total_cars": "1", "zone_id": "14121", "zone_name": "GS더프레시 평택신촌점"}, {"lat": "37.4980338017409", "lng": "126.775767743526", "region1": "경기도", "region2": "부천시　원미구", "sig_name": "경기도 부천시 원미구", "total_cars": "1", "zone_id": "13826", "zone_name": "부천먹자골목"}, {"lat": "37.6559856919235", "lng": "126.773251806868", "region1": "경기도", "region2": "고양시　일산동구", "sig_name": "경기도 고양시 일산동구", "total_cars": "1", "zone_id": "13789", "zone_name": "정발산역 1번출구(양우드라마시티)"}, {"lat": "37.29931036822467", "lng": "127.1077651208625", "region1": "경기도", "region2": "용인시　기흥구", "sig_name": "경기도 용인시 기흥구", "total_cars": "1", "zone_id": "11419", "zone_name": "구성농협 구성역지점"}, {"lat": "37.5158905906507", "lng": "126.80391480185244", "region1": "경기도", "region2": "부천시　오정구", "sig_name": "경기도 부천시 오정구", "total_cars": "1", "zone_id": "2591", "zone_name": "롯데하이마트 오정점"}, {"lat": "37.05979655986744", "lng": "127.05528326561856", "region1": "경기도", "region2": "평택시", "sig_name": "경기도 평택시", "total_cars": "1", "zone_id": "13573", "zone_name": "평택 서정교회"}, {"lat": "37.6508875772197", "lng": "126.869780382346", "region1": "경기도", "region2": "고양시　덕양구", "sig_name": "경기도 고양시 덕양구", "total_cars": "1", "zone_id": "12714", "zone_name": "원흥초등학교 옆"}, {"lat": "37.01254434239327", "lng": "127.25844516812288", "region1": "경기도", "region2": "안성시", "sig_name": "경기도 안성시", "total_cars": "1", "zone_id": "2596", "zone_name": "롯데하이마트 안성점"}, {"lat": "37.5010301031132", "lng": "126.765517720571", "region1": "경기도", "region2": "부천시　원미구", "sig_name": "경기도 부천시 원미구", "total_cars": "1", "zone_id": "13395", "zone_name": "부천중앙공원"}, {"lat": "37.68791933674479", "lng": "126.86612900955772", "region1": "경기도", "region2": "고양시　덕양구", "sig_name": "경기도 고양시 덕양구", "total_cars": "1", "zone_id": "11476", "zone_name": "고양 더퍼스트프라임아파트"}, {"lat": "37.6375320363485", "lng": "127.20774688290327", "region1": "경기도", "region2": "남양주시", "sig_name": "경기도 남양주시", "total_cars": "1", "zone_id": "12324", "zone_name": "금곡역 1번출구"}, {"lat": "37.417462666436506", "lng": "127.25233059335385", "region1": "경기도", "region2": "광주시", "sig_name": "경기도 광주시", "total_cars": "1", "zone_id": "11813", "zone_name": "경기광주 공설운동장 옆"}, {"lat": "37.677492926355", "lng": "126.769102976859", "region1": "경기도", "region2": "고양시　일산서구", "sig_name": "경기도 고양시 일산서구", "total_cars": "1", "zone_id": "13060", "zone_name": "모아프라자"}, {"lat": "37.6442431700183", "lng": "126.684177754251", "region1": "경기도", "region2": "김포시", "sig_name": "경기도 김포시", "total_cars": "1", "zone_id": "9795", "zone_name": "김포한강 롯데캐슬아파트"}, {"lat": "37.48035531268625", "lng": "126.803271224959", "region1": "경기도", "region2": "부천시　소사구", "sig_name": "경기도 부천시 소사구", "total_cars": "1", "zone_id": "7309", "zone_name": "소사구청 사거리"}, {"lat": "37.34038106408055", "lng": "127.10992929160116", "region1": "경기도", "region2": "성남시　분당구", "sig_name": "경기도 성남시 분당구", "total_cars": "1", "zone_id": "337", "zone_name": "오리역 1번출구"}, {"lat": "36.99632351215185", "lng": "127.10251886317724", "region1": "경기도", "region2": "평택시", "sig_name": "경기도 평택시", "total_cars": "1", "zone_id": "9054", "zone_name": "평택 매봉공영주차장"}, {"lat": "37.035430594245", "lng": "127.028831625899", "region1": "경기도", "region2": "평택시", "sig_name": "경기도 평택시", "total_cars": "1", "zone_id": "13300", "zone_name": "평택 비에스에듀타운"}, {"lat": "37.2672766681132", "lng": "127.081323437317", "region1": "경기도", "region2": "수원시　영통구", "sig_name": "경기도 수원시 영통구", "total_cars": "1", "zone_id": "13196", "zone_name": "영통 리슈빌스카이 오피스텔"}, {"lat": "37.30210027095339", "lng": "126.86685116420044", "region1": "경기도", "region2": "안산시　상록구", "sig_name": "경기도 안산시 상록구", "total_cars": "1", "zone_id": "7320", "zone_name": "상록수역 1번출구(공영)"}, {"lat": "37.31177231129784", "lng": "126.90440150185236", "region1": "경기도", "region2": "안산시　상록구", "sig_name": "경기도 안산시 상록구", "total_cars": "1", "zone_id": "7325", "zone_name": "반월역 환승주차장"}, {"lat": "37.9133406878514", "lng": "127.0574681130586", "region1": "경기도", "region2": "동두천시", "sig_name": "경기도 동두천시", "total_cars": "1", "zone_id": "14068", "zone_name": "보산역 2번출구"}, {"lat": "37.3288325", "lng": "126.8440322", "region1": "경기도", "region2": "안산시　상록구", "sig_name": "경기도 안산시 상록구", "total_cars": "1", "zone_id": "7321", "zone_name": "다농마트 뒤"}, {"lat": "37.86660948444834", "lng": "126.78415638395636", "region1": "경기도", "region2": "파주시", "sig_name": "경기도 파주시", "total_cars": "1", "zone_id": "11590", "zone_name": "CGV 파주문산점"}, {"lat": "37.89556020359948", "lng": "127.0578165366012", "region1": "경기도", "region2": "동두천시", "sig_name": "경기도 동두천시", "total_cars": "1", "zone_id": "7798", "zone_name": "롯데하이마트 동두천점"}, {"lat": "37.6443884521577", "lng": "126.877718196155", "region1": "경기도", "region2": "고양시　덕양구", "sig_name": "경기도 고양시 덕양구", "total_cars": "1", "zone_id": "13297", "zone_name": "동호시티타워"}, {"lat": "37.7335757242401", "lng": "126.758112300963", "region1": "경기도", "region2": "파주시", "sig_name": "경기도 파주시", "total_cars": "1", "zone_id": "8203", "zone_name": "파주 가람4단지한양수자인아파트"}, {"lat": "37.2941652384763", "lng": "127.63737559360456", "region1": "경기도", "region2": "여주시", "sig_name": "경기도 여주시", "total_cars": "1", "zone_id": "11619", "zone_name": "여주시민회관 앞"}, {"lat": "37.23639239866748", "lng": "127.07303176264122", "region1": "경기도", "region2": "용인시　기흥구", "sig_name": "경기도 용인시 기흥구", "total_cars": "1", "zone_id": "11227", "zone_name": "용인 세인트힐타워"}, {"lat": "37.34757037169039", "lng": "126.78434982761269", "region1": "경기도", "region2": "시흥시", "sig_name": "경기도 시흥시", "total_cars": "1", "zone_id": "8835", "zone_name": "시흥시 거모제1공영주차장"}, {"lat": "37.6464139756345", "lng": "126.91635353834", "region1": "경기도", "region2": "고양시　덕양구", "sig_name": "경기도 고양시 덕양구", "total_cars": "1", "zone_id": "13350", "zone_name": "지축역 1번출구"}, {"lat": "37.2251241056478", "lng": "126.946389443737", "region1": "경기도", "region2": "화성시", "sig_name": "경기도 화성시", "total_cars": "1", "zone_id": "14100", "zone_name": "봉담 삼봉근린공원 옆"}, {"lat": "37.1157674166714", "lng": "126.91322975737", "region1": "경기도", "region2": "화성시", "sig_name": "경기도 화성시", "total_cars": "1", "zone_id": "14167", "zone_name": "향남 KT시네마3"}, {"lat": "37.6321646906088", "lng": "126.706179110616", "region1": "경기도", "region2": "김포시", "sig_name": "경기도 김포시", "total_cars": "1", "zone_id": "13138", "zone_name": "까사미아 김포점"}, {"lat": "37.6230364387617", "lng": "126.83429055782", "region1": "경기도", "region2": "고양시　덕양구", "sig_name": "경기도 고양시 덕양구", "total_cars": "1", "zone_id": "13535", "zone_name": "행신초등학교 뒤"}, {"lat": "37.527735604948", "lng": "126.787256380345", "region1": "경기도", "region2": "부천시　오정구", "sig_name": "경기도 부천시 오정구", "total_cars": "1", "zone_id": "13096", "zone_name": "오정동 제1호공영주차장"}, {"lat": "37.1696076123234", "lng": "127.118194859987", "region1": "경기도", "region2": "화성시", "sig_name": "경기도 화성시", "total_cars": "1", "zone_id": "11281", "zone_name": "화성 정현초등학교 앞"}, {"lat": "37.63230410118405", "lng": "126.8117294149622", "region1": "경기도", "region2": "고양시　덕양구", "sig_name": "경기도 고양시 덕양구", "total_cars": "1", "zone_id": "13802", "zone_name": "GTX-A 대곡역"}, {"lat": "37.001394272641", "lng": "127.111781294823", "region1": "경기도", "region2": "평택시", "sig_name": "경기도 평택시", "total_cars": "1", "zone_id": "14122", "zone_name": "평택 티에스원주차빌딩"}, {"lat": "36.9878688306299", "lng": "127.11406521381734", "region1": "경기도", "region2": "평택시", "sig_name": "경기도 평택시", "total_cars": "1", "zone_id": "12057", "zone_name": "평택 배미공영주차장"}, {"lat": "37.6359092038883", "lng": "126.869969444965", "region1": "경기도", "region2": "고양시　덕양구", "sig_name": "경기도 고양시 덕양구", "total_cars": "1", "zone_id": "13681", "zone_name": "원흥힐사이드파크(오피스텔)"}, {"lat": "37.16893733038328", "lng": "127.06551868125707", "region1": "경기도", "region2": "오산시", "sig_name": "경기도 오산시", "total_cars": "1", "zone_id": "11567", "zone_name": "오산대역 1번출구"}, {"lat": "37.3177853427206", "lng": "126.84235654107664", "region1": "경기도", "region2": "안산시　단원구", "sig_name": "경기도 안산시 단원구", "total_cars": "1", "zone_id": "7319", "zone_name": "중앙하이츠빌 앞"}, {"lat": "37.320533986919166", "lng": "126.94890375057524", "region1": "경기도", "region2": "의왕시", "sig_name": "경기도 의왕시", "total_cars": "1", "zone_id": "10496", "zone_name": "의왕역 2번출구"}, {"lat": "37.01203022186656", "lng": "127.25732117089994", "region1": "경기도", "region2": "안성시", "sig_name": "경기도 안성시", "total_cars": "1", "zone_id": "11962", "zone_name": "CGV 안성점"}, {"lat": "37.6208642077549", "lng": "127.14762216408", "region1": "경기도", "region2": "남양주시", "sig_name": "경기도 남양주시", "total_cars": "1", "zone_id": "14189", "zone_name": "다산 종로서적 라이프스타일센터"}, {"lat": "37.6420398211327", "lng": "126.679168728513", "region1": "경기도", "region2": "김포시", "sig_name": "경기도 김포시", "total_cars": "1", "zone_id": "13967", "zone_name": "라베니체광장 옆"}, {"lat": "37.5645332508455", "lng": "127.18996940758", "region1": "경기도", "region2": "하남시", "sig_name": "경기도 하남시", "total_cars": "1", "zone_id": "13383", "zone_name": "미사역 3번출구"}, {"lat": "37.34211241580139", "lng": "126.75076730384376", "region1": "경기도", "region2": "시흥시", "sig_name": "경기도 시흥시", "total_cars": "1", "zone_id": "8829", "zone_name": "시흥시 시화공고(정왕제2공영주차장)"}, {"lat": "37.65909710427258", "lng": "127.24470871651585", "region1": "경기도", "region2": "남양주시", "sig_name": "경기도 남양주시", "total_cars": "1", "zone_id": "13488", "zone_name": "늘을 중앙공원"}, {"lat": "37.73744445746397", "lng": "127.04220050264829", "region1": "경기도", "region2": "의정부시", "sig_name": "경기도 의정부시", "total_cars": "1", "zone_id": "13665", "zone_name": "경전철의정부역 의정주차장"}, {"lat": "37.36834469220983", "lng": "126.81037164810073", "region1": "경기도", "region2": "시흥시", "sig_name": "경기도 시흥시", "total_cars": "1", "zone_id": "10306", "zone_name": "시흥능곡역 2번출구(효창프라자)"}, {"lat": "37.6553835219615", "lng": "126.773603811191", "region1": "경기도", "region2": "고양시　일산동구", "sig_name": "경기도 고양시 일산동구", "total_cars": "1", "zone_id": "14137", "zone_name": "정발산역 1번출구(일산웨스턴853)"}, {"lat": "37.3769191697572", "lng": "127.13348562174342", "region1": "경기도", "region2": "성남시　분당구", "sig_name": "경기도 성남시 분당구", "total_cars": "1", "zone_id": "11608", "zone_name": "분당 효자촌프라자"}, {"lat": "37.1939156664194", "lng": "127.07332500749", "region1": "경기도", "region2": "화성시", "sig_name": "경기도 화성시", "total_cars": "1", "zone_id": "13283", "zone_name": "홈플러스익스프레스 동탄점"}, {"lat": "37.4669280458462", "lng": "126.823530160572", "region1": "경기도", "region2": "부천시　소사구", "sig_name": "경기도 부천시 소사구", "total_cars": "1", "zone_id": "12875", "zone_name": "CGV부천옥길점 앞"}, {"lat": "37.5285759105986", "lng": "126.804096830126", "region1": "경기도", "region2": "부천시　오정구", "sig_name": "경기도 부천시 오정구", "total_cars": "1", "zone_id": "13440", "zone_name": "부천원일초등학교 앞"}, {"lat": "37.75756682449263", "lng": "126.7710956780723", "region1": "경기도", "region2": "파주시", "sig_name": "경기도 파주시", "total_cars": "1", "zone_id": "13752", "zone_name": "M식자재마트 금촌점"}, {"lat": "37.574866033625504", "lng": "127.19384827597952", "region1": "경기도", "region2": "하남시", "sig_name": "경기도 하남시", "total_cars": "1", "zone_id": "13325", "zone_name": "현대클러스터 한강미사3차"}, {"lat": "37.7316692929927", "lng": "126.751450908358", "region1": "경기도", "region2": "파주시", "sig_name": "경기도 파주시", "total_cars": "1", "zone_id": "13503", "zone_name": "운정 메디컬프라자"}, {"lat": "37.39041332283", "lng": "126.743293593505", "region1": "경기도", "region2": "시흥시", "sig_name": "경기도 시흥시", "total_cars": "1", "zone_id": "13517", "zone_name": "월곶역 1번출구"}, {"lat": "37.671980362368174", "lng": "126.8084865934129", "region1": "경기도", "region2": "고양시　일산동구", "sig_name": "경기도 고양시 일산동구", "total_cars": "1", "zone_id": "14118", "zone_name": "일산 베네하임오피스텔"}, {"lat": "37.3860200114257", "lng": "127.120604188234", "region1": "경기도", "region2": "성남시　분당구", "sig_name": "경기도 성남시 분당구", "total_cars": "1", "zone_id": "14160", "zone_name": "라포르테블랑서현"}, {"lat": "37.48574637103728", "lng": "126.75327140114432", "region1": "경기도", "region2": "부천시　소사구", "sig_name": "경기도 부천시 소사구", "total_cars": "1", "zone_id": "10359", "zone_name": "송내남부역 공영주차장"}, {"lat": "37.34534777662797", "lng": "126.97499082789992", "region1": "경기도", "region2": "의왕시", "sig_name": "경기도 의왕시", "total_cars": "1", "zone_id": "10824", "zone_name": "의왕 월드비전"}, {"lat": "37.25188497186808", "lng": "127.49125319952005", "region1": "경기도", "region2": "이천시", "sig_name": "경기도 이천시", "total_cars": "1", "zone_id": "13278", "zone_name": "SK하이닉스 사거리"}, {"lat": "37.4049577256845", "lng": "127.255889833001", "region1": "경기도", "region2": "광주시", "sig_name": "경기도 광주시", "total_cars": "1", "zone_id": "13357", "zone_name": "역동 찬우빌딩"}, {"lat": "37.6184305091504", "lng": "126.721319383434", "region1": "경기도", "region2": "김포시", "sig_name": "경기도 김포시", "total_cars": "1", "zone_id": "13457", "zone_name": "사우역 3번출구(L)"},